id,name,maxdate,mindate,latitude,elevation,longitude,datacoverage,elevationUnit
GHCND:ASN00009021,"PERTH AIRPORT, AS",2021-07-20,1944-05-01,-31.9275,15.4,115.9764,1,METERS
GHCND:USS0007E12S,"SUCKER CREEK, WY US",2021-07-19,1978-09-30,44.72,2706.6,-107.4,1,METERS
GHCND:ASN00014015,"DARWIN AIRPORT, AS",2021-07-20,1941-01-01,-12.4239,30.4,130.8925,1,METERS
GHCND:USS0008M07S,"LONE CONE, CO US",2021-07-19,1980-07-19,37.89,2926.1,-108.2,1,METERS
GHCND:USS0010C06S,"SPUR PARK, MT US",2021-07-19,1966-09-30,46.78,2468.9,-110.62,1,METERS
GHCND:USS0010D16S,"SHOWER FALLS, MT US",2021-07-19,1965-09-30,45.4,2468.9,-110.96,1,METERS
GHCND:USS0011H08S,"BEN LOMOND PEAK, UT US",2021-07-19,1978-09-30,41.38,2438.4,-111.94,1,METERS
GHCND:USS0011J01S,"CHALK CREEK NUMBER 1, UT US",2021-07-19,1978-09-30,40.85,2741.1,-111.05,1,METERS
GHCND:USS0018D20S,"BOWMAN SPRINGS, OR US",2021-07-19,1978-09-30,45.36,1380.7,-118.47,1,METERS
GHCND:USW00013733,"LYNCHBURG REGIONAL AIRPORT, VA US",2021-07-20,1944-08-01,37.32126,286.5,-79.20656,1,METERS
GHCND:USW00013899,"PENSACOLA REGIONAL AIRPORT, FL US",2021-07-19,1948-07-01,30.4781,34.1,-87.1869,1,METERS
GHCND:USW00014771,"SYRACUSE HANCOCK INTERNATIONAL AIRPORT, NY US",2021-07-20,1938-05-01,43.1111,125.9,-76.1038,1,METERS
GHCND:USW00014837,"MADISON DANE CO REGIONAL AIRPORT, WI US",2021-07-20,1939-10-01,43.1405,264.0,-89.3452,1,METERS
GHCND:USW00024023,"NORTH PLATTE REGIONAL AIRPORT, NE US",2021-07-20,1948-01-01,41.1213,846.7,-100.6694,1,METERS
GHCND:DA000021100,"VESTERVIG, DA",2020-12-31,1873-12-31,56.7667,18.0,8.3167,1,METERS
GHCND:BKM00014654,"SARAJEVO, BK",2021-07-19,1901-01-01,43.8678,630.0,18.4228,1,METERS
GHCND:ASN00086282,"MELBOURNE AIRPORT, AS",2021-07-20,1970-07-01,-37.6655,113.4,144.8321,1,METERS
GHCND:USS0013C13S,"BLACK PINE, MT US",2021-07-19,1965-09-30,46.41,2197.6,-113.43,1,METERS
GHCND:USS0019L24S,"HEAVENLY VALLEY, CA US",2021-07-19,1978-09-30,38.92,2615.8,-119.92,1,METERS
GHCND:USW00013874,"ATLANTA HARTSFIELD JACKSON INTERNATIONAL AIRPORT, GA US",2021-07-20,1930-01-01,33.6301,307.8,-84.4418,1,METERS
GHCND:USW00014922,"MINNEAPOLIS ST. PAUL INTERNATIONAL AIRPORT, MN US",2021-07-20,1938-04-09,44.8831,265.8,-93.2289,1,METERS
GHCND:DAE00100416,"STORE JYNDEVAD, DA",2020-12-31,1987-06-30,54.9,16.0,9.1331,1,METERS
GHCND:ENE00175075,"VAIKE MAARJA, EN",2021-04-30,1962-07-31,59.1414,121.0,26.2306,1,METERS
GHCND:FIE00142025,HANKO TVARMINNE,2021-05-31,1963-01-01,59.8439,3.0,23.2517,1,METERS
GHCND:FIE00142526,"KOKEMAKI PEIPOHJA HYRKOLA, FI",2021-05-31,1959-01-01,61.2706,37.0,22.2519,1,METERS
GHCND:FIE00142816,"HAMEENLINNA PIRTTIKOSKI, FI",2021-05-31,1966-04-01,61.0064,129.0,23.9231,1,METERS
GHCND:FIE00143211,"VIROLAHTI KOIVUNIEMI, FI",2021-05-31,1977-01-01,60.5269,5.0,27.6756,1,METERS
GHCND:FIE00143707,"SYSMA JOUTSJARVI, FI",2021-05-31,1965-01-01,61.5106,92.0,25.8144,1,METERS
GHCND:FIE00144482,"AHTARI MYLLYMAKI, FI",2021-05-31,1959-01-01,62.5344,157.0,24.2206,1,METERS
GHCND:FIE00144862,"RAUTAVAARA YLA LUOSTA, FI",2021-05-31,1976-06-01,63.3778,166.0,28.665,1,METERS
GHCND:FIE00145112,"KAUSTINEN TASTULA, FI",2021-05-31,1965-01-01,63.5931,70.0,23.7203,1,METERS
GHCND:FIE00145207,"KALAJOKI METSAKYLA, FI",2021-05-31,1965-01-01,64.2731,40.0,24.2108,1,METERS
GHCND:FIE00145577,"HAILUOTO OJAKYLA, FI",2021-05-31,1959-01-01,65.0192,8.0,24.7314,1,METERS
GHCND:FIE00145677,"VAALA PELSO, FI",2021-05-31,1959-01-01,64.5008,114.0,26.4275,1,METERS
GHCND:FIE00146067,"KUUSAMO KIUTAKONGAS, FI",2021-05-31,1966-08-01,66.3681,160.0,29.3192,1,METERS
GHCND:FIE00146187,"PELLO KK MUSEOTIE, FI",2021-05-31,1970-08-01,66.7722,84.0,23.9669,1,METERS
GHCND:FIE00146258,"ROVANIEMI APUKKA, FI",2021-05-31,1959-01-01,66.5789,106.0,26.015,1,METERS
GHCND:FIE00146618,"ENONTEKIO KILPISJARVI KYLAKESK, FI",2021-05-31,1978-12-31,69.0483,480.0,20.7956,1,METERS
GHCND:FRE00106192,"BASEL MULHOUSE, FR",2020-12-31,1947-01-01,47.6142,263.0,7.51,1,METERS
GHCND:FRE00171640,"CAP CEPET, FR",2020-12-31,1968-10-01,43.0792,115.0,5.9406,1,METERS
GHCND:GM000003342,"POTSDAM, GM",2021-05-31,1893-01-01,52.3833,81.0,13.0639,1,METERS
GHCND:GM000004063,"BAMBERG, GM",2021-05-31,1879-01-02,49.8753,240.0,10.9217,1,METERS
GHCND:GM000010393,"LINDENBERG, GM",2021-05-31,1906-04-01,52.2094,98.0,14.1203,1,METERS
GHCND:GME00102177,"HELGOLAND, GM",2021-05-31,1952-05-01,54.1764,4.0,7.8931,1,METERS
GHCND:GME00102193,"SCHLESWIG, GM",2021-05-31,1947-01-01,54.5289,43.0,9.5492,1,METERS
GHCND:GME00102404,"KONSTANZ, GM",2021-05-31,1941-01-01,47.6781,443.0,9.1908,1,METERS
GHCND:GME00102412,"KEMPTEN, GM",2021-05-31,1895-05-01,47.7242,705.0,10.3364,1,METERS
GHCND:GME00120970,"GERA LEUMNITZ, GM",2021-05-31,1952-01-01,50.8819,311.0,12.13,1,METERS
GHCND:GME00121186,"WEIDEN, GM",2021-05-31,1947-01-01,49.6669,440.0,12.1856,1,METERS
GHCND:GME00121378,"DREWITZ BEI BURG, GM",2021-05-31,1991-01-01,52.2183,80.0,12.165,1,METERS
GHCND:GME00121750,"EMMENDINGEN MUNDINGEN, GM",2021-05-31,1961-01-01,48.1383,201.0,7.8356,1,METERS
GHCND:GME00121882,"MOHRENDORF KLEINSEEBACH, GM",2021-05-31,1931-01-01,49.6506,268.0,11.0083,1,METERS
GHCND:GME00122410,"ALTOMUNSTER MAISBRUNN, GM",2021-05-31,1955-01-01,48.4067,510.0,11.3131,1,METERS
GHCND:GME00122482,"FREIBURG ELBE, GM",2021-05-31,1970-11-01,53.8292,2.0,9.2494,1,METERS
GHCND:GME00123190,"ARNSTEIN MUDESHEIM, GM",2021-05-31,1986-04-01,49.9706,220.0,9.9125,1,METERS
GHCND:GME00123274,"HAMBURG NEUWIEDENTHAL, GM",2021-05-31,1962-05-01,53.4792,3.0,9.8983,1,METERS
GHCND:GME00123586,"ASSLAR KLEIN ALTENSTADTEN, GM",2021-05-31,1981-09-01,50.5808,200.0,8.4692,1,METERS
GHCND:GME00123694,"BAD HERSFELD, GM",2021-05-31,1949-01-01,50.8531,272.0,9.7383,1,METERS
GHCND:GME00123934,"HOHWACHT, GM",2021-05-31,1977-11-01,54.3206,10.0,10.6742,1,METERS
GHCND:GME00123970,"HOLZKIRCHEN, GM",2021-05-31,1982-12-01,47.8831,685.0,11.6975,1,METERS
GHCND:GME00124474,"KIRCHBERG JAGST HERBOLDSHAUSEN, GM",2021-05-31,1981-10-01,49.1814,426.0,9.9808,1,METERS
GHCND:GME00124510,"BAD KISSINGEN, GM",2021-05-31,1946-01-01,50.2256,282.0,10.0803,1,METERS
GHCND:GME00124678,"BAD KONIGSHOFEN, GM",2021-05-31,1951-01-01,50.2853,288.0,10.4467,1,METERS
GHCND:GME00124726,"KOSCHING, GM",2021-05-31,1961-01-01,48.8308,417.0,11.4883,1,METERS
GHCND:GME00125278,"LENZEN ELBE, GM",2021-05-31,1951-01-01,53.1025,20.0,11.4878,1,METERS
GHCND:GME00125422,"LIPPSTADT BOKENFORDE, GM",2021-05-31,1980-12-01,51.6344,92.0,8.3953,1,METERS
GHCND:GME00125794,"MARTINRODA, GM",2021-05-31,1983-01-01,50.7344,430.0,10.8831,1,METERS
GHCND:GME00126046,"MICHELSTADT, GM",2021-05-31,1951-01-01,49.67,240.0,9.0119,1,METERS
GHCND:GME00126058,"MICHELSTADT VIELBRUNN, GM",2021-05-31,1987-10-01,49.7189,453.0,9.1006,1,METERS
GHCND:GME00126226,"MUHLDORF, GM",2021-05-31,1953-01-01,48.28,405.0,12.5039,1,METERS
GHCND:GME00126622,"NEUSTADT AM KULM FILCHENDORF, GM",2021-05-31,1951-01-01,49.8183,452.0,11.8653,1,METERS
GHCND:GME00126670,"REGENSBURG BURGWEINTING, GM",2021-05-31,1981-01-01,48.9842,341.0,12.1456,1,METERS
GHCND:GME00126910,"OBERSCHLEISSHEIM, GM",2021-05-31,1976-04-01,48.2444,484.0,11.5539,1,METERS
GHCND:GME00126946,"OBERVIECHTACH, GM",2021-05-31,1948-10-01,49.4531,596.0,12.4381,1,METERS
GHCND:GME00127258,"BAD STUNZEL BERLEBURG, GM",2021-05-31,1986-12-01,50.985,610.0,8.3689,1,METERS
GHCND:GME00127750,"RHEINAU MEMPRECHTSHOFEN, GM",2021-05-31,1958-01-01,48.6708,131.0,7.9956,1,METERS
GHCND:GME00128110,"SACHSENHEIM, GM",2021-05-31,1987-11-01,48.9578,248.0,9.0719,1,METERS
GHCND:GME00128218,"SANKT PETER ORDING, GM",2021-05-31,1951-01-01,54.3294,5.0,8.6028,1,METERS
GHCND:GME00128470,"SCHMELZ HUTTERSDORF, GM",2021-05-31,1966-01-01,49.4231,223.0,6.8403,1,METERS
GHCND:GME00128734,"SEEHAUSEN, GM",2021-05-31,1970-01-01,52.8928,21.0,11.7306,1,METERS
GHCND:GME00129022,"STAMMBACH QUERENBACH, GM",2021-05-31,1941-01-01,50.1542,598.0,11.7417,1,METERS
GHCND:GME00129718,"WAGHAUSEL KIRRLACH, GM",2021-05-31,1951-01-01,49.2456,105.0,8.5381,1,METERS
GHCND:GME00129754,"WITTENBORN, GM",2021-05-31,1981-04-01,53.9214,39.0,10.2306,1,METERS
GHCND:GME00130258,"WIESBADEN AURINGEN, GM",2021-05-31,1987-06-01,50.1331,263.0,8.3178,1,METERS
GHCND:GME00130486,"WOLFACH, GM",2021-05-31,1958-01-01,48.2958,291.0,8.24,1,METERS
GHCND:GME00130786,"BERGE, GM",2021-05-31,1953-07-01,52.6206,40.0,12.7889,1,METERS
GHCND:HUE00100247,"BUDAPEST, HU",2020-12-31,1901-01-01,47.5108,153.0,19.0206,1,METERS
GHCND:HUE00152440,"DEBRECEN AIRPORT, HU",2020-12-31,1901-01-01,47.4903,108.0,21.6106,1,METERS
GHCND:HUE00152450,"SZEGED, HU",2020-12-31,1901-01-01,46.2558,82.0,20.0903,1,METERS
GHCND:HUE00152455,"SZOMBATHELY, HU",2020-12-31,1901-01-01,47.1981,201.0,16.6478,1,METERS
GHCND:EN000026124,"LAANE NIGULA, EN",2021-04-30,1963-12-31,58.9508,24.0,23.8156,1,METERS
GHCND:NLE00152470,"EELDE, NL",2021-05-31,1906-03-01,53.1233,5.0,6.5844,1,METERS
GHCND:NOE00105476,"HOPEN, NO",2021-05-31,1945-10-15,76.5,6.0,25.0667,1,METERS
GHCND:NOE00109746,"TAFJORD, NO",2021-05-31,1930-06-17,62.2333,15.0,7.4167,1,METERS
GHCND:NOE00109768,"TAKLE, NO",2021-05-31,1950-06-02,61.0267,38.0,5.385,1,METERS
GHCND:NOE00109948,"ATNSJOEN, NO",2021-05-31,1956-12-30,61.8903,749.0,10.1417,1,METERS
GHCND:NOE00110101,"SKJAK, NO",2021-05-30,1895-12-30,61.9017,432.0,8.1719,1,METERS
GHCND:NOE00110128,"VANG I VALDRES, NO",2021-05-31,1902-07-31,61.1258,477.0,8.5817,1,METERS
GHCND:NOE00110213,"AL III, NO",2021-05-31,1956-12-30,60.6383,706.0,8.5658,1,METERS
GHCND:NOE00110222,"SOKNA II, NO",2021-05-31,1956-12-30,60.2381,140.0,9.9258,1,METERS
GHCND:NOE00110240,"HEDRUM, NO",2021-05-31,1895-06-29,59.1956,31.0,9.9681,1,METERS
GHCND:NOE00110411,"MYKLAND, NO",2021-05-31,1894-12-30,58.6331,245.0,8.2817,1,METERS
GHCND:NOE00110447,KJEVIK,2021-05-31,1946-01-01,58.2003,12.0,8.0681,1,METERS
GHCND:NOE00110500,"FLEKKEFJORD, NO",2021-05-31,1956-12-30,58.2842,5.0,6.6494,1,METERS
GHCND:NOE00110563,"MAUDAL, NO",2021-05-31,1956-12-30,58.7658,311.0,6.3694,1,METERS
GHCND:NOE00110581,"SOYLAND I GJESDAL, NO",2021-05-31,1902-09-29,58.6842,263.0,5.9844,1,METERS
GHCND:NOE00110608,"SVILAND, NO",2021-05-31,1895-06-29,58.8183,230.0,5.9203,1,METERS
GHCND:NOE00110743,"AURLAND, NO",2021-05-31,1956-12-30,60.9031,15.0,7.2017,1,METERS
GHCND:NOE00110779,"HAFSLO, NO",2021-05-31,1895-06-29,61.2925,246.0,7.1883,1,METERS
GHCND:NOE00110806,"HOVLANDSDAL, NO",2021-05-31,1899-12-31,61.2342,60.0,5.4319,1,METERS
GHCND:NOE00110815,"LAVIK, NO",2021-05-31,1956-12-30,61.1119,31.0,5.5467,1,METERS
GHCND:NOE00110869,"VIK I SOGN III, NO",2021-05-31,1894-12-30,61.0728,65.0,6.5814,1,METERS
GHCND:NOE00110923,"NORDDAL, NO",2021-05-31,1894-12-30,62.2478,28.0,7.2414,1,METERS
GHCND:NOE00111084,"LIAFOSS, NO",2021-05-31,1909-06-08,64.8383,44.0,11.9567,1,METERS
GHCND:NOE00111183,"LEIRFJORD, NO",2021-05-31,1956-12-30,66.0667,53.0,12.9156,1,METERS
GHCND:NOE00111201,"LUROY, NO",2021-05-31,1922-11-29,66.3894,115.0,13.1869,1,METERS
GHCND:NOE00111210,"OKSNINGOY, NO",2021-05-31,1956-12-30,65.1228,17.0,12.3733,1,METERS
GHCND:NOE00111219,"STEIGEN, NO",2021-05-31,1914-12-30,67.9217,35.0,15.1169,1,METERS
GHCND:NOE00111264,"BONES I BARDU, NO",2021-05-31,1906-12-30,68.6456,230.0,18.2456,1,METERS
GHCND:NOE00134394,"SAND I RYFYLKE II, NO",2021-05-31,1932-06-30,59.4792,25.0,6.2758,1,METERS
GHCND:NOE00134634,"LEINSTRAND, NO",2021-05-31,1960-07-30,63.3281,13.0,10.2733,1,METERS
GHCND:NOE00134658,"LOKSMYR, NO",2021-05-31,1960-07-30,63.2381,165.0,10.4353,1,METERS
GHCND:ROE00108887,"BACAU, RO",2020-09-30,1961-01-01,46.5331,184.0,26.9167,1,METERS
GHCND:ROE00108891,"CEAHLAU TOACA, RO",2020-09-30,1964-01-01,46.93,1897.0,25.92,1,METERS
GHCND:ROE00108897,"MIERCUREA CIUC, RO",2020-09-30,1961-01-01,46.3667,661.0,25.7331,1,METERS
GHCND:ROE00108900,"ROSIORI DE VEDE, RO",2020-09-30,1961-01-01,44.1,102.0,24.9831,1,METERS
GHCND:ROE00108903,"TULCEA, RO",2020-09-30,1961-01-01,45.1831,4.0,28.8167,1,METERS
GHCND:SP000006155,"MALAGA AEROPUERTO, SP",2021-07-19,1942-05-01,36.6667,7.0,-4.4881,1,METERS
GHCND:SP000008215,"NAVACERRADA, SP",2021-07-19,1946-01-01,40.7806,1894.0,-4.0103,1,METERS
GHCND:SP000009434,"ZARAGOZA AEROPUERTO, SP",2021-03-31,1941-01-01,41.6617,247.0,-1.0081,1,METERS
GHCND:SPE00119711,"A CORUNA, SP",2021-07-19,1930-10-01,43.3669,58.0,-8.4192,1,METERS
GHCND:SPE00119828,"OVIEDO, SP",2021-07-19,1972-12-01,43.3542,336.0,-5.8728,1,METERS
GHCND:SPE00120224,"LEON VIRGEN DEL CAMINO, SP",2021-07-19,1938-01-01,42.5889,916.0,-5.6492,1,METERS
GHCND:SPE00120233,"PONFERRADA, SP",2021-07-19,1951-01-01,42.5639,534.0,-6.6,1,METERS
GHCND:SPE00120287,"MADRID CUATROVIENTOS, SP",2021-07-19,1945-05-01,40.3778,687.0,-3.7892,1,METERS
GHCND:SWE00136141,"KARLSTAD AIRPORT, SW",2021-05-31,1942-06-01,59.4444,107.0,13.3375,1,METERS
GHCND:SWE00137628,"HANO A, SW",2021-05-31,1881-11-01,56.01,55.0,14.85,1,METERS
GHCND:SWE00137910,"HOBURG, SW",2021-05-31,1879-11-01,56.92,38.0,18.1664,1,METERS
GHCND:SWE00137932,"HINSHULT, SW",2021-04-30,1981-08-01,56.97,145.0,15.88,1,METERS
GHCND:SWE00138094,"SKILLINGARYD, SW",2021-04-30,1945-01-01,57.43,180.0,14.1,1,METERS
GHCND:SWE00138098,"VANGE, SW",2021-05-31,1991-04-01,57.44,45.0,18.49,1,METERS
GHCND:SWE00138196,"HEJNUM, SW",2021-05-31,1971-01-01,57.7,53.0,18.64,1,METERS
GHCND:SWE00138216,"PRASTKULLA, SW",2021-05-31,1945-01-01,57.72,290.0,14.99,1,METERS
GHCND:SWE00138386,"GENDALEN, SW",2021-04-30,1962-10-01,58.16,90.0,12.65,1,METERS
GHCND:SWE00138606,"MARIESTAD, SW",2021-05-31,1958-08-01,58.71,50.0,13.82,1,METERS
GHCND:SWE00138640,"SORBYTORP, SW",2021-05-31,1945-01-01,58.81,185.0,14.65,1,METERS
GHCND:SWE00138756,"ATORP, SW",2021-04-30,1961-01-01,59.1,105.0,14.37,1,METERS
GHCND:SWE00138778,"SAFFLE, SW",2021-04-30,1951-10-01,59.14,50.0,12.94,1,METERS
GHCND:SWE00138986,"GRASAS D, SW",2021-05-31,1987-11-01,59.53,110.0,13.94,1,METERS
GHCND:SWE00139022,"HOGBODA, SW",2021-04-30,1972-07-01,59.58,90.0,13.03,1,METERS
GHCND:SWE00139176,"VITTINGE, SW",2021-04-30,1973-11-01,59.9,50.0,17.03,1,METERS
GHCND:SWE00139250,"BROVALLEN, SW",2021-05-31,1991-01-01,60.1,100.0,16.3097,1,METERS
GHCND:SWE00140888,"RITSEM, SW",2021-05-31,1981-03-01,67.73,521.0,17.4697,1,METERS
GHCND:SWE00140898,"LAINIO, SW",2021-04-30,1961-01-01,67.76,315.0,22.35,1,METERS
GHCND:UK000056225,"OXFORD, UK",2020-12-31,1814-12-31,51.7667,63.0,-1.2667,1,METERS
GHCND:FIE00143041,"KOUVOLA UTTI LENTOPORTINTIE, FI",2021-05-31,1959-01-01,60.8903,99.0,26.9442,1,METERS
GHCND:GME00111512,"STUTTGART ECHTERDINGEN, GM",2021-05-31,1953-01-01,48.6892,371.0,9.2253,1,METERS
GHCND:GME00127930,"BERLIN SCHONEFELD, GM",2021-05-31,1957-01-01,52.3819,46.0,13.5325,1,METERS
GHCND:USC00420819,"BOUNTIFUL BENCH, UT US",2021-07-19,1974-10-01,40.891,1508.8,-111.8504,1,METERS
GHCND:USC00123207,"GARRETT 1 S, IN US",2021-05-31,1989-02-01,41.3366,265.2,-85.1198,1,METERS
GHCND:USC00160558,"BATON ROUGE SHERWOOD, LA US",2021-07-20,1979-07-01,30.4494,16.8,-91.0477,1,METERS
GHCND:USC00175675,"NEWCASTLE, ME US",2021-04-30,1965-06-01,44.0436,64.9,-69.53753,1,METERS
GHCND:USC00185934,"MILLERS 4 NE, MD US",2021-07-19,1988-03-01,39.7194,262.1,-76.8027,1,METERS
GHCND:NLE00109364,"WOLTERSUM, NL",2020-09-19,1950-12-31,53.2667,-1.0,6.7167,1,METERS
GHCND:ROE00108894,"DEVA, RO",2020-09-30,1961-01-01,45.8667,230.0,22.9,1,METERS
GHCND:USC00443375,"GLASGOW 1 SE, VA US",2021-07-20,1967-11-01,37.61838,224.6,-79.43575,1,METERS
GHCND:USS0003E03S,"BLIND PARK, SD US",2021-07-19,1990-06-01,44.11,2100.1,-103.98,1,METERS
GHCND:USS0005J12S,"STILLWATER CREEK, CO US",2021-07-19,1985-09-30,40.23,2657.9,-105.92,1,METERS
GHCND:USS0005K14S,"BERTHOUD SUMMIT, CO US",2021-07-19,1978-09-30,39.8,3444.2,-105.78,1,METERS
GHCND:USS0005M07S,"APISHAPA, CO US",2021-07-19,1980-06-09,37.33,3048.0,-105.07,1,METERS
GHCND:USS0006K06S,"NAST LAKE, CO US",2021-07-19,1985-09-30,39.3,2651.8,-106.61,1,METERS
GHCND:USS0006K24S,"COPPER MOUNTAIN, CO US",2021-07-19,1978-09-30,39.49,3215.6,-106.17,1,METERS
GHCND:USS0006K30S,"KILN, CO US",2021-06-30,1980-07-11,39.32,2926.1,-106.61,1,METERS
GHCND:USS0006L02S,"PARK CONE, CO US",2021-07-19,1980-08-03,38.82,2926.1,-106.59,1,METERS
GHCND:USS0006L03S,"PORPHYRY CREEK, CO US",2021-07-19,1978-09-30,38.49,3279.6,-106.34,1,METERS
GHCND:USS0006M03S,"UPPER SAN JUAN, CO US",2021-07-19,1978-09-30,37.49,3109.0,-106.84,1,METERS
GHCND:USS0006M22S,"CUMBRES TRESTLE, CO US",2021-07-19,1980-08-05,37.02,3060.2,-106.45,1,METERS
GHCND:USS0007E06S,"POWDER RIVER PASS, WY US",2021-07-19,1978-09-30,44.16,2889.5,-107.13,1,METERS
GHCND:USS0007E21S,"BALD MOUNTAIN, WY US",2021-07-19,1978-09-30,44.8,2859.0,-107.84,1,METERS
GHCND:USS0007E36S,"CLOUD PEAK RESERVOIR, WY US",2021-07-19,1978-09-30,44.4,3005.3,-107.06,1,METERS
GHCND:USS0007F01S,"BEAR TRAP MEADOW, WY US",2021-07-19,1980-07-31,43.89,2499.4,-107.06,1,METERS
GHCND:USS0007F02S,"MIDDLE POWDER, WY US",2021-07-19,1978-09-30,43.63,2365.2,-107.18,1,METERS
GHCND:USS0007H04S,"BATTLE MOUNTAIN, WY US",2021-07-19,1985-09-30,41.05,2267.7,-107.27,1,METERS
GHCND:USS0007J05S,"RIPPLE CREEK, CO US",2021-07-19,1986-09-22,40.11,3151.6,-107.29,1,METERS
GHCND:USS0007K01S,"NORTH LOST TRAIL, CO US",2021-07-19,1985-09-17,39.08,2804.2,-107.14,1,METERS
GHCND:USS0007K11S,"SCHOFIELD PASS, CO US",2021-07-19,1985-08-21,39.02,3261.4,-107.05,1,METERS
GHCND:USS0007K12S,"BISON LAKE, CO US",2021-07-19,1985-09-30,39.76,3316.2,-107.36,1,METERS
GHCND:USS0007M12S,"MOLAS LAKE, CO US",2021-07-19,1986-08-06,37.75,3200.4,-107.69,1,METERS
GHCND:USS0007M27S,"IDARADO, CO US",2021-07-19,1980-07-18,37.93,2987.0,-107.68,1,METERS
GHCND:USS0007M29S,"LIZARD HEAD PASS, CO US",2021-07-19,1980-07-24,37.8,3109.0,-107.92,1,METERS
GHCND:USS0007M31S,"VALLECITO, CO US",2021-07-19,1986-08-25,37.49,3316.2,-107.51,1,METERS
GHCND:USS0007M35S,"CASCADE NUMBER 2, CO US",2021-07-19,1990-09-30,37.66,2718.8,-107.8,1,METERS
GHCND:USS0008G03S,"SOUTH PASS, WY US",2021-07-19,1985-09-09,42.57,2755.4,-108.84,1,METERS
GHCND:USS0008M06S,"EL DIENTE PEAK, CO US",2021-07-19,1986-08-05,37.79,3048.0,-108.02,1,METERS
GHCND:USS0008M08S,"SCOTCH CREEK, CO US",2021-07-19,1986-08-05,37.65,2773.7,-108.01,1,METERS
GHCND:USS0009A01S,"ROCKY BOY, MT US",2021-07-19,1967-09-30,48.17,1432.6,-109.65,1,METERS
GHCND:USS0009C01S,"CRYSTAL LAKE, MT US",2021-07-19,1978-09-30,46.79,1844.0,-109.51,1,METERS
GHCND:USS0009D06S,"FISHER CREEK, MT US",2021-07-19,1966-09-30,45.06,2773.7,-109.94,1,METERS
GHCND:USS0009D08S,"WHITE MILL, MT US",2021-07-19,1973-09-30,45.05,2651.8,-109.91,1,METERS
GHCND:USS0009E08S,"WOLVERINE, WY US",2021-07-19,1980-07-28,44.8,2331.7,-109.66,1,METERS
GHCND:USS0009F08S,"LITTLE WARM, WY US",2021-07-19,1978-09-30,43.5,2856.0,-109.75,1,METERS
GHCND:USS0009F24S,"KIRWIN, WY US",2021-07-19,1980-08-19,43.86,2910.8,-109.32,1,METERS
GHCND:USS0009F25S,"COLD SPRINGS, WY US",2021-07-19,1983-09-30,43.28,2935.2,-109.45,1,METERS
GHCND:USS0009F27S,"ST. LAWRENCE ALT, WY US",2021-07-19,1983-09-30,43.03,2627.4,-109.17,1,METERS
GHCND:USS0009G03S,"HOBBS PARK, WY US",2021-07-19,1978-09-30,42.87,3078.5,-109.09,1,METERS
GHCND:USS0009J05S,"MOSBY MOUNTAIN, UT US",2021-07-19,1978-09-30,40.61,2898.6,-109.89,1,METERS
GHCND:USS0009J08S,"HICKERSON PARK, UT US",2021-07-19,1985-09-16,40.91,2787.4,-109.96,1,METERS
GHCND:USS0009K01S,"EAST WILLOW CREEK, UT US",2021-07-19,1986-08-05,39.31,2530.1,-109.53,1,METERS
GHCND:USS0009M02S,"CAMP JACKSON, UT US",2021-07-19,1985-09-30,37.81,2733.4,-109.49,1,METERS
GHCND:USS0010C03S,"PORCUPINE, MT US",2021-07-19,1976-09-30,46.11,1981.2,-110.47,1,METERS
GHCND:USS0010C08S,"S FORK SHIELDS, MT US",2021-07-19,1980-09-30,46.09,2468.9,-110.43,1,METERS
GHCND:USS0010C09S,"DEADMAN CREEK, MT US",2021-07-19,1967-09-30,46.79,1966.0,-110.68,1,METERS
GHCND:USS0010D07S,"NORTHEAST ENTRANCE, MT US",2021-07-19,1966-09-30,45.01,2240.3,-110.01,1,METERS
GHCND:USS0010D12S,"MONUMENT PEAK, MT US",2021-07-19,1980-08-12,45.22,2697.5,-110.24,1,METERS
GHCND:USS0010D24S,"PLACER BASIN, MT US",2021-07-19,1980-08-11,45.42,2691.4,-110.09,1,METERS
GHCND:USS0010E06S,"SYLVAN LAKE, WY US",2021-07-19,1980-09-30,44.48,2566.4,-110.16,1,METERS
GHCND:USS0010J01S,"HOLE IN ROCK, UT US",2021-07-19,1985-09-17,40.92,2788.9,-110.19,1,METERS
GHCND:USS0010J04S,"HEWINTA, UT US",2021-07-19,1985-09-18,40.95,2901.4,-110.48,1,METERS
GHCND:USS0010J18S,"ROCK CREEK, UT US",2021-07-19,1980-09-29,40.55,2404.6,-110.69,1,METERS
GHCND:USS0010J20S,"STEEL CREEK PARK, UT US",2021-07-19,1978-09-30,40.91,3109.0,-110.5,1,METERS
GHCND:USS0010J44S,"HAYDEN FORK, UT US",2021-07-19,1978-09-30,40.8,2807.8,-110.88,1,METERS
GHCND:USS0011C01S,"BOULDER MOUNTAIN, MT US",2021-07-19,1978-09-30,46.56,2423.2,-111.29,1,METERS
GHCND:USS0011C02S,"PICKFOOT CREEK, MT US",2021-07-19,1978-09-30,46.58,2026.9,-111.27,1,METERS
GHCND:USS0011E03S,"LAKEVIEW RIDGE, MT US",2021-07-19,1978-09-30,44.59,2255.5,-111.82,1,METERS
GHCND:USS0011E24S,"TEPEE CREEK, MT US",2021-07-19,1971-09-30,44.79,2438.4,-111.71,1,METERS
GHCND:USS0011E29S,"CARROT BASIN, MT US",2021-07-19,1966-09-30,44.96,2743.2,-111.29,1,METERS
GHCND:USS0011E30S,"WHISKEY CREEK, MT US",2021-07-19,1971-09-30,44.61,2072.6,-111.15,1,METERS
GHCND:USS0011E31S,"MADISON PLATEAU, MT US",2021-07-19,1967-09-30,44.59,2362.2,-111.12,1,METERS
GHCND:USS0011E35S,"BLACK BEAR, MT US",2021-07-19,1971-09-30,44.51,2490.2,-111.13,1,METERS
GHCND:USS0011E38S,"BEAVER CREEK, MT US",2021-07-19,1966-09-30,44.95,2392.7,-111.36,1,METERS
GHCND:USS0011F02S,"PINE CREEK PASS, ID US",2021-07-19,1988-09-30,43.57,2048.3,-111.21,1,METERS
GHCND:USS0011G30S,"SEDGWICK PEAK, ID US",2021-07-19,1988-09-30,42.52,2392.7,-111.96,1,METERS
GHCND:USS0011H21S,"HORSE RIDGE, UT US",2021-07-19,1978-09-30,41.31,2487.2,-111.45,1,METERS
GHCND:USS0011H37S,"BUG LAKE, UT US",2021-07-19,1978-09-30,41.68,2423.2,-111.42,1,METERS
GHCND:USS0011H55S,"DRY BREAD POND, UT US",2021-07-19,1978-09-30,41.41,2545.1,-111.54,1,METERS
GHCND:USS0011J02S,"CHALK CREEK NUMBER 2, UT US",2021-07-19,1978-09-30,40.89,2486.6,-111.07,1,METERS
GHCND:USS0011J11S,"FARMINGTON, UT US",2021-07-19,1978-09-30,40.99,2438.4,-111.82,1,METERS
GHCND:USS0011J21S,"TIMPANOGOS DIVIDE, UT US",2021-07-19,1978-09-30,40.43,2481.1,-111.62,1,METERS
GHCND:USS0011J23S,"DANIELS STRAWBERRY, UT US",2021-07-19,1978-09-30,40.3,2449.7,-111.26,1,METERS
GHCND:USS0011J42S,"SNOWBIRD, UT US",2021-07-19,1989-08-22,40.56,2938.3,-111.66,1,METERS
GHCND:USS0011J46S,"BEAVER DIVIDE, UT US",2021-07-19,1978-09-30,40.61,2523.7,-111.1,1,METERS
GHCND:USS0011J52S,"PARLEY S SUMMIT, UT US",2021-07-19,1978-09-30,40.76,2286.0,-111.63,1,METERS
GHCND:USS0011J53S,"SMITH AND MOREHOUSE, UT US",2021-07-19,1978-09-30,40.79,2316.5,-111.12,1,METERS
GHCND:USS0011J56S,"THAYNES CANYON, UT US",2021-07-19,1988-06-19,40.62,2813.3,-111.53,1,METERS
GHCND:USS0011J57S,"BRIGHTON, UT US",2021-07-19,1986-09-23,40.6,2667.0,-111.58,1,METERS
GHCND:USS0011J64S,"LOOKOUT PEAK, UT US",2021-07-19,1988-06-22,40.84,2499.4,-111.71,1,METERS
GHCND:USS0011J65S,"MILL D NORTH, UT US",2021-07-19,1988-09-30,40.66,2733.1,-111.64,1,METERS
GHCND:USS0011K13S,"BEAVER DAMS, UT US",2021-07-19,1980-09-29,39.14,2435.4,-111.56,1,METERS
GHCND:USS0011K21S,"CLEAR CREEK NUMBER 1, UT US",2021-07-19,1978-09-30,39.87,2715.2,-111.28,1,METERS
GHCND:USS0011K39S,"PICKLE KEG, UT US",2021-07-19,1978-09-30,39.01,2926.1,-111.58,1,METERS
GHCND:USS0011K52S,"PAYSON RANGER STATION, UT US",2021-07-19,1980-09-29,39.93,2458.5,-111.63,1,METERS
GHCND:USS0011L05S,"DONKEY RESERVOIR, UT US",2021-07-19,1985-09-30,38.21,2987.0,-111.48,1,METERS
GHCND:USS0012B12S,"MOUNT LOCKHART, MT US",2021-07-19,1968-09-30,47.92,1950.7,-112.82,1,METERS
GHCND:USS0012B13S,"WALDRON, MT US",2021-07-19,1968-09-30,47.92,1706.9,-112.79,1,METERS
GHCND:USS0012B14S,"COPPER CAMP, MT US",2021-07-19,1978-09-30,47.08,2118.4,-112.73,1,METERS
GHCND:USS0012B16S,"COPPER BOTTOM, MT US",2021-07-19,1978-09-30,47.06,1585.0,-112.6,1,METERS
GHCND:USS0012B17S,"WOOD CREEK, MT US",2021-07-19,1978-09-30,47.45,1816.6,-112.81,1,METERS
GHCND:USS0012C11S,"ROCKER PEAK, MT US",2021-07-19,1967-09-30,46.36,2438.4,-112.26,1,METERS
GHCND:USS0012C13S,"FROHNER MEADOW, MT US",2021-07-19,1972-09-30,46.44,1975.1,-112.19,1,METERS
GHCND:USS0012E08S,"BEAGLE SPRINGS, MT US",2021-07-19,1978-09-30,44.47,2697.5,-112.98,1,METERS
GHCND:USS0012J07S,"MINING FORK, UT US",2021-07-19,1988-09-21,40.49,2505.8,-112.61,1,METERS
GHCND:USS0012L04S,"BOX CREEK, UT US",2021-07-19,1979-09-30,38.51,2995.6,-112.02,1,METERS
GHCND:USS0012M03S,"WEBSTER FLAT, UT US",2021-07-19,1980-09-30,37.58,2805.1,-112.9,1,METERS
GHCND:USS0012M06S,"LONG VALLEY JCT, UT US",2021-07-19,1986-06-10,37.49,2275.0,-112.51,1,METERS
GHCND:USS0012M13S,"CASTLE VALLEY, UT US",2021-07-19,1980-09-29,37.66,2920.0,-112.74,1,METERS
GHCND:USS0013A19S,"FLATTOP MOUNTAIN, MT US",2021-07-19,1969-09-30,48.8,1920.2,-113.86,1,METERS
GHCND:USS0013A25S,"NOISY BASIN, MT US",2021-07-19,1974-09-30,48.16,1841.0,-113.95,1,METERS
GHCND:USS0013A26S,"PIKE CREEK, MT US",2021-07-19,1976-09-30,48.3,1807.5,-113.33,1,METERS
GHCND:USS0013A27S,"MANY GLACIER, MT US",2021-07-19,1976-09-30,48.8,1493.5,-113.67,1,METERS
GHCND:USS0013B22S,"KRAFT CREEK, MT US",2021-07-19,1980-09-05,47.43,1447.8,-113.78,1,METERS
GHCND:USS0013B24S,"MOSS PEAK, MT US",2021-07-19,1985-07-11,47.68,2066.5,-113.96,1,METERS
GHCND:USS0013C03S,"SKALKAHO SUMMIT, MT US",2021-07-19,1976-09-30,46.24,2209.8,-113.77,1,METERS
GHCND:USS0013C31S,"N FK ELK CREEK, MT US",2021-07-19,1967-09-30,46.87,1905.0,-113.28,1,METERS
GHCND:USS0013C36S,"PETERSON MEADOWS, MT US",2021-07-19,1970-09-30,46.13,2194.6,-113.31,1,METERS
GHCND:USS0013C38S,"LUBRECHT FLUME, MT US",2021-07-19,1970-09-30,46.88,1426.5,-113.32,1,METERS
GHCND:USS0013C43S,"WARM SPRINGS, MT US",2021-07-19,1977-09-30,46.27,2377.4,-113.16,1,METERS
GHCND:USS0013C44S,"BARKER LAKES, MT US",2021-07-19,1979-09-30,46.1,2514.6,-113.13,1,METERS
GHCND:USS0013D10S,"BLOODY DICK, MT US",2021-07-19,1976-09-30,45.17,2316.5,-113.5,1,METERS
GHCND:USS0013D22S,"SADDLE MOUNTAIN, ID US",2021-07-19,1967-09-30,45.69,2420.1,-113.97,1,METERS
GHCND:USS0013M04S,"LITTLE GRASSY, UT US",2021-07-19,1985-09-30,37.49,1859.3,-113.85,1,METERS
GHCND:USS0014A11S,"GRAVE CREEK, MT US",2021-07-19,1975-09-30,48.91,1310.6,-114.77,1,METERS
GHCND:USS0014A12S,"STAHL PEAK, MT US",2021-07-19,1975-09-30,48.91,1837.9,-114.86,1,METERS
GHCND:USS0014A14S,"HAND CREEK, MT US",2021-07-19,1976-09-30,48.31,1534.7,-114.84,1,METERS
GHCND:USS0014C12S,"TWIN LAKES, MT US",2021-07-19,1967-09-30,46.14,1950.7,-114.51,1,METERS
GHCND:USS0014C13S,"TWELVEMILE CREEK, MT US",2021-07-19,1967-09-30,46.14,1706.9,-114.45,1,METERS
GHCND:USS0014D02S,"NEZ PERCE CAMP, MT US",2021-07-19,1976-09-30,45.73,1722.1,-114.48,1,METERS
GHCND:USS0015A03S,"HAWKINS LAKE, MT US",2021-07-19,1968-09-30,48.97,1966.0,-115.95,1,METERS
GHCND:USS0015A05S,"GARVER CREEK, MT US",2021-07-19,1968-09-30,48.98,1295.4,-115.82,1,METERS
GHCND:USS0015G02S,"WILSON CREEK, ID US",2021-07-19,1990-09-25,42.01,2170.2,-115.0,1,METERS
GHCND:USS0015H03S,"SEVENTYSIX CREEK, NV US",2021-07-19,1978-09-30,41.74,2164.1,-115.47,1,METERS
GHCND:USS0015H04S,"BIG BEND, NV US",2021-07-19,1978-09-30,41.76,2042.2,-115.69,1,METERS
GHCND:USS0015J12S,"CORRAL CANYON, NV US",2021-07-19,1978-09-30,40.28,2590.8,-115.53,1,METERS
GHCND:USS0015K03S,"DIAMOND PEAK, NV US",2021-07-19,1983-09-30,39.56,2448.5,-115.84,1,METERS
GHCND:USS0016H02S,"JACK CREEK UPPER, NV US",2021-07-19,1978-09-30,41.55,2209.8,-116.01,1,METERS
GHCND:USS0018D06S,"LUCKY STRIKE, OR US",2021-07-19,1978-09-30,45.27,1514.9,-118.85,1,METERS
GHCND:USS0018D19S,"HIGH RIDGE, OR US",2021-07-19,1978-09-30,45.7,1499.6,-118.11,1,METERS
GHCND:USS0018E05S,"BOURNE, OR US",2021-07-19,1978-09-30,44.83,1783.1,-118.19,1,METERS
GHCND:USS0019D02S,"ARBUCKLE MOUNTAIN, OR US",2021-07-19,1978-09-30,45.19,1758.7,-119.25,1,METERS
GHCND:USS0019K04S,"MARLETTE LAKE, NV US",2021-07-19,1978-09-30,39.16,2401.8,-119.9,1,METERS
GHCND:USS0019K08S,"BIG MEADOW, NV US",2021-07-19,1983-09-30,39.46,2514.3,-119.94,1,METERS
GHCND:USS0019L03S,"HAGAN S MEADOW, CA US",2021-07-19,1978-09-30,38.85,2370.1,-119.94,1,METERS
GHCND:USS0019L13S,"VIRGINIA LAKES RIDGE, CA US",2021-07-19,1978-09-30,38.07,2878.8,-119.23,1,METERS
GHCND:USS0019L17S,"LOBDELL LAKE, CA US",2021-07-19,1978-09-30,38.44,2814.2,-119.37,1,METERS
GHCND:USS0019L19S,"EBBETTS PASS, CA US",2021-07-19,1978-09-30,38.55,2671.6,-119.8,1,METERS
GHCND:USS0020B25S,"TROUGH, WA US",2021-07-19,1978-09-30,47.23,1670.3,-120.29,1,METERS
GHCND:USS0020G02S,"SUMMER RIM, OR US",2021-07-19,1978-09-30,42.7,2158.0,-120.8,1,METERS
GHCND:USW00093721,"BALTIMORE WASHINGTON INTERNATIONAL AIRPORT, MD US",2021-07-20,1939-07-01,39.1733,47.5,-76.684,1,METERS
GHCND:USW00093817,"EVANSVILLE REGIONAL AIRPORT, IN US",2021-07-20,1948-01-01,38.0441,121.9,-87.5205,1,METERS
GHCND:USW00093842,"COLUMBUS METROPOLITAN AIRPORT, GA US",2021-07-19,1948-01-01,32.5161,119.5,-84.9422,1,METERS
GHCND:USW00094728,"NY CITY CENTRAL PARK, NY US",2021-07-19,1869-01-01,40.77898,42.7,-73.96925,1,METERS
GHCND:USW00094814,"HOUGHTON LAKE ROSCOMMON CO AIRPORT, MI US",2021-07-20,1964-07-01,44.3591,350.8,-84.6738,1,METERS
GHCND:USW00094822,"ROCKFORD GREATER ROCKFORD AIRPORT, IL US",2021-07-20,1951-01-01,42.1927,222.5,-89.093,1,METERS
GHCND:USW00094830,"TOLEDO EXPRESS AIRPORT, OH US",2021-07-20,1955-01-01,41.5871,205.4,-83.8055,1,METERS
GHCND:USW00094860,"GRAND RAPIDS GERALD R FORD INTERNATIONAL AIRPORT, MI US",2021-07-20,1963-11-24,42.8825,244.8,-85.52389,1,METERS
GHCND:FI000000304,"HELSINKI KAISANIEMI AWS, FI",2021-05-31,1951-01-01,60.1667,4.0,24.95,1,METERS
GHCND:FIE00143381,"KANKAANPAA NIINISALO PUOLUSTUS, FI",2021-07-19,1959-01-01,61.8381,124.0,22.4669,1,METERS
GHCND:GME00122938,"GRAFENBERG KASBERG, GM",2021-05-31,1991-01-01,49.665,506.0,11.2253,1,METERS
GHCND:GME00125638,"LUISENTHAL TALSPERRE, GM",2021-05-31,1979-01-01,50.7675,528.0,10.7214,1,METERS
GHCND:GME00126010,"METTEN, GM",2021-05-31,1879-01-01,48.8556,313.0,12.9203,1,METERS
GHCND:GME00129634,"VILLINGEN SCHWENNINGEN, GM",2021-05-31,1947-01-01,48.0458,720.0,8.4617,1,METERS
GHCND:NOE00100575,"HALDEN, NO",2021-05-31,1881-12-30,59.1225,8.0,11.3883,1,METERS
GHCND:NOE00109631,"LINDESNES FYR, NO",2021-05-31,1953-12-30,57.9831,13.0,7.0481,1,METERS
GHCND:NOE00110896,"EIDE PA NORDMORE, NO",2021-05-31,1956-12-30,62.8914,49.0,7.3906,1,METERS
GHCND:NOE00134070,"UTGARD, NO",2021-05-31,1962-06-29,64.1167,50.0,11.7394,1,METERS
GHCND:ROE00108888,"BOTOSANI, RO",2020-09-30,1961-01-01,47.68,161.0,26.67,1,METERS
GHCND:ROE00108899,"RAMNICU VALCEA, RO",2020-09-30,1961-01-01,45.1,239.0,24.37,1,METERS
GHCND:SPE00120584,VALENCIA AEROPUERTO,2021-05-31,1966-01-01,39.4867,69.0,0.4731,1,METERS
GHCND:SWE00139272,"AVESTA, SW",2021-05-31,1977-01-01,60.14,100.0,16.17,1,METERS
GHCND:SWE00139360,"STOLLET D, SW",2021-05-31,1976-06-01,60.43,145.0,13.24,1,METERS
GHCND:SWE00139374,"LANGSHYTTAN D, SW",2020-12-31,1987-10-01,60.46,110.0,16.0597,1,METERS
GHCND:SWE00139460,"GAVLE ABYGGEBY, SW",2021-05-31,1991-05-01,60.73,35.0,17.12,1,METERS
GHCND:SWE00139562,"VAMHUS D, SW",2021-05-31,1990-07-01,61.14,195.0,14.42,1,METERS
GHCND:SWE00139642,"SIMEA, SW",2021-05-31,1969-01-01,61.57,130.0,16.3297,1,METERS
GHCND:SWE00139710,"BERGSJO, SW",2021-04-29,1990-06-01,61.95,55.0,17.07,1,METERS
GHCND:SWE00139726,"HENNAN D, SW",2021-05-31,1977-11-01,62.03,215.0,15.91,1,METERS
GHCND:SWE00139794,"KOLSILLRE D, SW",2021-05-31,1969-11-01,62.4,255.0,15.21,1,METERS
GHCND:SWE00139810,"MEDSKOGEN, SW",2021-01-31,1982-07-01,62.44,655.0,12.97,1,METERS
GHCND:SWE00139842,"LJUSNEDAL, SW",2021-05-31,1930-01-01,62.55,585.0,12.6,1,METERS
GHCND:SWE00139950,"HOGLEKARDALEN, SW",2021-04-30,1962-02-01,63.08,592.0,13.75,1,METERS
GHCND:SWE00140020,"TULLUS D, SW",2021-05-31,1990-08-01,63.31,340.0,14.32,1,METERS
GHCND:SWE00140028,"MORSIL, SW",2021-04-30,1971-07-01,63.32,400.0,13.65,1,METERS
GHCND:SWE00140090,"LUNDSJON, SW",2021-05-31,1971-07-01,63.52,410.0,14.53,1,METERS
GHCND:SWE00140116,"DIGERNASET, SW",2021-05-31,1989-07-01,63.62,410.0,12.92,1,METERS
GHCND:SWE00140136,"OLDEN D, SW",2020-11-22,1983-06-01,63.7,340.0,13.65,1,METERS
GHCND:SWE00140152,"SODERSEL D, SW",2021-05-31,1974-07-01,63.75,385.0,18.17,1,METERS
GHCND:SWE00140228,"EDEVIK, SW",2021-04-30,1980-07-01,63.98,425.0,12.87,1,METERS
GHCND:SWE00140314,"MALKALEN D, SW",2021-05-31,1989-06-01,64.39,235.0,19.69,1,METERS
GHCND:SWE00140378,"BRANNFORSSUND, SW",2021-04-30,1989-06-01,64.65,225.0,19.37,1,METERS
GHCND:SWE00140416,"KUSMARK D, SW",2021-05-31,1989-05-01,64.8797,55.0,20.83,1,METERS
GHCND:SWE00140530,"NORDANAS, SW",2021-04-30,1989-06-01,65.4597,405.0,16.09,1,METERS
GHCND:SWE00140728,"RODUPP, SW",2021-04-29,1989-06-01,66.4597,55.0,22.79,1,METERS
GHCND:USS0020H06S,"CEDAR PASS, CA US",2021-07-19,1978-09-30,41.58,2142.7,-120.3,1,METERS
GHCND:USS0020K04S,"INDEPENDENCE CAMP, CA US",2021-07-19,1978-09-30,39.45,2134.5,-120.29,1,METERS
GHCND:USS0020K05S,"INDEPENDENCE LAKE, CA US",2021-07-19,1978-09-30,39.43,2545.7,-120.31,1,METERS
GHCND:USS0021C10S,"GREEN LAKE, WA US",2021-07-19,1982-09-30,46.55,1804.4,-121.17,1,METERS
GHCND:USS0021D04S,"RED HILL, OR US",2021-07-19,1978-09-30,45.46,1344.2,-121.7,1,METERS
GHCND:USS0021E05S,"SANTIAM JCT., OR US",2021-07-19,1978-09-30,44.44,1140.0,-121.95,1,METERS
GHCND:USS0021G03S,"TAYLOR BUTTE, OR US",2021-07-19,1978-09-30,42.69,1533.1,-121.43,1,METERS
GHCND:USS0022D02S,"NORTH FORK, OR US",2021-07-19,1978-09-30,45.55,932.7,-122.0,1,METERS
GHCND:USS0022E07S,"JUMP OFF JOE, OR US",2021-07-19,1978-09-30,44.39,1072.9,-122.17,1,METERS
GHCND:USS0049L10S,"COOPER LAKE, AK US",2021-07-19,1981-09-30,60.39,365.8,-149.69,1,METERS
GHCND:USS0049M08S,"INDIAN PASS, AK US",2021-07-19,1979-09-30,61.07,716.3,-149.48,1,METERS
GHCND:USS0051R01S,"BETTLES FIELD, AK US",2021-07-19,1980-09-30,66.92,195.1,-151.53,1,METERS
GHCND:USW00003822,"SAVANNAH INTERNATIONAL AIRPORT, GA US",2021-07-20,1948-01-01,32.13133,14.0,-81.20237,1,METERS
GHCND:USW00003870,"GRNVL SPART INTERNATIONAL AIRPORT, SC US",2021-07-20,1962-10-15,34.90611,291.1,-82.21255,1,METERS
GHCND:USW00003927,"DAL FTW WSCMO AIRPORT, TX US",2021-07-20,1948-01-01,32.8978,170.7,-97.0189,1,METERS
GHCND:USW00003928,"WICHITA DWIGHT D. EISENHOWER NATIONAL AIRPORT, KS US",2021-07-20,1953-12-01,37.6475,402.6,-97.43,1,METERS
GHCND:USW00004725,"BINGHAMTON GREATER AP, NY US",2021-07-20,1951-05-25,42.2068,486.2,-75.98,1,METERS
GHCND:USW00012839,"MIAMI INTERNATIONAL AIRPORT, FL US",2021-07-20,1948-01-01,25.7881,8.8,-80.3169,1,METERS
GHCND:USW00012842,"TAMPA INTERNATIONAL AIRPORT, FL US",2021-07-20,1939-02-01,27.96194,5.8,-82.5403,1,METERS
GHCND:USW00013722,"RALEIGH AIRPORT, NC US",2021-07-20,1944-05-18,35.8923,126.8,-78.7819,1,METERS
GHCND:USW00013723,"GREENSBORO AIRPORT, NC US",2021-07-20,1928-11-01,36.0969,271.3,-79.9432,1,METERS
GHCND:USW00013737,"NORFOLK INTERNATIONAL AIRPORT, VA US",2021-07-20,1946-01-01,36.9033,9.1,-76.1922,1,METERS
GHCND:USW00013741,"ROANOKE INTERNATIONAL AIRPORT, VA US",2021-07-20,1948-01-01,37.3169,358.1,-79.9741,1,METERS
GHCND:USW00013781,"WILMINGTON NEW CASTLE CO AIRPORT, DE US",2021-07-20,1948-01-01,39.6744,24.1,-75.60567,1,METERS
GHCND:USW00013870,"ALMA BACON CO AIRPORT, GA US",2021-07-20,1938-06-01,31.5358,58.8,-82.5067,1,METERS
GHCND:USW00013876,"BIRMINGHAM AIRPORT, AL US",2021-07-20,1930-01-01,33.56556,187.5,-86.745,1,METERS
GHCND:USW00013880,"CHARLESTON INTL. AIRPORT, SC US",2021-07-20,1937-03-01,32.89943,12.2,-80.04075,1,METERS
GHCND:USW00013893,"MEMPHIS INTERNATIONAL AIRPORT, TN US",2021-07-20,1940-01-01,35.0564,77.4,-89.9865,1,METERS
GHCND:USW00013894,"MOBILE REGIONAL AIRPORT, AL US",2021-07-20,1948-01-01,30.6882,65.5,-88.24586,1,METERS
GHCND:USW00013897,"NASHVILLE INTERNATIONAL AIRPORT, TN US",2021-07-20,1948-01-01,36.11889,182.9,-86.68917,1,METERS
GHCND:USW00013957,"SHREVEPORT AIRPORT, LA US",2021-07-20,1939-07-01,32.4472,77.4,-93.8244,1,METERS
GHCND:USW00013958,"AUSTIN CAMP MABRY, TX US",2021-07-19,1938-06-01,30.3208,204.2,-97.7604,1,METERS
GHCND:USW00013959,"WACO REGIONAL AIRPORT, TX US",2021-07-20,1941-01-01,31.61889,152.4,-97.22833,1,METERS
GHCND:USW00013964,"FORT SMITH REGIONAL AIRPORT, AR US",2021-07-20,1945-09-27,35.333,136.9,-94.3625,1,METERS
GHCND:USW00013995,"SPRINGFIELD WEATHER SERVICE OFFICE AIRPORT, MO US",2021-07-20,1940-08-01,37.23985,384.7,-93.39007,1,METERS
GHCND:USW00013996,"TOPEKA ASOS, KS US",2021-07-20,1946-08-01,39.0725,267.0,-95.6261,1,METERS
GHCND:USW00014732,"LAGUARDIA AIRPORT, NY US",2021-07-20,1939-10-07,40.77944,3.4,-73.88035,1,METERS
GHCND:USW00014735,"ALBANY INTERNATIONAL AIRPORT, NY US",2021-07-20,1938-06-01,42.74722,85.3,-73.79912,1,METERS
GHCND:USW00014737,"ALLENTOWN LEHIGH VALLEY INTERNATIONAL AIRPORT, PA US",2021-07-20,1948-01-01,40.64985,118.9,-75.44771,1,METERS
GHCND:USW00014739,"BOSTON, MA US",2021-07-20,1936-01-01,42.3606,3.7,-71.0097,1,METERS
GHCND:USW00014764,"PORTLAND JETPORT, ME US",2021-07-20,1940-11-07,43.64222,13.7,-70.30444,1,METERS
GHCND:USW00014768,"ROCHESTER GREATER INTERNATIONAL, NY US",2021-07-20,1926-01-02,43.11722,164.3,-77.67541,1,METERS
GHCND:USW00014820,"CLEVELAND HOPKINS INTERNATIONAL AIRPORT, OH US",2021-07-20,1938-05-01,41.4057,238.0,-81.852,1,METERS
GHCND:USW00014826,"FLINT FCWOS, MI US",2021-07-20,1948-05-02,42.9666,234.7,-83.7494,1,METERS
GHCND:USW00014839,"MILWAUKEE MITCHELL AIRPORT, WI US",2021-07-20,1938-04-01,42.95489,203.3,-87.90457,1,METERS
GHCND:USW00014847,"SAULT STE MARIE SANDERSON FIELD, MI US",2021-07-20,1931-01-01,46.4794,220.1,-84.3572,1,METERS
GHCND:USW00014860,"ERIE INTERNATIONAL AIRPORT, PA US",2021-07-20,1926-01-01,42.0803,222.2,-80.1824,1,METERS
GHCND:USW00014895,"AKRON CANTON AIRPORT, OH US",2021-07-20,1948-07-01,40.9181,369.7,-81.4435,1,METERS
GHCND:USW00014898,"GREEN BAY A S INTERNATIONAL AIRPORT, WI US",2021-07-20,1886-09-01,44.4794,209.4,-88.1366,1,METERS
GHCND:USW00014913,"DULUTH INTERNATIONAL AIRPORT, MN US",2021-07-20,1948-01-01,46.8369,436.8,-92.1833,1,METERS
GHCND:USW00014923,"MOLINE QUAD CITY INTERNATIONAL AIRPORT, IL US",2021-07-20,1943-05-24,41.46528,180.4,-90.52333,1,METERS
GHCND:USW00014935,"GRAND ISLAND CENTRAL NE REGIONAL AIRPORT, NE US",2021-07-20,1938-03-21,40.9611,560.8,-98.3136,1,METERS
GHCND:USW00014941,"NORFOLK KARL STEFAN MEMORIAL AIRPORT, NE US",2021-07-20,1945-10-01,41.9855,472.7,-97.4352,1,METERS
GHCND:USW00014991,"CHIPPEWA VALLEY REGIONAL AIRPORT, WI US",2021-07-19,1949-10-01,44.8665,269.7,-91.4879,1,METERS
GHCND:USW00023023,"MIDLAND INTERNATIONAL AIRPORT, TX US",2021-07-20,1930-06-01,31.9475,872.3,-102.2086,1,METERS
GHCND:USW00023155,"BAKERSFIELD AIRPORT, CA US",2021-07-20,1937-10-01,35.4344,149.0,-119.0542,1,METERS
GHCND:USW00023185,"RENO AIRPORT, NV US",2021-07-20,1937-03-01,39.4838,1344.2,-119.7711,1,METERS
GHCND:USW00024029,"SHERIDAN AIRPORT, WY US",2021-07-20,1948-01-01,44.7694,1202.4,-106.9688,1,METERS
GHCND:USW00024153,"MISSOULA INTERNATIONAL AIRPORT, MT US",2021-07-20,1948-01-01,46.9208,972.9,-114.0925,1,METERS
GHCND:USW00024156,"POCATELLO REGIONAL AIRPORT, ID US",2021-07-20,1939-01-03,42.9202,1357.0,-112.5711,1,METERS
GHCND:USW00024213,"EUREKA WEATHER FORECAST OFFICE WOODLEY ISLAND, CA US",2021-07-19,1941-12-01,40.8097,6.1,-124.1602,1,METERS
GHCND:USW00024225,"MEDFORD INTERNATIONAL AIRPORT, OR US",2021-07-20,1928-01-01,42.37505,400.2,-122.8771,1,METERS
GHCND:USW00024233,"SEATTLE TACOMA AIRPORT, WA US",2021-07-20,1948-01-01,47.4444,112.8,-122.3138,1,METERS
GHCND:USW00024243,"YAKIMA AIRPORT, WA US",2021-07-20,1946-09-06,46.5683,324.3,-120.5428,1,METERS
GHCND:USS0005J06S,"DEADMAN HILL, CO US",2021-07-19,1978-09-30,40.81,3115.1,-105.77,1,METERS
GHCND:USS0009J16S,"TROUT CREEK, UT US",2021-07-19,1978-09-30,40.74,2901.1,-109.67,1,METERS
GHCND:USS0010D13S,"LICK CREEK, MT US",2021-07-19,1963-09-30,45.5,2090.9,-110.97,1,METERS
GHCND:USS0011L01S,"FARNSWORTH LAKE, UT US",2021-07-19,1980-09-29,38.77,2951.1,-111.68,1,METERS
GHCND:USS0012L06S,"KIMBERLY MINE, UT US",2021-07-19,1980-09-29,38.48,2782.5,-112.39,1,METERS
GHCND:USS0015A08S,"BANFIELD MOUNTAIN, MT US",2021-07-19,1968-09-30,48.57,1706.9,-115.45,1,METERS
GHCND:USS0015C10S,"HOODOO BASIN, MT US",2021-07-19,1966-09-30,46.98,1844.0,-115.03,1,METERS
GHCND:USW00003856,"HUNTSVILLE INTNL AIRPORT, AL US",2021-07-20,1958-09-01,34.6441,190.2,-86.7869,1,METERS
GHCND:USW00012834,"DAYTONA BEACH INTERNATIONAL AIRPORT, FL US",2021-07-20,1937-01-01,29.1828,9.4,-81.0483,1,METERS
GHCND:USW00014605,"AUGUSTA STATE AIRPORT, ME US",2021-07-19,1948-06-01,44.3155,107.0,-69.7972,1,METERS
GHCND:GME00131674,"BRAUNSCHWEIG, GM",2021-05-29,1961-01-01,52.2903,81.0,10.4483,1,METERS
GHCND:GME00131842,"BRETTEN, GM",2021-05-31,1983-11-01,49.0264,185.0,8.7164,1,METERS
GHCND:GME00132346,"BUCHENBACH, GM",2021-05-31,1990-10-01,47.9631,445.0,7.9989,1,METERS
GHCND:GMM00010161,"BOLTENHAGEN, GM",2021-05-31,1947-01-01,54.0042,15.0,11.1919,1,METERS
GHCND:GMM00010526,"BAD MARIENBERG, GM",2021-05-31,1962-12-01,50.6631,547.0,7.9594,1,METERS
GHCND:NLE00101920,"SCHELLINGWOUDE, NL",2020-09-10,1931-12-31,52.3831,-1.0,4.9667,1,METERS
GHCND:NO000050540,"BERGEN FLORIDA, NO",2021-07-19,1957-01-01,60.3831,12.0,5.3331,1,METERS
GHCND:NOE00100570,"MESTAD I ODDERNES, NO",2021-05-31,1899-12-30,58.2153,151.0,7.8906,1,METERS
GHCND:NOE00109813,"IGSI I HOBOL, NO",2021-05-31,1956-12-30,59.6356,144.0,11.0478,1,METERS
GHCND:NOE00109930,"NORDSTRAND, NO",2021-05-31,1956-12-30,59.8728,118.0,10.7925,1,METERS
GHCND:NOE00110276,"FOLDSAE, NO",2021-05-31,1956-12-30,59.3239,532.0,8.1519,1,METERS
GHCND:NOE00134694,"ANGARDSVATNET, NO",2021-05-31,1965-06-29,62.6717,596.0,9.1978,1,METERS
GHCND:NOE00134934,NORDSTRAUM I KVAENANGEN,2021-05-31,1965-07-31,69.8333,6.0,21.8842,1,METERS
GHCND:SWE00137670,"KLIPPAN, SW",2021-04-30,1945-01-01,56.14,55.0,13.25,1,METERS
GHCND:SWE00139910,"NORA OSTANO D, SW",2021-05-31,1988-06-01,62.85,50.0,18.19,1,METERS
