cc,id,name,maxdate,mindate,latitude,elevation,longitude,datacoverage,elevationUnit
AE,GHCND:AE000041196,"SHARJAH INTER. AIRP, AE",2021-07-19,1944-03-20,25.333,34.0,55.517,0.7343,METERS
AE,GHCND:AEM00041194,"DUBAI INTERNATIONAL, AE",2021-07-19,1983-01-01,25.255,10.4,55.364,0.9991,METERS
AE,GHCND:AEM00041217,"ABU DHABI INTERNATIONAL, AE",2021-07-19,1983-01-02,24.433,26.8,54.651,0.9977,METERS
AF,GHCND:AFM00040938,"HERAT, AF",2021-07-19,1973-01-02,34.21,977.2,62.228,0.4903,METERS
AF,GHCND:AFM00040948,"KABUL INTERNATIONAL, AF",2021-07-19,1966-03-02,34.566,1791.3,69.212,0.5768,METERS
AF,GHCND:AFM00040990,"KANDAHAR AIRPORT, AF",2020-12-31,1973-01-02,31.5,1010.0,65.85,0.4906,METERS
AF,GHCND:PKM00041710,"NOKKUNDI, PK",2021-07-19,1973-01-02,28.817,683.0,62.75,0.6234,METERS
AF,GHCND:TX000038915,"CARSANGA, TX",2021-07-19,1937-11-18,37.517,265.0,66.017,0.7168,METERS
DZ,GHCND:AG000060390,"ALGER DAR EL BEIDA, AG",2021-07-19,1940-01-01,36.7167,24.0,3.25,0.8943,METERS
DZ,GHCND:AG000060590,"EL GOLEA, AG",2021-07-19,1892-01-01,30.5667,397.0,2.8667,0.7238,METERS
DZ,GHCND:AG000060611,"IN AMENAS, AG",2021-07-19,1958-10-01,28.05,561.0,9.6331,0.9254,METERS
DZ,GHCND:AGE00147708,"TIZI OUZOU, AG",2021-07-19,1879-01-04,36.72,222.0,4.05,0.4829,METERS
DZ,GHCND:AGM00060531,"ZENATA, AG",2021-07-19,1981-01-01,35.017,248.1,-1.45,0.9899,METERS
DZ,GHCND:AGM00060419,"MOHAMED BOUDIAF INTERNATIONAL, AG",2021-07-19,1943-03-01,36.276,690.4,6.62,0.6634,METERS
DZ,GHCND:AGE00147718,"BISKRA, AG",2021-07-19,1880-01-01,34.85,125.0,5.72,0.6052,METERS
DZ,GHCND:AGM00060351,"JIJEL, AG",2021-07-19,1981-11-01,36.795,11.0,5.874,0.9289,METERS
DZ,GHCND:AGM00060355,SKIKDA,2021-07-19,1957-12-31,36.933,7.0,6.95,0.7072,METERS
DZ,GHCND:AGM00060360,"ANNABA, AG",2021-07-19,1945-06-09,36.822,4.9,7.809,0.7317,METERS
DZ,GHCND:AGM00060402,"SOUMMAM, AG",2021-07-19,1973-01-01,36.712,6.1,5.07,0.9641,METERS
DZ,GHCND:AGM00060444,"BORDJ BOU ARRERIDJ, AG",2021-07-19,1979-10-01,36.067,930.0,4.767,0.9223,METERS
DZ,GHCND:AGM00060490,"ES SENIA, AG",2021-07-19,1957-01-01,35.624,89.9,-0.621,0.8664,METERS
DZ,GHCND:AGM00060425,"ECH CHELIFF, AG",2021-07-19,1943-01-07,36.213,141.1,1.332,0.5586,METERS
DZ,GHCND:AGM00060430,"MILIANA, AG",2021-07-19,1957-03-19,36.3,721.0,2.233,0.6565,METERS
DZ,GHCND:AGM00060468,"BATNA, AG",2021-07-19,1973-04-03,35.55,1052.0,6.183,0.8732,METERS
DZ,GHCND:AGM00060536,"SAIDA, AG",2021-07-19,1981-01-01,34.867,752.0,0.15,0.6208,METERS
DZ,GHCND:AGM00060511,"BOU CHEKIF, AG",2021-07-19,1983-05-21,35.341,989.1,1.463,0.9618,METERS
DZ,GHCND:AGM00060515,"BOU SAADA, AG",2021-07-19,1984-03-02,35.333,459.0,4.206,0.8313,METERS
DZ,GHCND:AGM00060559,"GUEMAR, AG",2021-07-19,1965-09-13,33.511,61.9,6.777,0.8531,METERS
DZ,GHCND:AGM00060560,"AIN SEFRA, AG",2021-07-19,1981-01-01,32.767,1059.0,-0.6,0.9122,METERS
DZ,GHCND:AGM00060566,"NOUMERAT, AG",2021-07-19,1965-10-01,32.384,460.9,3.794,0.8651,METERS
DZ,GHCND:AGM00060571,"BECHAR, AG",2021-07-19,1957-01-09,31.646,811.1,-2.27,0.8348,METERS
DZ,GHCND:AGM00060580,"OUARGLA, AG",2021-07-19,1957-03-19,31.917,150.0,5.413,0.5384,METERS
DZ,GHCND:AGM00060549,"MECHERIA, AG",2021-07-19,1980-02-08,33.536,1175.0,-0.242,0.9596,METERS
DZ,GHCND:AGM00060550,"EL BAYADH, AG",2021-07-19,1973-01-05,33.667,1347.0,1.0,0.8971,METERS
DZ,GHCND:AGM00060555,"SIDI MAHDI, AG",2021-07-19,1958-08-19,33.068,85.0,6.089,0.6651,METERS
DZ,GHCND:AGM00060602,"BENI ABBES, AG",2021-07-19,1973-01-01,30.133,505.0,-2.167,0.8449,METERS
DZ,GHCND:AGM00060607,"TIMIMOUN, AG",2021-07-19,1966-07-23,29.237,313.0,0.276,0.7474,METERS
DZ,GHCND:AGM00060620,"TOUAT CHEIKH SIDI MOHAMED BEL, AG",2021-07-19,1965-09-13,27.838,280.1,-0.186,0.776,METERS
DZ,GHCND:AGM00060640,"ILLIZI TAKHAMALT, AG",2021-07-19,1966-02-07,26.724,541.9,8.623,0.5768,METERS
DZ,GHCND:AGM00060656,"TINDOUF, AG",2021-07-19,1943-03-19,27.7,442.9,-8.167,0.4781,METERS
DZ,GHCND:AGM00060475,"CHEIKH LARBI TEBESSI, AG",2021-07-19,1958-03-30,35.432,811.1,8.121,0.7073,METERS
DZ,GHCND:AGM00060535,"DJELFA TLETSI, AG",2021-07-19,1973-01-01,34.683,1144.0,3.25,0.9201,METERS
DZ,GHCND:AGM00060581,"OUED IRARA, AG",2021-07-19,1965-03-10,31.673,141.1,6.14,0.8511,METERS
DZ,GHCND:AGE00147719,"LAGHOUAT, AG",2021-07-19,1888-01-01,33.7997,767.0,2.89,0.3816,METERS
DZ,GHCND:AGM00060540,"EL KHEITER, AG",2020-12-06,1981-01-03,34.15,1001.0,0.067,0.4729,METERS
DZ,GHCND:AGM00060421,"OUM EL BOUAGHI, AG",2021-07-19,1985-02-07,35.867,891.0,7.117,0.5376,METERS
AU,GHCND:ASN00007160,"PAROO, AS",2020-12-31,1968-01-01,-26.2628,500.0,119.7639,0.7651,METERS
AU,GHCND:ASM00094995,"LORD HOWE ISLAND AERO, AS",2021-07-19,1947-12-31,-31.542,7.0,159.079,0.7789,METERS
AU,GHCND:ASN00014815,"WATERLOO, AS",2021-04-02,1916-01-01,-16.6346,140.0,129.3282,0.9513,METERS
AU,GHCND:ASN00001007,"TROUGHTON ISLAND, AS",2021-07-20,1956-09-01,-13.7542,6.0,126.1485,0.6318,METERS
AU,GHCND:ASN00001010,"THEDA, AS",2021-04-30,1965-10-28,-14.7883,210.0,126.4964,0.9388,METERS
AU,GHCND:ASM00094299,"WILLIS ISLAND, AS",2021-07-19,1948-01-01,-16.288,9.0,149.965,0.7803,METERS
AU,GHCND:ASN00001024,"ELLENBRAE, AS",2021-03-23,1987-01-01,-15.9572,300.0,127.0628,0.6216,METERS
AU,GHCND:ASN00001025,"DOONGAN, AS",2021-07-19,1988-01-01,-15.3797,385.0,126.3114,0.9843,METERS
AU,GHCND:ASN00001018,"MOUNT ELIZABETH, AS",2021-06-30,1973-02-21,-16.4181,546.0,126.1025,0.9642,METERS
AU,GHCND:ASN00002012,"HALLS CREEK AIRPORT, AS",2021-07-19,1944-01-01,-18.2292,422.0,127.6636,0.9923,METERS
AU,GHCND:ASN00002023,"NICHOLSON, AS",2021-06-23,1923-10-01,-18.0308,380.0,128.8942,0.7934,METERS
AU,GHCND:ASN00002029,"STURT CREEK, AS",2021-03-21,1899-05-01,-19.1625,400.0,128.1633,0.8336,METERS
AU,GHCND:ASN00002030,"YULMBU, AS",2021-05-15,1950-01-01,-17.2964,450.0,126.915,0.6765,METERS
AU,GHCND:ASN00002064,"ARGYLE AERODROME, AS",2021-07-20,1985-01-01,-16.6381,164.0,128.4517,0.9647,METERS
AU,GHCND:ASN00003003,"BROOME AIRPORT, AS",2021-07-19,1939-08-11,-17.9475,7.4,122.2353,0.9989,METERS
AU,GHCND:ASN00003009,"JUBILEE DOWNS, AS",2021-03-21,1937-04-01,-18.355,100.0,125.3033,0.9472,METERS
AU,GHCND:ASN00003066,"PORT SMITH, AS",2021-06-27,1973-01-13,-18.5175,10.0,121.8072,0.9111,METERS
AU,GHCND:ASN00003043,"CHRISTMAS CREEK, AS",2021-01-31,1960-03-01,-18.8789,160.0,125.9206,0.7717,METERS
AU,GHCND:ASN00003057,"CYGNET BAY, AS",2021-07-20,1963-12-01,-16.4514,7.0,123.0086,0.9848,METERS
AU,GHCND:ASN00003068,"DAMPIER DOWNS, AS",2021-05-31,1973-08-01,-18.5075,120.0,123.4561,0.9301,METERS
AU,GHCND:ASN00003073,"KIMBOLTON, AS",2021-06-23,1970-08-01,-16.6872,25.0,123.8375,0.6569,METERS
AU,GHCND:ASN00004032,"PORT HEDLAND AIRPORT, AS",2021-07-20,1942-08-01,-20.3725,6.4,118.6317,0.9866,METERS
AU,GHCND:ASN00004019,"MANDORA, AS",2021-07-20,1913-09-01,-19.7419,7.5,120.8436,0.9126,METERS
AU,GHCND:ASN00004046,"YARRIE, AS",2021-06-22,1898-07-01,-20.6739,100.0,120.2044,0.8416,METERS
AU,GHCND:ASN00004006,"BONNEY DOWNS, AS",2021-06-22,1907-01-01,-22.1828,480.0,119.935,0.9398,METERS
AU,GHCND:ASN00004039,"WARAMBIE, AS",2021-06-22,1937-01-01,-20.9469,30.0,117.3733,0.9268,METERS
AU,GHCND:ASN00005061,"DAMPIER SALT, AS",2021-03-31,1969-11-01,-20.7278,6.0,116.7483,0.9699,METERS
AU,GHCND:ASN00005004,"EXMOUTH GULF, AS",2021-05-29,1915-01-01,-22.3761,15.0,114.1108,0.9415,METERS
AU,GHCND:ASN00005071,"PINDRAL OUTCAMP, AS",2021-06-30,1972-11-01,-21.3444,11.0,115.9356,0.9776,METERS
AU,GHCND:ASN00005014,"MOUNT FLORANCE, AS",2021-06-22,1886-09-01,-21.7869,450.0,117.8647,0.8664,METERS
AU,GHCND:ASN00005012,"MILLSTREAM, AS",2021-06-30,1897-04-01,-21.5906,300.0,117.0656,0.8895,METERS
AU,GHCND:ASN00005013,"MINDEROO, AS",2020-12-10,1912-04-01,-21.9961,15.0,115.0456,0.847,METERS
AU,GHCND:ASN00006011,"CARNARVON AIRPORT, AS",2021-07-20,1945-01-10,-24.8878,4.0,113.67,0.9938,METERS
AU,GHCND:ASN00006017,"DAIRY CREEK, AS",2021-07-14,1900-09-01,-25.2786,300.0,115.8633,0.7766,METERS
AU,GHCND:ASN00006023,"GNARALOO, AS",2020-12-31,1912-01-01,-23.8222,20.0,113.5256,0.8366,METERS
AU,GHCND:ASN00006022,"GASCOYNE JUNCTION, AS",2021-07-20,1907-04-01,-25.0544,144.0,115.21,0.9365,METERS
AU,GHCND:ASN00009021,"PERTH AIRPORT, AS",2021-07-20,1944-05-01,-31.9275,15.4,115.9764,1.0,METERS
AU,GHCND:ASN00006097,"USELESS LOOP, AS",2021-07-15,1982-07-01,-26.1203,3.0,113.3975,0.8954,METERS
AU,GHCND:ASN00006095,"QUOBBA, AS",2020-12-31,1952-01-01,-24.3967,16.0,113.4056,0.8099,METERS
AU,GHCND:ASN00007103,"NEDS CREEK, AS",2021-07-13,1947-01-01,-25.48,600.0,119.6492,0.9586,METERS
AU,GHCND:ASN00007030,"JUDAL STATION, AS",2021-06-30,1921-10-01,-26.1142,500.0,117.5047,0.7158,METERS
AU,GHCND:ASN00007045,"MEEKATHARRA AIRPORT, AS",2021-07-20,1944-06-01,-26.6136,517.0,118.5372,0.9701,METERS
AU,GHCND:ASN00007053,"MOUNT AUGUSTUS, AS",2021-03-31,1901-08-01,-24.3086,337.0,116.9111,0.8425,METERS
AU,GHCND:ASN00007094,"YINNETHARRA, AS",2021-03-03,1961-01-01,-24.6514,299.0,116.1647,0.8553,METERS
AU,GHCND:ASN00007059,"MOUNT VERNON, AS",2021-07-13,1939-08-01,-24.2297,350.0,118.2408,0.9516,METERS
AU,GHCND:ASN00007083,"TUREE CREEK, AS",2021-06-21,1920-01-01,-23.6239,530.0,118.6561,0.9085,METERS
AU,GHCND:ASN00007100,"MOUNT PADBURY, AS",2021-07-13,1903-11-01,-25.6933,487.0,118.0803,0.5126,METERS
AU,GHCND:ASN00007132,"MOUNT CLERE, AS",2021-06-09,1921-10-01,-25.0964,472.0,117.5922,0.734,METERS
AU,GHCND:ASN00006040,"MINNIE CREEK, AS",2021-03-31,1900-10-01,-24.0306,300.0,115.6967,0.8775,METERS
AU,GHCND:ASN00007019,"BULLOO DOWNS, AS",2021-04-14,1917-11-01,-24.0019,600.0,119.5725,0.9,METERS
AU,GHCND:ASN00007176,"NEWMAN AERO, AS",2021-07-20,1971-10-01,-23.4169,524.0,119.7989,0.8985,METERS
AU,GHCND:ASN00007177,"MININER, AS",2021-07-13,1964-04-01,-23.6042,450.0,117.6892,0.9856,METERS
AU,GHCND:ASN00007195,"BYRO, AS",2021-07-19,1898-11-01,-26.0783,300.0,116.1533,0.7536,METERS
AU,GHCND:ASN00011003,"EUCLA, AS",2021-07-20,1878-01-01,-31.6797,93.1,128.8792,0.7444,METERS
AU,GHCND:ASN00011008,"MUNDRABILLA STATION, AS",2021-07-17,1903-01-01,-31.8433,20.0,127.8572,0.8505,METERS
AU,GHCND:ASN00011017,"BALLADONIA, AS",2021-07-20,1891-02-01,-32.4569,151.0,123.8653,0.7234,METERS
AU,GHCND:ASN00011019,"EYRE, AS",2021-07-20,1888-02-01,-32.2464,5.6,126.3008,0.5276,METERS
AU,GHCND:ASN00012038,"KALGOORLIE BOULDER AIRPORT, AS",2021-07-20,1939-03-01,-30.7847,365.3,121.4533,0.9876,METERS
AU,GHCND:ASN00012025,"DEPOT SPRINGS, AS",2021-06-30,1926-07-01,-27.9331,441.0,120.0575,0.9164,METERS
AU,GHCND:ASN00012027,"EDJUDINA, AS",2021-07-20,1900-01-01,-29.8119,460.0,122.3547,0.842,METERS
AU,GHCND:ASN00012029,"FRASER RANGE, AS",2021-06-15,1901-03-01,-32.0339,460.0,122.8017,0.7885,METERS
AU,GHCND:ASN00012045,"LAVERTON, AS",2021-05-31,1899-12-01,-28.6306,461.0,122.4072,0.8811,METERS
AU,GHCND:ASN00012046,"LEONORA, AS",2020-08-05,1898-01-01,-28.8836,376.0,121.3303,0.9053,METERS
AU,GHCND:ASN00012062,"NAMBI, AS",2020-11-30,1922-03-01,-28.3897,490.0,121.6775,0.5865,METERS
AU,GHCND:ASN00012072,"SANDSTONE, AS",2021-03-31,1904-11-01,-27.9875,533.0,119.2961,0.9261,METERS
AU,GHCND:ASN00012082,"WEEBO, AS",2021-05-31,1930-05-01,-28.0067,450.0,121.0789,0.8903,METERS
AU,GHCND:ASN00012092,"YUINMERY, AS",2021-05-31,1921-09-01,-28.5606,500.0,119.0161,0.9991,METERS
AU,GHCND:ASN00012239,"BULGA DOWNS, AS",2021-07-20,1924-12-01,-28.4967,438.5,119.7436,0.4172,METERS
AU,GHCND:ASN00012280,"BANJAWARN, AS",2021-05-31,1975-04-01,-27.7036,550.0,121.6131,0.7847,METERS
AU,GHCND:ASN00013002,"GLEN AYLE, AS",2021-03-31,1950-03-01,-25.2661,480.0,122.0433,0.9915,METERS
AU,GHCND:ASN00013005,"LORNA GLEN, AS",2021-07-20,1939-05-01,-26.2225,550.0,121.5561,0.9044,METERS
AU,GHCND:ASN00013011,"WARBURTON AIRFIELD, AS",2021-07-20,1940-11-07,-26.1317,459.0,126.5839,0.7508,METERS
AU,GHCND:ASN00013014,"CUNYU SHEARING SHED, AS",2021-03-11,1910-05-01,-25.8181,600.0,120.1706,0.843,METERS
AU,GHCND:ASN00013015,"CARNEGIE, AS",2021-07-20,1942-11-01,-25.7964,448.0,122.9753,0.828,METERS
AU,GHCND:ASN00013017,"GILES METEOROLOGICAL OFFICE, AS",2021-07-20,1956-08-01,-25.0341,598.0,128.301,0.9997,METERS
AU,GHCND:ASN00013032,"GRANITE PEAK, AS",2021-06-11,1980-11-01,-25.6361,500.0,121.3533,0.7624,METERS
AU,GHCND:ASN00013034,"BARWIDGEE, AS",2021-05-31,1988-01-01,-27.0336,450.0,120.9233,0.4633,METERS
AU,GHCND:ASN00014015,"DARWIN AIRPORT, AS",2021-07-20,1941-01-01,-12.4239,30.4,130.8925,1.0,METERS
AU,GHCND:ASN00014142,"PIRLANGIMPI, AS",2021-07-20,1963-11-01,-11.4022,18.3,130.4217,0.8611,METERS
AU,GHCND:ASN00014198,"JABIRU AIRPORT, AS",2021-07-20,1971-06-03,-12.6594,26.5,132.8939,0.8678,METERS
AU,GHCND:ASN00014933,"PINE CREEK, AS",2021-03-31,1874-05-01,-13.8241,189.0,131.8372,0.769,METERS
AU,GHCND:ASN00014253,"CHANNEL POINT, AS",2021-07-20,1990-11-01,-13.1672,3.0,130.1225,0.9804,METERS
AU,GHCND:ASN00014401,"WARRUWI, AS",2021-07-20,1916-12-01,-11.6502,19.2,133.3796,0.9324,METERS
AU,GHCND:ASN00014509,"ALCAN MINESITE, AS",2021-04-20,1971-01-26,-12.2609,20.0,136.8391,0.8353,METERS
AU,GHCND:ASN00014605,"MOROAK, AS",2021-06-25,1967-12-01,-14.823,75.0,133.7013,0.2462,METERS
AU,GHCND:ASN00014626,"DALY WATERS AWS, AS",2021-07-20,1939-05-01,-16.2636,209.8,133.3782,0.6244,METERS
AU,GHCND:ASN00014610,"MATARANKA HOMESTEAD RESORT, AS",2020-12-31,1916-02-27,-14.923,150.0,133.132,0.617,METERS
AU,GHCND:ASN00014612,"LARRIMAH, AS",2021-07-19,1952-11-01,-15.5748,180.0,133.2138,0.9698,METERS
AU,GHCND:ASN00014621,"NUTWOOD DOWNS, AS",2021-04-27,1935-09-01,-15.8087,183.0,134.1477,0.9152,METERS
AU,GHCND:ASN00014628,"TANUMBIRINI, AS",2021-04-29,1970-06-01,-16.455,165.0,134.6504,0.7775,METERS
AU,GHCND:ASN00014637,"MAINORU, AS",2021-01-28,1964-01-01,-14.0409,99.0,134.0945,0.4086,METERS
AU,GHCND:ASN00014638,"GORRIE, AS",2021-06-30,1985-09-01,-15.527,175.0,132.6533,0.846,METERS
AU,GHCND:ASN00014702,"MALLAPUNYAH, AS",2020-10-31,1963-10-01,-16.9756,195.0,135.8132,0.9777,METERS
AU,GHCND:ASN00014703,"CENTRE ISLAND, AS",2021-07-20,1968-03-01,-15.7426,12.2,136.8192,0.9613,METERS
AU,GHCND:ASN00029069,"WESTMORELAND STATION, AS",2021-03-25,1965-01-01,-17.3383,60.0,138.2508,0.9523,METERS
AU,GHCND:ASN00014719,"NATHAN RIVER, AS",2021-04-29,1979-06-01,-15.5789,30.0,135.4271,0.6553,METERS
AU,GHCND:ASN00014850,"TIMBER CREEK, AS",2021-03-25,1981-01-22,-15.6614,20.1,130.4808,0.998,METERS
AU,GHCND:ASN00014829,"LAJAMANU, AS",2021-07-20,1952-01-01,-18.3325,315.6,130.6358,0.8228,METERS
AU,GHCND:ASN00014840,"WAVE HILL, AS",2021-07-20,1973-11-01,-17.3871,196.0,131.1166,0.9906,METERS
AU,GHCND:ASN00014831,"RIVEREN, AS",2021-03-23,1969-01-01,-17.9041,323.0,130.2268,0.9038,METERS
AU,GHCND:ASN00014836,"INVERWAY, AS",2021-03-31,1955-05-01,-17.8484,403.0,129.6361,0.8252,METERS
AU,GHCND:ASN00014839,"DELAMERE, AS",2021-02-22,1971-11-01,-15.6283,153.0,131.6357,0.5133,METERS
AU,GHCND:ASN00086282,"MELBOURNE AIRPORT, AS",2021-07-20,1970-07-01,-37.6655,113.4,144.8321,1.0,METERS
AU,GHCND:ASN00014856,"BIRRINDUDU, AS",2021-03-23,1989-11-01,-18.3902,370.0,129.4299,0.6406,METERS
AU,GHCND:ASN00014857,"SUPLEJACK, AS",2021-03-23,1982-01-01,-19.2798,452.0,129.9422,0.8963,METERS
AU,GHCND:ASN00014939,"SCOTT CREEK, AS",2021-02-25,1980-01-01,-14.8648,146.0,131.8443,0.5984,METERS
AU,GHCND:ASN00014910,"KATHERINE RESEARCH FARM, AS",2020-10-31,1969-01-01,-14.4741,109.7,132.3053,0.8604,METERS
AU,GHCND:ASN00015005,"AVON DOWNS, AS",2020-11-12,1909-01-01,-20.0298,205.0,137.4906,0.882,METERS
AU,GHCND:ASN00015015,"HELEN SPRINGS, AS",2020-12-31,1945-01-01,-18.4336,288.0,133.8774,0.8197,METERS
AU,GHCND:ASN00015081,"ANTHONY LAGOON, AS",2021-02-15,1899-10-01,-17.9776,213.0,135.532,0.7629,METERS
AU,GHCND:ASN00015085,"BRUNETTE DOWNS, AS",2021-07-20,1891-01-01,-18.637,218.0,135.945,0.9208,METERS
AU,GHCND:ASN00015103,"UCHARONIDGE, AS",2021-01-31,1966-10-01,-17.6744,253.0,134.251,0.6186,METERS
AU,GHCND:ASN00015123,"BRUNCHILLY, AS",2021-05-05,1968-01-01,-18.8689,250.0,134.4991,0.7435,METERS
AU,GHCND:ASN00015131,"ELLIOTT, AS",2021-07-20,1949-10-01,-17.5521,220.0,133.5407,0.801,METERS
AU,GHCND:ASN00015135,"TENNANT CREEK AIRPORT, AS",2021-07-20,1969-07-17,-19.6423,375.7,134.1833,0.9964,METERS
AU,GHCND:ASN00015590,"ALICE SPRINGS AIRPORT, AS",2021-07-20,1941-11-01,-23.7951,546.0,133.889,0.9995,METERS
AU,GHCND:ASN00015626,"WOODGREEN, AS",2021-05-31,1946-07-01,-22.3961,564.0,134.2335,0.9944,METERS
AU,GHCND:ASN00015511,"CURTIN SPRINGS, AS",2021-07-20,1953-01-01,-25.3139,489.6,131.7571,0.9647,METERS
AU,GHCND:ASN00015537,"KURUNDI, AS",2020-12-21,1934-01-01,-20.5003,400.0,134.662,0.6726,METERS
AU,GHCND:ASN00015548,"RABBIT FLAT, AS",2021-07-19,1969-08-12,-20.1883,340.0,130.0161,0.9013,METERS
AU,GHCND:ASN00015633,"PALM VALLEY, AS",2021-05-31,1981-05-14,-24.0636,520.0,132.7444,0.9504,METERS
AU,GHCND:ASN00015585,"AMMAROO, AS",2021-06-30,1956-01-01,-21.7498,396.0,135.2382,0.9524,METERS
AU,GHCND:ASN00015601,"THE DERWENT, AS",2021-06-14,1966-09-01,-23.1725,604.0,132.1498,0.7736,METERS
AU,GHCND:ASN00015602,"JERVOIS, AS",2021-07-20,1966-01-01,-22.9494,328.0,136.1442,0.9987,METERS
AU,GHCND:ASN00015610,"INDIANA, AS",2021-06-24,1966-01-01,-23.3292,442.0,135.44,0.7525,METERS
AU,GHCND:ASN00015554,"VAUGHAN SPRINGS, AS",2021-03-22,1960-01-01,-22.2984,610.0,130.8499,0.9289,METERS
AU,GHCND:ASN00015624,"VICTORY DOWNS, AS",2020-11-30,1945-01-01,-25.9891,549.3,132.9748,0.7657,METERS
AU,GHCND:ASN00015635,"YULARA AERO, AS",2021-07-20,1983-06-22,-25.1896,492.0,130.9737,0.8741,METERS
AU,GHCND:ASN00015640,"MULGA PARK, AS",2020-12-31,1986-09-01,-25.9054,630.0,131.6711,0.6586,METERS
AU,GHCND:ASN00015652,"WATARRKA, AS",2021-07-20,1990-05-01,-24.2914,614.0,131.5488,0.932,METERS
AU,GHCND:ASN00016001,"WOOMERA AERODROME, AS",2021-07-20,1949-04-01,-31.1558,166.6,136.8054,0.9987,METERS
AU,GHCND:ASN00016003,"BULGUNNIA, AS",2020-12-31,1930-08-01,-30.1658,165.0,134.8928,0.9062,METERS
AU,GHCND:ASN00016031,"TARCOOLA MULGATHING, AS",2021-07-14,1934-01-01,-30.2406,198.0,133.9885,0.9755,METERS
AU,GHCND:ASN00016028,"GLENDAMBO MILLERS CREEK, AS",2021-05-31,1929-08-01,-30.0047,120.0,136.0445,0.9586,METERS
AU,GHCND:ASN00016047,"TODMORDEN, AS",2021-07-15,1949-05-01,-27.1391,200.0,134.7575,0.8842,METERS
AU,GHCND:ASN00016059,"TARCOOLA MOBELLA, AS",2021-07-14,1953-08-01,-29.8113,179.0,133.3603,0.8602,METERS
AU,GHCND:ASN00016082,"MOUNT BARRY, AS",2021-07-14,1980-12-01,-28.2415,130.0,134.9899,0.8043,METERS
AU,GHCND:ASN00016098,"TARCOOLA AERO, AS",2021-07-20,1990-02-01,-30.7051,123.0,134.5786,0.9489,METERS
AU,GHCND:ASN00017004,"ANNA CREEK, AS",2021-06-23,1883-01-01,-28.8921,105.0,136.1688,0.8222,METERS
AU,GHCND:ASN00017024,"MARREE FARINA, AS",2021-07-18,1879-12-01,-30.066,91.0,138.2739,0.8389,METERS
AU,GHCND:ASN00017028,"INNAMINCKA STATION, AS",2021-05-31,1882-11-01,-27.724,53.0,140.7633,0.8819,METERS
AU,GHCND:ASN00017037,"MULOORINA STATION MULOORINA H, AS",2021-03-26,1881-12-01,-29.239,3.0,137.9058,0.6703,METERS
AU,GHCND:ASN00017043,"OODNADATTA AIRPORT, AS",2021-07-20,1939-03-05,-27.5553,116.5,135.4456,0.8655,METERS
AU,GHCND:ASN00017099,"ARKAROOLA, AS",2021-07-19,1938-01-01,-30.311,318.0,139.3357,0.9714,METERS
AU,GHCND:ASN00017070,"MOUNT DARE, AS",2021-03-22,1950-01-01,-26.0702,150.0,135.2471,0.9285,METERS
AU,GHCND:ASN00017089,"MUNGERANIE KALAMURINA, AS",2021-07-16,1884-10-01,-27.7205,5.0,138.2548,0.2507,METERS
AU,GHCND:ASN00017106,"BROUGHAMS GATE HOUSE NEW QUIN, AS",2020-12-31,1973-01-01,-30.8718,61.0,140.971,0.7542,METERS
AU,GHCND:ASN00017115,"CAMERON CORNER LINDON, AS",2020-10-24,1987-10-01,-29.1266,110.0,140.9018,0.9356,METERS
AU,GHCND:ASN00018106,"NULLARBOR, AS",2021-07-20,1889-02-01,-31.4492,64.0,130.8976,0.5283,METERS
AU,GHCND:ASN00018110,"COOK, AS",2021-07-19,1918-02-01,-30.6143,120.0,130.4136,0.9192,METERS
AU,GHCND:ASN00018114,"MARALINGA, AS",2021-07-18,1955-05-23,-30.1591,290.0,131.579,0.7792,METERS
AU,GHCND:ASN00027000,"AURUKUN SHIRE COUNCIL, AS",2021-04-28,1914-01-01,-13.3539,13.0,141.7208,0.908,METERS
AU,GHCND:ASN00027015,"MORETON TELEGRAPH STATION, AS",2021-07-17,1888-01-01,-12.4536,40.0,142.6389,0.8197,METERS
AU,GHCND:ASN00027031,"BAMAGA, AS",2021-01-31,1960-07-01,-10.8969,58.0,142.3844,0.5831,METERS
AU,GHCND:ASN00032040,"TOWNSVILLE AERO, AS",2021-07-20,1940-10-19,-19.2483,4.3,146.7661,0.9994,METERS
AU,GHCND:ASN00027042,"WEIPA EASTERN AVE, AS",2021-04-30,1914-01-01,-12.6267,20.0,141.8836,0.9435,METERS
AU,GHCND:ASN00027044,"MERLUNA, AS",2021-04-09,1913-01-01,-13.0658,80.0,142.4511,0.5754,METERS
AU,GHCND:ASN00028000,"LAURA POST OFFICE, AS",2021-06-12,1897-01-01,-15.5581,95.0,144.4453,0.8982,METERS
AU,GHCND:ASN00028004,"PALMERVILLE, AS",2021-07-20,1889-12-01,-16.0008,203.8,144.0758,0.995,METERS
AU,GHCND:ASN00028008,"LOCKHART RIVER AIRPORT, AS",2021-07-20,1956-11-01,-12.785,18.5,143.3047,0.978,METERS
AU,GHCND:ASN00028031,"VIOLET VALE STATION, AS",2021-05-31,1982-01-11,-14.7317,59.0,143.5864,0.7534,METERS
AU,GHCND:ASN00033096,"MOUNT DANGAR, AS",2021-05-31,1961-05-01,-20.2081,50.0,148.13,0.9967,METERS
AU,GHCND:ASN00034044,"BRUSLEE, AS",2021-04-26,1972-04-01,-21.0767,230.0,146.5133,0.9879,METERS
AU,GHCND:ASN00030149,"HILLVIEW STATION, AS",2021-05-31,1983-04-01,-21.0442,280.0,144.0992,0.9967,METERS
AU,GHCND:ASN00036074,"JOCHMUS, AS",2021-07-03,1968-06-01,-22.3022,312.0,145.99,0.9661,METERS
AU,GHCND:ASN00037104,"WEONA, AS",2021-04-04,1964-01-01,-23.0631,230.0,142.8197,0.9448,METERS
AU,GHCND:ASN00037007,"BRIGHTON DOWNS, AS",2021-06-25,1893-04-01,-23.3594,110.0,141.5628,0.8184,METERS
AU,GHCND:ASN00037010,"CAMOOWEAL TOWNSHIP, AS",2021-07-20,1891-10-01,-19.9225,231.2,138.1214,0.9862,METERS
AU,GHCND:ASN00029047,"UNDILLA STATION, AS",2021-06-30,1892-04-01,-19.6242,250.0,138.6386,0.8273,METERS
AU,GHCND:ASN00039059,"LADY ELLIOT ISLAND, AS",2021-07-20,1939-04-01,-24.1116,3.9,152.7161,0.9895,METERS
AU,GHCND:ASN00039085,"SANDY CAPE LIGHTHOUSE, AS",2021-07-20,1887-06-01,-24.7298,109.0,153.2089,0.9692,METERS
AU,GHCND:ASN00007180,"MARYMIA, AS",2021-03-31,1972-10-01,-25.0386,600.0,120.0064,0.8376,METERS
AU,GHCND:ASN00014153,"BLACK POINT, AS",2021-07-20,1965-01-01,-11.1538,5.0,132.143,0.9583,METERS
AU,GHCND:ASN00043015,"INJUNE POST OFFICE, AS",2021-07-20,1925-04-01,-25.8428,393.0,148.5669,0.9947,METERS
AU,GHCND:ASN00045015,"QUILPIE AIRPORT, AS",2021-06-30,1917-02-01,-26.6125,199.6,144.2578,0.9659,METERS
AU,GHCND:ASN00044021,"CHARLEVILLE AERO, AS",2021-07-20,1942-04-06,-26.4139,301.6,146.2558,0.9943,METERS
AU,GHCND:ASN00044174,"WALLEN, AS",2021-07-16,1974-11-01,-27.62,221.0,145.8281,0.9739,METERS
AU,GHCND:ASN00044054,"MULGA DOWNS, AS",2021-07-15,1907-02-01,-28.8061,127.0,147.1194,0.9175,METERS
AU,GHCND:ASN00044075,"WOODLANDS, AS",2021-07-16,1902-03-01,-27.265,283.0,148.0814,0.814,METERS
AU,GHCND:ASN00044181,"HUNGERFORD, AS",2021-07-15,1884-01-01,-28.9972,139.0,144.4094,0.9534,METERS
AU,GHCND:ASN00045005,"DURHAM DOWNS, AS",2020-09-30,1893-01-01,-27.0797,75.0,141.9078,0.7406,METERS
AU,GHCND:ASN00045006,"EROMANGA WEBBER ST, AS",2021-06-03,1905-01-01,-26.6694,156.0,143.27,0.9114,METERS
AU,GHCND:ASN00045010,"MOUNT HOWITT, AS",2021-06-23,1888-04-01,-26.5122,95.0,142.2731,0.6543,METERS
AU,GHCND:ASN00045029,"ORIENTOS STATION, AS",2021-06-24,1965-08-01,-28.0722,92.0,141.5317,0.9763,METERS
AU,GHCND:ASN00046052,"WANAARING OWEN DOWNS, AS",2021-06-24,1956-01-01,-29.4089,115.0,143.3808,0.9701,METERS
AU,GHCND:ASN00046117,"BROKEN HILL WATERBAG, AS",2021-02-02,1946-09-06,-31.4843,160.0,142.3315,0.9971,METERS
AU,GHCND:ASN00046043,"WILCANNIA REID ST, AS",2021-06-30,1879-01-01,-31.5631,75.0,143.3747,0.986,METERS
AU,GHCND:ASN00047013,"POONCARIE KARPA KORA STATION, AS",2021-07-17,1886-03-01,-32.9669,72.0,143.1071,0.9482,METERS
AU,GHCND:ASN00047019,"MENINDEE POST OFFICE, AS",2021-07-20,1876-01-01,-32.3937,61.0,142.4173,0.9624,METERS
AU,GHCND:ASN00047045,"WENTWORTH WILLOW POINT, AS",2021-05-31,1933-08-01,-33.3344,44.0,141.7694,0.9868,METERS
AU,GHCND:ASN00048006,"ENNGONIA BELALIE, AS",2021-06-30,1885-01-01,-29.1581,136.0,145.8068,0.8281,METERS
AU,GHCND:ASN00048176,"BREWARRINA YAPPALEE, AS",2021-03-31,1966-11-16,-29.9744,122.0,147.0493,0.9447,METERS
AU,GHCND:ASN00048025,"WEILMORINGLE CARINGLE, AS",2021-06-30,1906-01-01,-29.3513,131.0,146.8126,0.9363,METERS
AU,GHCND:ASN00048027,"COBAR MO, AS",2021-07-20,1962-05-21,-31.484,260.0,145.8294,0.9988,METERS
AU,GHCND:ASN00049057,"COBAR TARINGO DOWNS, AS",2021-05-31,1909-01-01,-32.2409,198.0,145.553,0.5535,METERS
AU,GHCND:ASN00051057,"MARRA CREEK WOMBOIN, AS",2021-07-15,1886-06-01,-30.6998,131.0,147.2232,0.9662,METERS
AU,GHCND:ASN00038012,"JUNDAH POST OFFICE, AS",2021-06-30,1889-09-01,-24.8303,151.0,143.9331,0.9694,METERS
AU,GHCND:ASN00037052,"MUNDURIN STATION, AS",2020-12-11,1945-01-01,-22.8792,200.0,141.8364,0.8041,METERS
AU,GHCND:ASN00037098,"NOONBAH, AS",2021-06-30,1910-04-01,-24.1075,180.0,143.1867,0.8427,METERS
AU,GHCND:ASN00038020,"ROSEBERTH STATION, AS",2021-06-24,1913-07-01,-25.79,47.0,139.5856,0.9634,METERS
AU,GHCND:ASN00038056,"SOUTH GALWAY, AS",2021-07-01,1973-01-01,-25.6653,102.0,142.1086,0.8142,METERS
AU,GHCND:ASN00038024,"WINDORAH POST OFFICE, AS",2021-05-31,1887-01-01,-25.4228,126.3,142.6564,0.9881,METERS
AU,GHCND:ASN00038017,"MOUNT LEONARD STATION, AS",2021-03-23,1925-11-01,-25.6883,64.0,140.7536,0.5997,METERS
AU,GHCND:ASN00038035,"TRINIDAD, AS",2021-07-09,1969-05-01,-25.5903,255.0,143.8917,0.9065,METERS
AU,GHCND:ASN00037078,"MIDDLETON HOTEL, AS",2021-03-31,1970-07-01,-22.3522,185.0,141.5497,0.5096,METERS
AU,GHCND:ASN00037091,"WARRA STATION, AS",2020-12-31,1973-01-01,-23.1214,160.0,140.5683,0.7278,METERS
AU,GHCND:ASN00037106,"PHOSPHATE HILL, AS",2021-06-30,1975-06-01,-21.8831,,139.9728,0.6933,
AU,GHCND:ASN00038003,"BOULIA AIRPORT, AS",2021-07-20,1886-02-01,-22.9117,161.8,139.9039,0.9867,METERS
AU,GHCND:ASN00038009,"GLENGYLE, AS",2021-06-30,1914-03-01,-24.7856,72.0,139.5919,0.8464,METERS
AU,GHCND:ASN00038010,"GLENORMISTON, AS",2021-06-24,1892-01-01,-22.9144,140.0,138.8036,0.8723,METERS
AU,GHCND:ASN00094008,"HOBART AIRPORT, AS",2021-07-20,1958-05-31,-42.8339,4.0,147.5033,0.999,METERS
AU,GHCND:ASN00048079,"WANAARING POST OFFICE, AS",2021-07-20,1884-10-01,-29.7029,108.0,144.1482,0.9695,METERS
AU,GHCND:ASN00098023,"YARRA CREEK, AS",2021-06-30,1974-05-01,-39.9647,105.0,144.0772,0.998,METERS
AU,GHCND:ASN00099001,"DEAL ISLAND, AS",2021-04-30,1881-01-01,-39.4764,85.0,147.3153,0.8832,METERS
AU,GHCND:AYM00089606,"VOSTOK, AY",2021-07-19,1973-01-01,-78.45,3488.0,106.867,0.677,METERS
AU,GHCND:AYM00089611,CASEY,2021-07-19,1969-03-01,-66.283,41.0,110.517,0.9245,METERS
AU,GHCND:AYM00089642,DUMONT D URVILLE,2021-07-19,1985-07-01,-66.667,43.0,140.017,0.8966,METERS
AU,GHCND:AYM00089828,"DOME C II, AY",2021-07-19,1990-05-10,-75.117,3250.0,123.367,0.8862,METERS
AU,GHCND:AYM00089834,"D 47, AY",2021-07-19,1990-05-12,-67.4,1560.0,138.733,0.2969,METERS
AU,GHCND:ASN00028023,"LAKEFIELD NATIONAL PARK, AS",2020-12-31,1973-01-01,-14.9258,28.0,144.1994,0.8094,METERS
AU,GHCND:ASN00028025,"PINNACLE, AS",2021-05-31,1970-01-01,-15.6867,180.0,143.5633,0.8517,METERS
AU,GHCND:ASN00029065,"NARDOO STATION, AS",2021-06-25,1964-10-01,-18.7881,100.0,139.7119,0.9495,METERS
AU,GHCND:ASN00029004,"BURKETOWN POST OFFICE, AS",2021-06-21,1887-05-01,-17.7425,5.5,139.5475,0.9696,METERS
AU,GHCND:ASN00029007,"CANOBIE, AS",2021-06-25,1890-01-01,-19.4764,55.0,140.9317,0.8132,METERS
AU,GHCND:ASN00029008,"CLONCURRY MCILLWRAITH ST, AS",2021-06-25,1884-06-01,-20.7089,200.0,140.5192,0.8816,METERS
AU,GHCND:ASN00029030,"LANDS END STATION, AS",2021-06-25,1920-08-01,-20.4247,100.0,141.4047,0.9943,METERS
AU,GHCND:ASN00029012,"CROYDON TOWNSHIP, AS",2021-05-01,1889-02-01,-18.2044,115.5,142.2447,0.9913,METERS
AU,GHCND:ASN00029013,"DONORS HILL STATION, AS",2021-02-21,1889-06-01,-18.7139,50.0,140.5472,0.8978,METERS
AU,GHCND:ASN00029014,"DUNBAR STATION, AS",2021-06-30,1923-01-01,-16.0414,40.0,142.3786,0.9684,METERS
AU,GHCND:ASN00029048,"VANROOK STATION, AS",2021-03-18,1921-12-01,-16.9683,35.0,141.9547,0.873,METERS
AU,GHCND:ASN00029038,"KOWANYAMA AIRPORT, AS",2021-07-20,1912-04-01,-15.4818,9.6,141.7483,0.9731,METERS
AU,GHCND:ASN00029152,"LAWN HILL GORGE NPWS, AS",2021-06-04,1986-01-01,-18.7036,145.0,138.4839,0.9536,METERS
AU,GHCND:ASN00029111,"DELTA DOWNS STATION, AS",2020-11-30,1973-12-12,-16.9933,20.0,141.3161,0.6055,METERS
AU,GHCND:ASN00029127,"MOUNT ISA AERO, AS",2021-07-20,1966-12-01,-20.6778,340.3,139.4875,0.9871,METERS
AU,GHCND:ASN00029129,"DEVONCOURT STATION, AS",2021-06-03,1887-02-01,-21.215,282.0,140.2333,0.7144,METERS
AU,GHCND:ASN00029131,"GERETA STATION, AS",2021-06-25,1908-09-01,-20.02,190.0,139.8433,0.2721,METERS
AU,GHCND:ASN00029132,"MANFRED DOWNS STATION, AS",2021-06-30,1887-07-01,-20.6556,120.0,142.1006,0.7075,METERS
AU,GHCND:ASN00029139,"SWEERS ISLAND, AS",2021-07-20,1893-01-01,-17.1142,4.0,139.5981,0.1932,METERS
AU,GHCND:ASN00030000,"ABINGDON DOWNS STATION, AS",2021-04-23,1945-04-01,-17.6036,61.0,143.1811,0.8874,METERS
AU,GHCND:ASN00030072,"LOW HOLM STATION, AS",2021-07-10,1919-04-01,-20.0969,701.0,144.9875,0.6472,METERS
AU,GHCND:ASN00030081,"BURLEIGH STATION, AS",2020-12-31,1969-07-01,-20.2631,250.0,143.1097,0.7732,METERS
AU,GHCND:ASN00030144,"PLAINBY STATION, AS",2021-05-31,1979-01-01,-21.4014,175.0,142.6167,0.7953,METERS
AU,GHCND:ASN00031147,"LIZARD ISLAND RESORT, AS",2021-06-30,1972-12-01,-14.6683,10.0,145.4467,0.8134,METERS
AU,GHCND:ASN00051042,"QUAMBONE STATION, AS",2021-07-16,1900-03-26,-30.9252,152.0,147.869,0.9762,METERS
AU,GHCND:ASN00012152,"KOORARAWALYEE, AS",2021-07-20,1894-11-01,-31.2617,459.0,120.0219,0.2277,METERS
AU,GHCND:ASN00016065,"ANDAMOOKA, AS",2021-07-20,1965-07-10,-30.449,76.0,137.1692,0.98,METERS
AU,GHCND:ASN00018115,"NEPTUNE ISLAND, AS",2021-07-20,1957-11-13,-35.3365,32.0,136.1174,0.899,METERS
AU,GHCND:ASN00007179,"TANGADEE, AS",2021-07-13,1960-01-01,-24.4114,550.0,118.9408,0.8687,METERS
AU,GHCND:ASN00013024,"PRENTI DOWNS, AS",2021-07-13,1970-05-01,-26.5172,500.0,122.8078,0.7794,METERS
AU,GHCND:ASN00013030,"TELFER AERO, AS",2021-07-20,1974-01-01,-21.7125,291.9,122.2281,0.9769,METERS
AU,GHCND:ASN00015088,"ALEXANDRIA, AS",2021-06-25,1886-01-01,-19.0579,274.0,136.7066,0.8333,METERS
AU,GHCND:ASN00015574,"ERLDUNDA, AS",2021-03-31,1933-03-01,-25.2219,406.0,133.1955,0.8251,METERS
US,GHCND:USS0007E12S,"SUCKER CREEK, WY US",2021-07-19,1978-09-30,44.72,2706.6,-107.4,1.0,METERS
US,GHCND:USC00428978,"UTAH TEST RANGE, UT US",2021-07-19,1989-09-01,41.0498,1353.3,-112.9367,0.8997,METERS
US,GHCND:USC00517540,"PAIKO DRIVE 723.4, HI US",2021-05-31,1976-05-01,21.2803,1.5,-157.7335,0.9989,METERS
US,GHCND:USC00515000,"KULA BRNCH STATION 324.5, HI US",2021-07-19,1979-04-01,20.7584,944.9,-156.3212,0.9892,METERS
US,GHCND:USW00022536,"LIHUE WEATHER SERVICE OFFICE AIRPORT 1020.1, HI US",2021-07-20,1950-02-01,21.98389,30.5,-159.34056,0.9999,METERS
US,GHCND:USW00021504,"HILO INTERNATIONAL AIRPORT 87, HI US",2021-07-20,1949-10-01,19.7191,11.6,-155.053,0.9999,METERS
US,GHCND:USR0000ABEN,"BEN CREEK ALASKA, AK US",2021-07-20,1990-05-09,65.2833,563.9,-143.0667,0.6889,METERS
US,GHCND:USW00026412,"NORTHWAY AIRPORT, AK US",2021-07-19,1942-09-08,62.9617,522.1,-141.9878,0.9943,METERS
US,GHCND:USR0000AKAN,"KANUTI NWR ALASKA, AK US",2021-07-20,1990-08-06,66.0933,251.5,-152.17,0.8787,METERS
US,GHCND:USR0000ATLA,"T LAKE ALASKA, AK US",2021-05-13,1990-09-24,63.7533,631.9,-143.8167,0.5775,METERS
US,GHCND:USS0049L10S,"COOPER LAKE, AK US",2021-07-19,1981-09-30,60.39,365.8,-149.69,1.0,METERS
US,GHCND:USW00012816,"GAINESVILLE REGIONAL AIRPORT, FL US",2021-07-20,1960-05-01,29.6919,37.5,-82.2755,0.7706,METERS
US,GHCND:USC00500464,"AUKE BAY, AK US",2021-07-19,1963-02-01,58.3814,13.4,-134.645,0.9653,METERS
US,GHCND:USW00025501,"KODIAK AIRPORT, AK US",2021-07-20,1945-01-01,57.7511,24.4,-152.4855,0.9475,METERS
US,GHCND:USW00025713,"SAINT PAUL ISLAND AIRPORT, AK US",2021-07-20,1915-08-08,57.1552,10.7,-170.2222,0.9787,METERS
US,GHCND:USC00298535,"STATE UNIVERSITY, NM US",2021-07-20,1959-04-01,32.2823,1184.5,-106.7598,0.9984,METERS
US,GHCND:USC00201486,"CHATHAM EXPERIMENT FARM 2, MI US",2021-07-14,1987-08-01,46.3414,265.2,-86.9242,0.9957,METERS
US,GHCND:USS0045Q02S,"MONUMENT CREEK, AK US",2021-07-19,1980-09-30,65.08,563.9,-145.87,0.9999,METERS
US,GHCND:USC00509869,"WISEMAN, AK US",2021-07-20,1918-11-01,67.40822,360.0,-150.10958,0.3586,METERS
US,GHCND:CA001200560,"ATLIN, CA",2021-06-30,1899-03-01,59.5667,674.0,-133.7,0.7702,METERS
US,GHCND:USC00503504,"HAINES 40 NW, AK CA",2021-07-20,1989-09-01,59.4503,249.9,-136.3615,0.9763,METERS
US,GHCND:CA005031320,"INDIAN BAY, CA",2021-07-19,1915-04-01,49.6167,327.0,-95.2,0.9764,METERS
US,GHCND:CA001054500,"LANGARA, CA",2021-07-19,1936-07-23,54.25,43.0,-133.05,0.9913,METERS
US,GHCND:CA005022125,"PILOT MOUND AUT, CA",2021-07-19,1957-12-01,49.1833,470.0,-98.9,0.8496,METERS
US,GHCND:USC00014193,"JACKSON, AL US",2021-07-20,1961-10-01,31.5253,67.1,-87.9277,0.8497,METERS
US,GHCND:USC00020080,"AJO, AZ US",2021-07-18,1914-05-01,32.3698,533.7,-112.8599,0.9711,METERS
US,GHCND:USC00020750,"BETATAKIN, AZ US",2021-07-18,1939-03-01,36.6778,2220.8,-110.5411,0.95,METERS
US,GHCND:USC00021248,"CANYON DE CHELLY, AZ US",2021-07-13,1970-12-01,36.1533,1709.9,-109.5394,0.9812,METERS
US,GHCND:USC00023393,"GILA BEND 2 SE, AZ US",2021-04-30,1892-12-01,32.93803,242.0,-112.68109,0.8708,METERS
US,GHCND:USR0000CSQU,"SQUAW LAKE CALIFORNIA, CA US",2021-07-20,1986-04-24,32.9083,91.4,-114.4944,0.9933,METERS
US,GHCND:USW00012839,"MIAMI INTERNATIONAL AIRPORT, FL US",2021-07-20,1948-01-01,25.7881,8.8,-80.3169,1.0,METERS
US,GHCND:USC00085539,"MAYO, FL US",2021-07-07,1949-08-02,30.1063,19.8,-83.1819,0.9758,METERS
US,GHCND:USC00082418,"DRY TORTUGAS, US",2021-07-15,1950-07-01,24.62787,0.9,-82.87362,0.5891,METERS
US,GHCND:USW00013889,"JACKSONVILLE INTERNATIONAL AIRPORT, FL US",2021-07-20,1938-04-01,30.495,7.9,-81.6936,0.998,METERS
US,GHCND:USC00086842,"PANAMA CITY, FL US",2021-07-12,1972-01-01,30.2491,1.5,-85.6605,0.9797,METERS
US,GHCND:USW00003822,"SAVANNAH INTERNATIONAL AIRPORT, GA US",2021-07-20,1948-01-01,32.13133,14.0,-81.20237,1.0,METERS
US,GHCND:USC00095988,"MONTICELLO, GA US",2021-07-01,1891-11-09,33.3329,157.9,-83.6975,0.8865,METERS
US,GHCND:USW00013878,"BRUNSWICK MCKINNON AIRPORT, GA US",2021-07-19,1940-11-01,31.1522,4.9,-81.3908,0.9999,METERS
US,GHCND:USW00014607,"CARIBOU WEATHER FORECAST OFFICE, ME US",2021-07-20,1939-01-16,46.8705,190.2,-68.0173,0.9981,METERS
US,GHCND:USC00179891,"WOODLAND, ME US",2021-07-20,1917-07-01,45.1542,37.5,-67.3985,0.9274,METERS
US,GHCND:USC00213282,"GRAND MARAIS, MN US",2021-07-20,1900-05-01,47.7518,186.5,-90.3282,0.8477,METERS
US,GHCND:USC00213417,"GUNFLINT LAKE 10 NW, MN US",2021-07-20,1951-08-27,48.1603,443.5,-90.8842,0.7211,METERS
US,GHCND:USC00321435,"CAVALIER 7 NW, ND US",2021-07-20,1927-08-01,48.8624,274.0,-97.7015,0.943,METERS
US,GHCND:USC00241875,"COHAGEN, MT US",2021-04-30,1950-04-01,47.05643,829.1,-106.61638,0.7689,METERS
US,GHCND:USW00023169,"MCCARRAN INTERNATIONAL AIRPORT, NV US",2021-07-20,1948-09-06,36.0719,664.5,-115.1634,0.9998,METERS
US,GHCND:USW00023153,"TONOPAH AIRPORT, NV US",2021-07-19,1954-06-11,38.0511,1644.4,-117.0902,0.9994,METERS
US,GHCND:USC00290640,"AUGUSTINE 2 E, NM US",2021-04-30,1926-04-01,34.075,2133.6,-107.6211,0.9162,METERS
US,GHCND:USC00292250,"CUBERO, NM US",2021-04-30,1977-01-01,35.0883,1888.2,-107.5177,0.9875,METERS
US,GHCND:USC00298596,"SUMNER LAKE, NM US",2021-06-02,1975-03-01,34.6033,1312.5,-104.3811,0.9853,METERS
US,GHCND:USW00023040,"WINK FAA AIRPORT, TX US",2021-07-19,1938-06-01,31.7801,855.6,-103.2018,0.9334,METERS
US,GHCND:USC00297180,"QUEMADO, NM US",2021-04-30,1915-07-01,34.3447,2096.4,-108.4922,0.7861,METERS
US,GHCND:USC00255700,"MULLEN 3 S, NE US",2021-07-20,1893-01-01,42.00669,995.8,-101.04446,0.6348,METERS
US,GHCND:USW00013748,"WILMINGTON INTERNATIONAL AIRPORT, NC US",2021-07-19,1948-01-01,34.2675,10.1,-77.8997,0.9999,METERS
US,GHCND:USC00327027,"PETERSBURG 2 N, ND US",2021-07-19,1930-06-12,48.0356,467.0,-98.0096,0.929,METERS
US,GHCND:USC00416104,"MOUNT LOCKE, TX US",2021-07-16,1935-02-01,30.7053,2069.6,-104.0232,0.99,METERS
US,GHCND:USC00412824,"EL INDIO 7 ESE, TX US",2020-12-24,1978-09-01,28.4747,246.0,-100.2147,0.9891,METERS
US,GHCND:USC00416792,"PANTHER JUNCTION, TX US",2021-07-20,1955-04-01,29.3273,1140.0,-103.2062,0.9896,METERS
US,GHCND:USW00012959,"MCALLEN MILLER INTERNATIONAL AIRPORT, TX US",2021-07-19,1961-01-14,26.18389,30.5,-98.25389,0.9972,METERS
US,GHCND:USW00094240,"QUILLAYUTE AIRPORT, WA US",2021-07-20,1966-08-01,47.9375,56.4,-124.555,0.9999,METERS
US,GHCND:USW00023044,"EL PASO INTERNATIONAL AIRPORT, TX US",2021-07-20,1938-04-01,31.81111,1194.2,-106.37583,0.9998,METERS
US,GHCND:USC00413280,"FORT STOCKTON, TX US",2021-07-19,1940-05-01,30.9071,926.0,-102.9153,0.924,METERS
US,GHCND:USC00415048,"LANGTRY, TX US",2021-07-20,1897-07-01,29.8097,393.2,-101.5604,0.5712,METERS
US,GHCND:USC00416776,"PAMPA NUMBER 2, TX US",2021-07-20,1964-04-01,35.5544,960.1,-100.9736,0.9963,METERS
US,GHCND:USC00478905,"WASHINGTON IS, WI US",2021-07-20,1944-10-15,45.3582,209.1,-86.891,0.9883,METERS
US,GHCND:USC00501240,"CANNERY CREEK, AK US",2021-04-30,1979-05-01,61.0183,25.9,-147.5147,0.9621,METERS
US,GHCND:USC00501684,"CHICKEN, AK US",2021-07-19,1911-05-30,64.0917,548.6,-141.9211,0.2467,METERS
US,GHCND:USR0000AHAI,"HAIDA ALASKA, AK US",2021-07-20,1989-09-25,55.3503,457.2,-132.6983,0.5925,METERS
US,GHCND:USS0045O04S,"GRANITE CRK, AK US",2021-07-19,1987-10-01,63.94,378.0,-145.4,0.9997,METERS
US,GHCND:USC00502587,"DUTCH HARBOR, AK US",2021-07-19,1915-05-01,53.895,3.0,-166.5433,0.6495,METERS
US,GHCND:USR0000AKLA,"KLAWASI ALASKA, AK US",2021-07-20,1991-06-10,62.1472,944.9,-144.9281,0.8574,METERS
US,GHCND:USC00503672,"HOMER 8 NW, AK US",2021-04-30,1977-10-01,59.7444,329.2,-151.6347,0.9864,METERS
US,GHCND:USC00505136,"KUPARUK, AK US",2021-04-30,1983-02-01,70.3289,19.5,-149.6114,0.9801,METERS
US,GHCND:USC00505519,"LITTLE PORT WALTER, AK US",2021-07-16,1936-07-01,56.383,4.3,-134.6497,0.9377,METERS
US,GHCND:USC00505778,"MCKINLEY PARK, AK US",2021-07-20,1923-01-01,63.7175,630.9,-148.9692,0.9692,METERS
US,GHCND:USC00505881,"MINCHUMINA, AK US",2021-04-30,1945-01-01,63.9033,312.4,-152.2816,0.7863,METERS
US,GHCND:USC00507570,"PORT ALSWORTH, AK US",2021-04-30,1960-07-01,60.2036,79.2,-154.3163,0.9652,METERS
US,GHCND:USC00507783,"PUNTILLA, AK US",2021-07-19,1942-01-01,62.0911,566.3,-152.7349,0.8708,METERS
US,GHCND:USR0000ABEV,"BEAVER WBQ ALASKA, AK US",2021-07-20,1990-05-29,66.2667,147.2,-146.5167,0.6618,METERS
US,GHCND:USR0000ACOT,"COTTONWOOD ALASKA, AK US",2021-07-20,1991-06-17,65.3458,399.3,-155.9361,0.6588,METERS
US,GHCND:USR0000AGRA,"GRAPHITE LAKE ALASKA, AK US",2021-07-20,1991-06-24,67.0333,259.1,-143.2833,0.6913,METERS
US,GHCND:USR0000AHAY,"HAYCOCK ALASKA, AK US",2021-07-20,1988-05-22,65.2017,53.9,-161.155,0.7893,METERS
US,GHCND:USR0000AHEL,"HELMUT MOUNTAIN ALASKA, AK US",2021-07-20,1988-09-22,67.7414,853.4,-144.1225,0.6986,METERS
US,GHCND:USW00025325,"KETCHIKAN AIRPORT, AK US",2021-07-18,1910-09-01,55.35956,24.4,-131.72074,0.9522,METERS
US,GHCND:USR0000AHOD,"HODZANA ALASKA, AK US",2021-07-20,1991-06-10,66.7417,327.7,-148.6767,0.6431,METERS
US,GHCND:USR0000AINN,"INNOKO FLATS ALASKA, AK US",2021-07-20,1988-03-30,63.39,283.5,-158.8167,0.7453,METERS
US,GHCND:USR0000AKIA,"KIANA ALASKA, AK US",2021-07-20,1988-04-19,66.9767,45.7,-160.4375,0.7628,METERS
US,GHCND:USR0000AKIL,"KILBUCK ALASKA, AK US",2021-07-20,1991-07-15,60.32,582.2,-160.2,0.8877,METERS
US,GHCND:USR0000AKOY,"KOYUKUK NWR ALASKA, AK US",2021-07-20,1990-07-16,66.0083,30.5,-157.57,0.8009,METERS
US,GHCND:USR0000AMAY,"MAY CREEK ALASKA, AK US",2021-07-20,1990-05-25,61.3208,487.7,-142.5844,0.9065,METERS
US,GHCND:USR0000ANOA,"NOATAK ALASKA, AK US",2021-07-20,1990-04-23,68.0708,300.2,-158.7042,0.8303,METERS
US,GHCND:USR0000ANOR,"NORUTAK LAKE ALASKA, AK US",2021-07-20,1990-05-26,66.8333,243.8,-154.3333,0.7943,METERS
US,GHCND:USR0000APOO,"POORMAN ALASKA, AK US",2021-07-20,1988-06-02,64.105,285.0,-155.5583,0.8162,METERS
US,GHCND:USR0000ASEL,"SELAWIK ALASKA, AK US",2021-07-20,1991-06-14,66.6033,32.0,-159.1125,0.9256,METERS
US,GHCND:USR0000ASEV,"SEVEN MILE ALASKA, AK US",2021-07-20,1988-03-24,65.9383,250.9,-149.855,0.9165,METERS
US,GHCND:USR0000ASTR,"STONEY RIVER ALASKA, AK US",2021-07-20,1990-09-24,61.6467,80.8,-156.4333,0.8213,METERS
US,GHCND:USR0000AWEI,"WEIN LAKE ALASKA, AK US",2021-07-20,1988-05-27,64.315,320.0,-151.0833,0.7103,METERS
US,GHCND:USW00025329,"PETERSBURG 1, AK US",2021-07-19,1924-05-01,56.8055,32.6,-132.9372,0.8244,METERS
US,GHCND:USC00042319,"DEATH VALLEY NATIONAL PARK, CA US",2021-07-19,1961-04-26,36.4626,-59.1,-116.8672,0.9983,METERS
US,GHCND:USR0000NBLU,"BLUEWING MOUNTAIN NEVADA, NV US",2021-07-20,1986-07-31,40.5017,1392.9,-119.1217,0.9965,METERS
US,GHCND:USR0000NFOX,"FOX MOUNTAIN NEVADA, NV US",2021-07-20,1989-07-31,41.0061,2100.1,-119.5681,0.9893,METERS
US,GHCND:USR0000NPAN,"PANCAKE NEVADA, NV US",2021-07-20,1986-09-18,38.3036,1585.0,-116.1925,0.9912,METERS
US,GHCND:USR0000TGUA,"GUADELUPE PEAK TEXAS, TX US",2021-06-29,1985-07-02,31.925,2363.7,-104.8253,0.9444,METERS
US,GHCND:USS0047O01S,"MONAHAN FLAT, AK US",2021-07-19,1983-10-01,63.31,826.0,-147.65,0.8691,METERS
US,GHCND:USS0048U01S,"SAGWON, AK US",2021-07-19,1983-03-02,69.42,304.8,-148.69,0.9008,METERS
US,GHCND:USS0049T03S,"ATIGUN PASS, AK US",2021-07-19,1982-10-01,68.13,1463.0,-149.48,0.9703,METERS
US,GHCND:USS0051R01S,"BETTLES FIELD, AK US",2021-07-19,1980-09-30,66.92,195.1,-151.53,1.0,METERS
US,GHCND:USW00003940,"JACKSON INTERNATIONAL AIRPORT, MS US",2021-07-20,1942-09-01,32.3205,100.6,-90.0777,0.7357,METERS
US,GHCND:USW00012836,"KEY WEST INTERNATIONAL AIRPORT, FL US",2021-07-20,1948-01-01,24.5571,0.3,-81.7554,0.9455,METERS
US,GHCND:USW00013870,"ALMA BACON CO AIRPORT, GA US",2021-07-20,1938-06-01,31.5358,58.8,-82.5067,1.0,METERS
US,GHCND:USW00013966,"WICHITA FALLS MUNICIPAL AIRPORT, TX US",2021-07-20,1897-01-01,33.9786,310.0,-98.4928,0.9414,METERS
US,GHCND:USW00013968,"TULSA INTERNATIONAL AIRPORT, OK US",2021-07-20,1938-12-01,36.1994,198.1,-95.8872,0.9616,METERS
US,GHCND:USW00013978,"GREENWOOD LEFLORE AIRPORT, MS US",2021-07-20,1948-01-01,33.4963,40.5,-90.0866,0.993,METERS
US,GHCND:USW00014610,"MILLINOCKET MUNICIPAL AIRPORT, ME US",2021-07-19,1944-12-01,45.6477,123.7,-68.6925,0.5745,METERS
US,GHCND:USW00014847,"SAULT STE MARIE SANDERSON FIELD, MI US",2021-07-20,1931-01-01,46.4794,220.1,-84.3572,1.0,METERS
US,GHCND:USC00410225,"AMISTAD DAM, TX US",2021-07-01,1964-05-01,29.4608,352.7,-101.0286,0.9872,METERS
US,GHCND:USW00023157,"BISHOP AIRPORT, CA US",2021-07-20,1895-01-01,37.3711,1250.3,-118.358,0.738,METERS
US,GHCND:USW00025333,"SITKA AIRPORT, AK US",2021-07-18,1944-09-01,57.0481,4.3,-135.3647,0.9767,METERS
US,GHCND:USW00025503,"KING SALMON AIRPORT, AK US",2021-07-20,1942-01-12,58.6829,20.4,-156.6563,0.9755,METERS
US,GHCND:USW00025506,"ILIAMNA AIRPORT, AK US",2021-07-18,1920-02-01,59.7494,43.6,-154.9089,0.7754,METERS
US,GHCND:USW00025624,"COLD BAY AIRPORT, AK US",2021-07-20,1942-03-25,55.2207,23.8,-162.7324,0.8976,METERS
US,GHCND:USW00026410,"CORDOVA AIRPORT, AK US",2021-07-18,1909-05-05,60.4888,9.4,-145.4511,0.9549,METERS
US,GHCND:USW00026510,"MCGRATH AIRPORT, AK US",2021-07-19,1939-04-01,62.9574,101.5,-155.6103,0.997,METERS
US,GHCND:USW00026615,"BETHEL AIRPORT, AK US",2021-07-20,1923-08-01,60.785,31.1,-161.8293,0.9986,METERS
US,GHCND:USW00026616,"KOTZEBUE AIRPORT, AK ",2021-07-20,1897-09-12,66.8667,9.1,-162.6333,0.769,METERS
US,GHCND:USW00026617,"NOME AIRPORT, AK US",2021-07-20,1900-08-01,64.5111,4.0,-165.44,0.947,METERS
US,GHCND:USW00027401,"BARTER ISLAND WEATHER SERVICE OFFICE AIRPORT, AK US",2021-07-15,1947-09-23,70.13389,14.9,-143.57694,0.6365,METERS
US,GHCND:USW00027502,"BARROW AIRPORT, AK US",2021-07-20,1901-09-01,71.2834,9.4,-156.7815,0.8818,METERS
US,GHCND:USW00027503,"WAINWRIGHT AIRPORT, AK US",2021-07-15,1935-09-20,70.63917,9.1,-159.995,0.5221,METERS
US,GHCND:USW00093845,"VALDOSTA REGIONAL AIRPORT, GA US",2021-07-19,1948-01-01,30.7825,60.4,-83.27667,0.9373,METERS
US,GHCND:USR0000AHOG,"HOGATZA RIVER ALASKA, AK US",2021-07-20,1988-05-19,66.2167,208.8,-155.6667,0.7148,METERS
US,GHCND:USR0000AKEL,"KELLY ALASKA, AK US",2021-07-20,1990-04-23,67.9333,125.6,-162.3,0.8863,METERS
US,GHCND:USR0000AQTZ,"QUARTZ CREEK ALASKA, AK US",2021-07-20,1988-05-18,65.4,130.1,-164.65,0.8187,METERS
US,GHCND:USR0000ATEL,"TELIDA ALASKA, AK US",2021-05-24,1991-05-24,63.44,198.1,-153.3567,0.8852,METERS
US,GHCND:USW00026529,"TANANA AIRPORT, AK US",2021-07-19,1901-08-24,65.175,67.7,-152.1067,0.8779,METERS
US,GHCND:USC00208043,"TAHQUAMENON FALLS STATE PARK, MI US",2021-07-01,1968-10-01,46.6013,227.1,-85.2238,0.953,METERS
US,GHCND:USC00293775,"HACHITA 1 W, NM US",2021-07-19,1909-07-01,31.9194,1361.2,-108.3441,0.8755,METERS
LY,GHCND:AGM00060670,"TISKA, AG",2021-07-19,1965-09-14,24.293,968.0,9.452,0.7801,METERS
LY,GHCND:LY000062131,"HON, LY",2021-07-19,1956-01-01,29.12,267.0,15.95,0.6379,METERS
LY,GHCND:LY000062271,"KUFRA, LY",2021-07-19,1956-01-01,24.22,436.0,23.3,0.6936,METERS
LY,GHCND:LYE00147740,"NALUT, LY",2021-07-19,1932-01-01,31.87,621.0,10.98,0.5716,METERS
LY,GHCND:LYE00147741,"ZUARA, LY",2021-07-19,1920-01-01,32.88,3.0,12.08,0.5893,METERS
LY,GHCND:LYE00147745,"MISURATA, LY",2021-07-19,1925-05-25,32.4097,32.0,15.05,0.6011,METERS
LY,GHCND:LYE00147746,"SIRTE, LY",2021-07-19,1925-08-01,31.2,13.0,16.5797,0.5979,METERS
LY,GHCND:LYE00147747,"BENGHAZI BENINA, LY",2021-07-19,1943-11-01,32.08,132.0,20.27,0.6749,METERS
LY,GHCND:LYE00147751,DERNA,2021-07-19,1928-01-01,32.76,10.0,22.66,0.422,METERS
LY,GHCND:LYM00062062,"TOBRUK, LY",2021-07-19,1944-10-27,32.1,51.0,23.933,0.271,METERS
LY,GHCND:LYM00062120,"GARIAT EL SHARGHIA, LY",2021-06-20,1973-01-01,30.383,497.0,13.583,0.5691,METERS
LY,GHCND:LYM00062161,"JALO, LY",2021-07-19,1956-01-01,29.033,60.0,21.567,0.6044,METERS
LY,GHCND:LYM00062176,"GIGHBUB, LY",2021-07-13,1956-01-01,29.75,-1.0,24.533,0.4539,METERS
LY,GHCND:LYM00062200,"OBARI, LY",2021-07-19,1988-07-09,26.6,463.0,12.783,0.4654,METERS
LY,GHCND:LYM00062212,"GHAT, LY",2021-07-17,1981-12-01,25.146,699.8,10.143,0.3223,METERS
LY,GHCND:LYM00062259,"TAZERBO, LY",2021-07-19,1962-12-01,25.8,261.0,21.133,0.5323,METERS
LY,GHCND:LYM00062012,"EL KHOMS, LY",2021-07-19,1990-06-02,32.633,22.0,14.3,0.7384,METERS
LY,GHCND:LYM00062008,"YEFREN, LY",2021-07-19,1983-08-05,32.083,691.0,12.55,0.6626,METERS
LY,GHCND:LYM00062103,"GHADAMES EAST, LY",2021-07-19,1961-08-14,30.152,342.0,9.715,0.7,METERS
AZ,GHCND:AJ000037575,"ZAKATALA, AJ",2021-07-19,1936-01-01,41.55,490.0,46.667,0.6668,METERS
AZ,GHCND:AJ000037675,"GUBA, AJ",2021-07-19,1936-01-02,41.367,552.0,48.517,0.5312,METERS
AZ,GHCND:AJ000037735,"GANCA, AJ",2021-07-19,1882-01-01,40.7167,311.0,46.4167,0.833,METERS
AZ,GHCND:AJ000037749,"GOYCHAY, AJ",2021-07-19,1936-01-01,40.65,95.0,47.75,0.6427,METERS
AZ,GHCND:AJ000037756,"MARAZA, AJ",2021-07-19,1955-01-01,40.533,755.0,48.933,0.5943,METERS
AZ,GHCND:AJ000037985,"LANKARAN, AJ",2021-07-19,1897-05-01,38.75,-12.0,48.817,0.7577,METERS
AL,GHCND:ALM00013615,"TIRANA RINAS, AL",2021-07-19,1973-02-05,41.415,38.4,19.721,0.6978,METERS
AM,GHCND:AM000037801,"GAVAR, AM",2021-07-19,1891-01-01,40.35,1961.0,45.1331,0.841,METERS
AM,GHCND:AM000037897,"SISIAN, AM",2021-07-19,1936-01-01,39.533,1581.0,46.017,0.6389,METERS
AO,GHCND:AO000066160,"LUANDA, AO",2021-07-19,1960-04-01,-8.85,74.0,13.233,0.3893,METERS
AO,GHCND:AO000066390,"LUBANGO SA DA BAND, AO",2021-07-19,1957-09-03,-14.933,1761.0,13.567,0.2295,METERS
AS,GHCND:AQC00914000,"AASUFOU, US",2021-05-31,1980-01-01,-14.31667,408.4,-170.76667,0.6872,METERS
AS,GHCND:AQW00061705,"PAGO PAGO WEATHER SERVICE OFFICE AIRPORT, US",2021-07-19,1945-08-01,-14.33056,3.7,-170.71361,0.7137,METERS
AS,GHCND:AQC00914594,"MALAELOA, US",2021-05-31,1978-11-01,-14.33333,42.4,-170.76667,0.0674,METERS
AR,GHCND:ARM00087016,"ORAN, AR",2021-07-19,1961-05-01,-23.153,356.0,-64.329,0.6436,METERS
AR,GHCND:AR000000011,"MONTE CASEROS AERO, AR",2021-07-19,1967-04-15,-30.267,53.0,-57.65,0.8396,METERS
AR,GHCND:AR000087344,"CORDOBA AERO, AR",2021-07-19,1956-02-02,-31.317,489.0,-64.217,0.9316,METERS
AR,GHCND:AR000087374,"PARANA AERO, AR",2021-07-19,1956-02-01,-31.783,74.0,-60.483,0.9458,METERS
AR,GHCND:AR000087418,"MENDOZA AERO, AR",2021-07-19,1957-06-30,-32.833,704.0,-68.783,0.924,METERS
AR,GHCND:AR000087534,"LABOULAYE AERO, AR",2021-07-19,1950-01-01,-34.133,137.0,-63.367,0.9869,METERS
AR,GHCND:AR000087623,"SANTA ROSA AERO, AR",2021-07-19,1951-01-01,-36.567,192.0,-64.266,0.9903,METERS
AR,GHCND:AR000087692,"MAR DEL PLATA AERO, AR",2021-07-19,1956-02-01,-37.933,22.0,-57.583,0.9562,METERS
AR,GHCND:AR000087715,"NEUQUEN AERO, AR",2021-07-19,1956-08-01,-38.95,273.0,-68.133,0.9449,METERS
AR,GHCND:AR000087803,"ESQUEL AERO, AR",2021-07-19,1957-06-30,-42.933,799.0,-71.15,0.8974,METERS
AR,GHCND:AR000087828,"TRELEW AERO, AR",2021-07-19,1956-02-02,-43.2,43.0,-65.266,0.9804,METERS
AR,GHCND:AR000087860,"COMODORO RIVADAVIA, AR",2021-07-19,1956-02-01,-45.783,58.0,-67.5,0.967,METERS
AR,GHCND:AR000087925,"RIO GALLEGOS AERO, AR",2021-07-19,1956-02-01,-51.617,19.0,-69.283,0.9361,METERS
AR,GHCND:AR000870470,"SALTA AERO, AR",2021-07-19,1956-02-01,-24.85,1246.0,-65.483,0.9281,METERS
AR,GHCND:AR000087065,"RIVADAVIA, AR",2020-10-20,1956-04-01,-24.167,205.0,-62.9,0.6399,METERS
AR,GHCND:AR000087078,"LAS LOMITAS, AR",2021-07-19,1956-04-01,-24.7,130.0,-60.583,0.7802,METERS
AR,GHCND:AR000087129,"SANTIAGO DEL ESTERO, AR",2021-07-19,1956-02-01,-27.767,200.0,-64.3,0.9732,METERS
AR,GHCND:ARM00087166,"CORRIENTES, AR",2021-07-19,1973-01-01,-27.446,61.9,-58.762,0.962,METERS
AR,GHCND:AR000087257,"CERES AERO, AR",2021-07-19,1956-04-01,-29.883,88.0,-61.95,0.9604,METERS
AR,GHCND:AR000087270,"RECONQUISTA AERO, AR",2021-07-19,1961-01-01,-29.183,53.0,-59.7,0.9415,METERS
AR,GHCND:AR000875440,"PEHUAJO AERO, AR",2021-07-19,1959-01-01,-35.867,85.0,-61.9,0.7252,METERS
AR,GHCND:ARM00087582,"AEROPARQUE JORGE NEWBERY, AR",2021-07-19,1973-01-01,-34.559,5.5,-58.416,0.9619,METERS
AR,GHCND:AR000877500,"BAHIA BLANCA AERO, AR",2021-07-19,1956-02-02,-38.733,75.0,-62.167,0.9532,METERS
AR,GHCND:ARM00087289,"PASO DE LOS LIBRES, AR",2021-07-19,1973-01-01,-29.689,70.1,-57.152,0.9909,METERS
AR,GHCND:ARM00087311,"SAN JUAN, AR",2021-07-19,1973-01-01,-31.571,597.1,-68.418,0.9949,METERS
AR,GHCND:ARM00087320,"CHAMICAL AERO, AR",2021-07-19,1973-06-18,-30.367,461.0,-66.283,0.81,METERS
AR,GHCND:ARM00087328,"VILLA DOLORES, AR",2021-07-19,1973-01-01,-31.945,583.7,-65.146,0.8712,METERS
AR,GHCND:ARM00087436,"SAN LUIS, AR",2021-07-19,1957-06-30,-33.273,709.9,-66.356,0.7855,METERS
AR,GHCND:ARM00087448,"VILLA REYNOLDS, AR",2021-07-19,1973-01-01,-33.73,484.9,-65.387,0.9291,METERS
AR,GHCND:ARM00087453,"RIO CUARTO AREA DE MATERIAL, AR",2021-07-19,1973-01-01,-33.085,420.9,-64.261,0.9882,METERS
AR,GHCND:ARM00087162,"FORMOSA, AR",2021-07-19,1973-01-01,-26.213,59.1,-58.228,0.9722,METERS
AR,GHCND:ARM00087178,"POSADAS, AR",2021-07-19,1960-01-02,-27.386,131.1,-55.971,0.8841,METERS
AR,GHCND:ARM00087222,"CATAMARCA, AR",2021-07-19,1973-07-02,-28.596,463.9,-65.752,0.9707,METERS
AR,GHCND:ARM00087244,"VILLA MARIA DEL RIO, AR",2021-07-19,1973-01-01,-29.9,341.0,-63.683,0.6595,METERS
AR,GHCND:ARM00087467,"MARCOS JUAREZ, AR",2021-07-19,1973-01-01,-32.684,110.0,-62.158,0.9907,METERS
AR,GHCND:ARM00087480,"ROSARIO, AR",2021-07-19,1965-03-08,-32.904,25.9,-60.785,0.8726,METERS
AR,GHCND:ARM00087497,"GUALEGUAYCHU, AR",2021-07-19,1965-03-27,-33.01,22.9,-58.613,0.8767,METERS
AR,GHCND:ARM00087637,"CORONEL SUAREZ AERO, AR",2021-06-15,1973-03-07,-37.433,233.0,-61.883,0.2337,METERS
AR,GHCND:ARM00087640,"BOLIVAR AERO, AR",2021-07-19,1989-04-06,-36.2,94.0,-61.067,0.5778,METERS
AR,GHCND:ARM00087643,"OLAVARRIA AERO, AR",2021-07-19,1987-10-03,-36.883,166.0,-60.217,0.188,METERS
AR,GHCND:ARM00087645,"TANDIL, AR",2021-07-19,1973-01-01,-37.237,175.0,-59.228,0.9768,METERS
AR,GHCND:ARM00087648,"DOLORES AIRPORT, AR",2021-07-19,1973-01-01,-36.35,9.0,-57.733,0.8415,METERS
AR,GHCND:ARM00087688,"TRES ARROYOS, AR",2021-07-19,1973-01-01,-38.387,121.9,-60.33,0.6094,METERS
AR,GHCND:ARM00087765,"SAN CARLOS DE BARILOCHE, AR",2021-07-19,1957-06-30,-41.151,846.1,-71.158,0.7875,METERS
AR,GHCND:ARM00087774,"MAQUINCHAO, AR",2021-07-19,1957-09-01,-41.25,888.0,-68.733,0.39,METERS
AR,GHCND:ARM00087784,"SAN ANTONIO OESTE AERO, AR",2021-07-19,1968-01-02,-40.783,20.0,-65.1,0.7431,METERS
AR,GHCND:ARM00087791,"GOBERNADOR CASTELLO, AR",2021-07-19,1973-01-01,-40.869,6.1,-63.0,0.9521,METERS
AR,GHCND:ARM00087548,"JUNIN, AR",2021-07-19,1967-05-05,-34.546,79.9,-60.931,0.9153,METERS
AR,GHCND:ARM00087563,"LAS FLORES, AR",2021-07-01,1974-10-25,-36.067,38.0,-59.1,0.2066,METERS
AR,GHCND:ARM00087593,"LA PLATA, AR",2021-07-19,1973-01-01,-34.972,21.9,-57.895,0.7762,METERS
AR,GHCND:ARM00087596,"PUNTA INDIO B.A., AR",2021-07-19,1957-06-30,-35.367,22.0,-57.283,0.2422,METERS
AR,GHCND:ARM00087814,"PASO DE INDIOS, AR",2021-07-19,1973-09-22,-43.817,460.0,-68.883,0.251,METERS
AR,GHCND:ARM00087938,"USHUAIA MALVINAS ARGENTINAS, AR",2021-07-19,1957-06-30,-54.843,21.6,-68.296,0.5989,METERS
AR,GHCND:ARM00087896,"PUERTO DESEADO, AR",2021-07-19,1962-07-22,-47.735,81.1,-65.904,0.3069,METERS
AR,GHCND:ARM00087909,"SAN JULIAN, AR",2021-07-19,1973-01-01,-49.307,57.9,-67.803,0.9458,METERS
AR,GHCND:ARM00087934,"RIO GRANDE, AR",2021-07-19,1973-01-01,-53.778,19.8,-67.749,0.8742,METERS
AR,GHCND:ARM00087022,"GENERAL ENRIQUE MOSCONI TARTA, AR",2021-07-19,1973-01-01,-22.62,449.0,-63.794,0.8079,METERS
AR,GHCND:ARM00087506,"MALARGUE, AR",2021-07-19,1967-06-05,-35.494,1430.1,-69.574,0.8766,METERS
AR,GHCND:ARM00087852,"PERITO MORENO AIRPORT, AR",2021-07-19,1967-07-04,-46.517,429.0,-71.017,0.4362,METERS
AR,GHCND:AR000087007,"LA QUIACA OBSERVATO, AR",2021-07-19,1956-04-01,-22.1,3479.0,-65.6,0.8937,METERS
AR,GHCND:ARM00087121,"TENIENTE BENJAMIN MATIENZO, AR",2021-07-19,1981-11-01,-26.841,455.7,-65.105,0.9939,METERS
AR,GHCND:ARM00087532,"GENERAL PICO, AR",2021-07-19,1973-01-01,-35.696,139.9,-63.758,0.6172,METERS
AR,GHCND:BR002554002,"IGUAZU AERO, AR",2021-07-19,1962-07-10,-25.733,279.0,-54.467,0.8267,METERS
AR,GHCND:AYM00089063,"VERNADSKY, AY",2021-07-19,1985-07-08,-65.25,11.0,-64.267,0.487,METERS
AR,GHCND:AYM00089062,ROTHERA,2021-07-19,1977-02-01,-67.567,33.0,-68.117,0.4927,METERS
AR,GHCND:AYM00089066,BASE SAN MARTIN,2021-07-19,1976-10-09,-68.117,7.0,-67.133,0.9006,METERS
AR,GHCND:AYM00089262,UNIVERSITY WI ID 8926 LARSEN ICE,2021-06-26,1990-05-12,-67.017,45.0,-61.467,0.6737,METERS
AR,GHCND:AYM00089266,"UNIVERSITY WI ID 8902 BUTLER ISLA, AY",2021-07-19,1990-05-10,-72.2,115.0,-60.167,0.7902,METERS
AR,GHCND:AR000087217,"LA RIOJA AERO., AR",2021-07-19,1956-02-01,-29.383,438.0,-66.817,0.9468,METERS
AR,GHCND:ARM00087046,"JUJUY, AR",2021-07-19,1973-01-01,-24.393,920.2,-65.098,0.9907,METERS
AR,GHCND:ARM00087509,"SAN RAFAEL, AR",2021-07-19,1973-01-01,-34.588,752.9,-68.403,0.9891,METERS
AR,GHCND:ARM00087880,"GOBERNADOR GREGORES, AR",2021-06-26,1973-01-01,-48.783,356.0,-70.167,0.2246,METERS
UY,GHCND:ARM00087395,"COMODORO PIERRESTEGUI, AR",2021-07-19,1973-01-01,-31.297,34.1,-57.997,0.9893,METERS
UY,GHCND:UY000001709,"MELO, UY",2021-07-19,1964-01-03,-32.35,100.0,-54.183,0.6577,METERS
UY,GHCND:UY000002206,"DURAZNO, UY",2021-07-19,1957-07-05,-33.35,92.0,-56.5,0.5998,METERS
UY,GHCND:UY000086330,"EST.MET.ARTIGAS, UY",2021-07-19,1976-07-14,-30.4,121.0,-56.52,0.9059,METERS
UY,GHCND:UY000086490,"MERCEDES, UY",2021-07-19,1931-01-01,-33.25,17.0,-58.067,0.8907,METERS
UY,GHCND:UY000086565,"ROCHA, UY",2021-07-19,1970-01-01,-34.483,18.0,-54.3,0.9365,METERS
UY,GHCND:UYM00086580,"CARRASCO INTERNATIONAL, UY",2021-07-19,1957-06-30,-34.838,32.0,-56.031,0.7967,METERS
UY,GHCND:UYM00086560,"LAGUNA DE LOS PATOS INTERNATIONAL, UY",2021-07-19,1957-07-01,-34.456,21.0,-57.771,0.691,METERS
NZ,GHCND:ASM00094998,"MACQUARIE ISLAND, AS",2021-07-19,1973-01-01,-54.499,8.3,158.937,0.9204,METERS
NZ,GHCND:AYM00089377,LETTAU,2021-07-19,1990-05-10,-82.517,55.0,-174.45,0.5351,METERS
NZ,GHCND:NZ000093292,"GISBORNE AERODROME, NZ",2021-07-19,1962-02-01,-38.65,5.0,177.983,0.9805,METERS
NZ,GHCND:NZ000093417,"PARAPARAUMU AWS, NZ",2021-07-19,1972-01-01,-40.9,7.0,174.983,0.9772,METERS
NZ,GHCND:NZ000093844,"INVERCARGILL AIRPOR, NZ",2021-07-19,1948-05-31,-46.417,2.0,168.333,0.9853,METERS
NZ,GHCND:NZ000933090,"NEW PLYMOUTH AWS, NZ",2021-07-19,1944-01-01,-39.017,32.0,174.183,0.9879,METERS
NZ,GHCND:NZ000936150,"HOKITIKA AERODROME, NZ",2021-07-19,1964-01-01,-42.717,40.0,170.983,0.9741,METERS
NZ,GHCND:NZ000939450,CAMPBELL ISLAND AWS,2021-07-19,1941-07-03,-52.55,19.0,169.167,0.8242,METERS
NZ,GHCND:NZM00093781,"CHRISTCHURCH INTERNATIONAL, NZ",2021-07-19,1954-03-02,-43.489,37.5,172.532,0.9463,METERS
NZ,GHCND:NZ000093012,"KAITAIA, NZ",2021-07-19,1965-12-31,-35.1,54.0,173.267,0.9427,METERS
VN,GHCND:VMM00048826,"PHU LIEN, VM",2021-07-19,1974-09-24,20.8,116.0,106.633,0.9442,METERS
VN,GHCND:VM000048900,"TAN SON HOA, VM",2021-07-19,1951-01-09,10.82,5.0,106.67,0.9654,METERS
VN,GHCND:VMM00048808,"CAO BANG, VM",2021-07-19,1959-05-09,22.667,243.0,106.25,0.535,METERS
VN,GHCND:VMM00048820,"NOIBAI INTERNATIONAL, VM",2021-07-19,1958-12-18,21.221,11.9,105.807,0.8034,METERS
VN,GHCND:VMM00048830,"LANG SON, VM",2021-07-19,1974-09-26,21.833,263.0,106.767,0.6311,METERS
VN,GHCND:VMM00048840,"THANH HOA, VM",2021-07-19,1974-09-24,19.75,5.0,105.783,0.703,METERS
VN,GHCND:VMM00048845,"VINH, VM",2021-07-19,1974-10-15,18.737,5.2,105.671,0.9484,METERS
VN,GHCND:VMM00048848,"DONG HOI, VM",2021-07-19,1974-09-25,17.483,8.0,106.6,0.9301,METERS
VN,GHCND:VMM00048855,"DANANG INTERNATIONAL, VM",2021-07-19,1957-01-01,16.044,10.1,108.199,0.9381,METERS
VN,GHCND:VMM00048887,"PHAN THIET, VM",2021-07-19,1956-11-08,10.933,5.0,108.1,0.8245,METERS
VN,GHCND:VMM00048914,"CA MAU, VM",2021-07-19,1957-08-31,9.183,2.0,105.15,0.8165,METERS
VN,GHCND:VMM00048917,"PHU QUOC, VM",2021-07-19,1957-04-15,10.217,4.0,103.967,0.7525,METERS
VN,GHCND:VMW00041010,NHA TRANG,2021-07-19,1957-01-01,12.23333,9.1,109.2,0.8731,METERS
VN,GHCND:VMW00041011,"QUI NHON, VM",2021-07-19,1957-01-04,13.76667,9.1,109.21667,0.8788,METERS
VG,GHCND:VQC00672551,"EAST END, US",2021-05-31,1972-01-01,18.33459,32.0,-64.67573,0.8523,METERS
NA,GHCND:WA004191820,"J.G.H. VAN DER WATH AIRP, WA",2021-07-19,1949-01-01,-26.53,1077.0,18.12,0.7715,METERS
NA,GHCND:WA007401540,"WINDHOEK, WA",2021-07-19,1913-01-01,-22.567,1700.0,17.1,0.8738,METERS
NA,GHCND:WA007878380,"GOBABIS, WA",2021-07-19,1959-01-01,-22.5,1400.0,18.967,0.4442,METERS
NA,GHCND:WA010101860,"GROOTFONTEIN, WA",2021-07-19,1917-01-01,-19.6,1400.0,18.117,0.7875,METERS
NA,GHCND:WA010517310,"OKAUKUEJO, WA",2021-07-19,1968-01-01,-19.15,1100.0,15.912,0.3247,METERS
NA,GHCND:WAM00068006,"ONDANGWA, WA",2021-07-19,1973-02-06,-17.933,1100.0,15.983,0.3141,METERS
NA,GHCND:WAM00068098,"WALVIS BAY AIRPORT, WA",2021-07-17,1990-02-14,-22.983,88.0,14.65,0.5427,METERS
UZ,GHCND:UZM00038927,"TERMEZ, UZ",2021-07-19,1936-01-01,37.2294,309.0,67.2694,0.9881,METERS
UZ,GHCND:UZM00038141,"JASLYK, UZ",2021-07-19,1974-08-09,43.883,128.0,57.517,0.5949,METERS
UZ,GHCND:UZM00038149,"KUNGRAD, UZ",2021-07-19,1948-04-09,43.083,64.0,58.933,0.5973,METERS
UZ,GHCND:UZM00038178,"AK BAJTAL, UZ",2021-07-19,1957-02-03,43.15,234.0,64.333,0.8743,METERS
UZ,GHCND:UZM00038262,"CIMBAJ, UZ",2021-07-19,1936-07-04,42.95,66.0,59.8167,0.9973,METERS
UZ,GHCND:UZM00038396,"URGENCH, UZ",2021-07-19,1936-01-01,41.567,101.0,60.567,0.7661,METERS
UZ,GHCND:UZM00038403,"BUZAUBAJ, UZ",2021-07-19,1960-01-01,41.75,98.0,62.467,0.8129,METERS
UZ,GHCND:UZM00038413,"TAMDY, UZ",2021-07-19,1932-06-01,41.7331,237.0,64.6167,0.9959,METERS
UZ,GHCND:UZM00038457,"TASHKENT, UZ",2021-07-19,1881-01-01,41.27,477.0,69.2694,0.9845,METERS
UZ,GHCND:UZM00038462,"PSKEM, UZ",2021-07-19,1936-01-01,41.9,1258.0,70.367,0.5767,METERS
UZ,GHCND:UZM00038475,"ANDIZAN, UZ",2021-07-16,1936-01-01,40.733,477.0,72.333,0.7335,METERS
UZ,GHCND:UZM00038565,"NURATA, UZ",2021-07-19,1910-01-28,40.55,485.0,65.683,0.5689,METERS
UZ,GHCND:UZM00038579,"DZIZAK, UZ",2021-07-19,1942-01-01,40.117,345.0,67.833,0.6631,METERS
UZ,GHCND:UZM00038583,"SYR DARJA, UZ",2021-07-19,1938-01-01,40.817,264.0,68.683,0.6098,METERS
UZ,GHCND:UZM00038611,"NAMANGAN, UZ",2021-07-19,1936-01-01,40.983,474.0,71.583,0.6141,METERS
UZ,GHCND:UZM00038618,"FERGANA, UZ",2021-07-19,1881-04-01,40.3667,577.0,71.75,0.9514,METERS
UZ,GHCND:UZM00038683,"BUHARA, UZ",2021-07-19,1937-01-01,39.717,226.0,64.617,0.5441,METERS
UZ,GHCND:UZM00038696,"SAMARKAND, UZ",2021-07-19,1936-01-01,39.5667,724.0,66.95,0.9999,METERS
UZ,GHCND:UZM00038812,"KARSHI, UZ",2021-07-19,1966-01-06,38.8,376.0,65.717,0.7646,METERS
BO,GHCND:BL000085041,"COBIJA, BL",2021-07-19,1973-06-19,-11.03,,-68.78,0.877,
BO,GHCND:BL000085141,"RURRENABAQUE, BL",2021-07-19,1973-06-13,-14.47,,-67.57,0.8635,
BO,GHCND:BL000085043,"RIBERALTA, BL",2021-07-19,1973-05-09,-11.0,141.0,-66.117,0.8685,METERS
BO,GHCND:BL000085114,"MAGDALENA, BL",2021-07-19,1973-06-19,-13.333,140.0,-64.117,0.8144,METERS
BO,GHCND:BL000085223,"COCHABAMBA, BL",2021-07-19,1973-01-01,-17.42,,-66.18,0.9856,
BO,GHCND:BL000085364,"TARIJA, BL",2021-07-19,1973-06-13,-21.55,1854.0,-64.7,0.8785,METERS
BO,GHCND:BL000085365,"YACUIBA, BL",2021-07-19,1973-01-29,-21.95,,-63.65,0.8731,
BO,GHCND:BLM00085104,"SAN JOAQUIN, BL",2021-07-19,1973-07-10,-13.067,140.0,-64.667,0.7374,METERS
BO,GHCND:BLM00085123,"SANTA ANA DEL YACUMA, BL",2021-07-19,1987-01-02,-13.762,143.9,-65.435,0.9151,METERS
BO,GHCND:BLM00085151,"APOLO, BL",2021-04-30,1973-06-13,-14.733,1415.0,-68.417,0.2885,METERS
BO,GHCND:BLM00085152,"SAN BORJA CAPT GERM, BL",2021-07-19,1973-06-09,-14.867,194.0,-66.75,0.6633,METERS
BO,GHCND:BLM00085153,"SAN IGNACIO DE MOXO, BL",2021-07-19,1973-07-08,-14.967,241.0,-65.633,0.4747,METERS
BO,GHCND:BLM00085154,"TTE AV JORGE HENRICH ARAUZ, BL",2021-07-19,1973-01-02,-14.819,155.1,-64.918,0.9406,METERS
BO,GHCND:BLM00085175,"ASCENCION GUARAYOS, BL",2021-07-19,1976-02-05,-15.717,247.0,-63.1,0.3639,METERS
BO,GHCND:BLM00085196,"CONCEPCION, BL",2021-07-19,1958-05-01,-16.25,497.0,-62.1,0.5765,METERS
BO,GHCND:BLM00085201,"EL ALTO INTERNATIONAL, BL",2021-07-19,1942-06-01,-16.513,4061.5,-68.192,0.7098,METERS
BO,GHCND:BLM00085207,"SAN IGNACIO VELASCO, BL",2021-06-17,1958-07-04,-16.367,413.0,-60.95,0.5941,METERS
BO,GHCND:BLM00085210,"SAN MATIAS, BL",2021-07-19,1987-05-02,-16.333,124.0,-58.383,0.2978,METERS
BO,GHCND:BLM00085242,"JUAN MENDOZA, BL",2021-07-19,1958-05-01,-17.963,3702.1,-67.076,0.6849,METERS
BO,GHCND:BLM00085244,"VIRU VIRU INTERNATIONAL, BL",2021-07-19,1984-07-06,-17.645,373.4,-63.135,0.9963,METERS
BO,GHCND:BLM00085247,"SAN JOSE, BL",2021-07-01,1958-05-01,-17.833,284.0,-60.75,0.4943,METERS
BO,GHCND:BLM00085264,"VALLEGRANDE, BL",2021-07-19,1989-09-01,-18.467,1998.0,-64.1,0.3297,METERS
BO,GHCND:BLM00085268,"ROBORE CIV MIL, BL",2021-07-19,1958-05-01,-18.317,284.0,-59.75,0.6386,METERS
BO,GHCND:BLM00085293,"CAPITAN NICOLAS ROJAS, BL",2021-07-19,1973-08-18,-19.543,3935.9,-65.724,0.5827,METERS
BO,GHCND:BLM00085315,"CAMIRI, BL",2021-07-19,1973-01-30,-20.05,792.0,-63.567,0.8797,METERS
BO,GHCND:BLM00085345,"TCNL RAFAEL PABON, BL",2021-07-19,1980-05-01,-21.255,398.1,-63.406,0.756,METERS
GS,GHCND:AYW00090001,"AMUNDSEN SCOTT, AY",2021-07-19,1957-01-09,-90.0,,0.0,0.7485,
GS,GHCND:AYM00088968,"BASE ORCADAS, AY",2021-07-19,1957-01-01,-60.733,8.0,-44.733,0.9169,METERS
GS,GHCND:AYM00089002,NEUMAYER,2021-07-19,1981-01-28,-70.667,50.0,-8.25,0.8731,METERS
GS,GHCND:AYM00089022,HALLEY,2021-07-19,1956-06-18,-75.45,30.0,-26.217,0.6231,METERS
GS,GHCND:AYM00089034,"BASE BELGRANO II, AY",2021-07-19,1956-09-01,-77.867,256.0,-34.617,0.5185,METERS
GS,GHCND:SXM00088903,GRYTVIKEN,2021-07-19,1953-01-01,-54.283,3.0,-36.5,0.4901,METERS
BR,GHCND:BR000956000,"ALTA FLORESTA AERO, BR",2021-07-19,1978-07-16,-9.867,289.0,-56.1,0.6872,METERS
BR,GHCND:BLM00085289,"TTE DE AV SALVADOR OGAYA G, BL",2021-07-19,1958-05-01,-18.975,133.8,-57.821,0.5874,METERS
BR,GHCND:BR00E2-0320,"SAO JOSE DOS CAMPOS, BR",2021-07-19,1942-11-01,-23.217,646.0,-45.85,0.6861,METERS
BR,GHCND:BR002351003,"LONDRINA AEROPORTO, BR",2021-07-19,1973-01-01,-23.333,569.0,-51.133,0.9405,METERS
BR,GHCND:BR002548005,"PARANAGUA, BR",2021-07-08,1948-10-16,-25.517,5.0,-48.517,0.3796,METERS
BR,GHCND:BR002549075,"CURITIBA, BR",2021-07-19,1973-02-06,-25.417,932.0,-49.267,0.4689,METERS
BR,GHCND:BR002752004,"CHAPECO, BR",2021-07-19,1957-07-21,-27.117,679.0,-52.617,0.2209,METERS
BR,GHCND:BR002957005,"URUGUAIANA AEROPOR, BR",2021-05-28,1973-01-01,-29.783,78.0,-57.033,0.8073,METERS
BR,GHCND:BR00D6-0010,"BAURU, BR",2021-07-19,1936-01-01,-22.317,617.0,-49.117,0.4823,METERS
BR,GHCND:BR00D8-0390,"PRESIDENTE PRUDENTE, BR",2021-07-19,1944-10-01,-22.117,450.0,-51.383,0.4125,METERS
BR,GHCND:BR00E4-1230,"CAMPINAS AEROPORTO, BR",2021-07-19,1951-01-20,-23.0,661.0,-47.133,0.9681,METERS
BR,GHCND:BR037041370,"TERESINA AEROPORTO, BR",2021-07-19,1956-01-01,-5.05,67.0,-42.817,0.702,METERS
BR,GHCND:BR038837530,"PAULO AFONSO, BR",2021-07-19,1940-10-01,-9.4,269.0,-38.217,0.4294,METERS
BR,GHCND:BR038983570,"MACEIO AEROPORTO, BR",2021-07-19,1912-10-01,-9.517,118.0,-35.783,0.7972,METERS
BR,GHCND:BR039402250,"JOAO PESSOA, BR",2021-07-19,1912-07-01,-7.1,66.0,-34.867,0.5371,METERS
BR,GHCND:BR047635180,"BOM JESUS DA LAPA, BR",2020-11-06,1917-11-01,-13.267,443.0,-43.417,0.6243,METERS
BR,GHCND:BR057324290,"MONTES CLAROS, BR",2021-07-19,1950-09-01,-16.717,668.0,-43.867,0.3408,METERS
BR,GHCND:BRM00082098,"MACAPA, BR",2021-07-19,1973-01-01,0.051,17.1,-51.072,0.8697,METERS
BR,GHCND:BRM00082336,"ITACOATIARA, BR",2020-08-05,1989-11-21,-3.127,43.3,-58.481,0.2469,METERS
BR,GHCND:BRM00082533,"MANICORE, BR",2021-07-14,1974-02-22,-5.811,53.0,-61.278,0.3412,METERS
BR,GHCND:BRM00082562,"MARABA, BR",2021-07-19,1973-01-01,-5.369,108.8,-49.138,0.7551,METERS
BR,GHCND:BRM00083208,"VILHENA, BR",2021-07-19,1973-01-23,-12.694,615.1,-60.098,0.7392,METERS
BR,GHCND:BRM00083587,"TANCREDO NEVES INTERNATIONAL, BR",2021-07-19,1977-06-13,-19.634,827.5,-43.969,0.7265,METERS
BR,GHCND:BRM00083698,"BARTOLOMEU LISANDRO, BR",2021-07-19,1973-01-01,-21.698,17.4,-41.302,0.5678,METERS
BR,GHCND:BRM00083746,"GALEAO ANTONIO CARLOS JOBIM, BR",2021-07-19,1973-01-01,-22.809,8.5,-43.244,0.9973,METERS
BR,GHCND:BRM00083967,"CANOAS, BR",2021-07-19,1977-10-02,-29.946,7.9,-51.144,0.5137,METERS
BR,GHCND:BR000047002,SALINOPOLIS,2021-07-19,1977-12-09,-0.617,14.0,-47.383,0.5246,METERS
BR,GHCND:BR000065001,"TAPURUCUARA, BR",2021-07-18,1973-01-03,-0.417,6.0,-65.0,0.3407,METERS
BR,GHCND:BR000082400,"FERNANDO DE NORONHA, BR",2021-07-19,1943-09-01,-3.85,59.0,-32.417,0.6347,METERS
BR,GHCND:BR000082704,"CRUZEIRO DO SUL, BR",2021-07-19,1974-06-22,-7.633,194.0,-72.667,0.5021,METERS
BR,GHCND:BR000082861,"CONCEICAO DO ARAGUAIA, BR",2021-07-19,1973-11-18,-8.25,,-49.28,0.4685,
BR,GHCND:BR000254000,"SANTAREM AEROPORTO, BR",2021-07-19,1968-05-01,-2.433,60.0,-54.717,0.8996,METERS
BR,GHCND:BR000352000,"ALTAMIRA, BR",2021-07-19,1968-06-05,-3.2,112.0,-52.2,0.3486,METERS
BR,GHCND:BR000747000,"CAROLINA AEROPORTO, BR",2021-07-19,1969-09-20,-7.317,172.0,-47.467,0.4694,METERS
BR,GHCND:PA000086086,"PUERTO CASADO, PA",2021-07-19,1974-12-02,-22.283,87.0,-57.933,0.5133,METERS
BR,GHCND:UYM00086350,"PRESIDENTE GENERAL DON OSCAR, UY",2021-07-19,1976-01-06,-30.975,223.0,-55.476,0.9233,METERS
BR,GHCND:BR00C4-0630,"PIRASSUNUNGA, BR",2021-07-19,1943-05-01,-21.983,600.0,-47.333,0.5201,METERS
BR,GHCND:BR038484280,"CAMPINA GRANDE, BR",2021-07-19,1910-10-01,-7.217,502.0,-35.883,0.572,METERS
BR,GHCND:BRM00082193,"VAL DE CANS INTERNATIONAL, BR",2021-07-19,1942-10-01,-1.379,16.5,-48.476,0.9165,METERS
BR,GHCND:BR00E3-0520,"SAO PAULO AEROPORT, BR",2021-07-19,1940-04-01,-23.617,802.0,-46.65,0.8102,METERS
BR,GHCND:BR027568450,"PARNAIBA AEROPORTO, BR",2021-07-19,1943-05-12,-2.917,5.0,-41.75,0.3305,METERS
TD,GHCND:CD000004750,"SARH, CD",2021-07-19,1950-01-01,9.15,0.0,18.38,0.652,METERS
TD,GHCND:CD000004700,"NDJAMENA, CD",2021-07-19,1950-01-01,12.13,295.0,15.03,0.6753,METERS
TD,GHCND:CD000004758,"MONGO, CD",2021-05-28,1950-01-01,12.18,430.0,18.68,0.4349,METERS
TD,GHCND:CD000064751,"ATI, CD",2021-03-05,1973-04-03,13.217,334.0,18.317,0.136,METERS
TD,GHCND:CD000064753,"FAYA, CD",2021-05-12,1973-02-12,18.0,234.0,19.167,0.2619,METERS
TD,GHCND:CD000064754,"AM TIMAN, CD",2021-05-27,1973-03-03,11.033,436.0,20.283,0.2154,METERS
TD,GHCND:CD000004756,"ABECHE, CD",2021-07-19,1950-01-01,13.85,549.0,20.85,0.547,METERS
TD,GHCND:CD000064706,"MOUNDOU, CD",2021-07-19,1950-08-01,8.567,429.0,16.067,0.6185,METERS
BG,GHCND:BUM00015552,"VARNA, BU",2021-07-19,1952-01-03,43.232,70.1,27.825,0.8434,METERS
BG,GHCND:BUM00015614,"SOFIA, BU",2021-07-19,1952-01-01,42.695,531.0,23.406,0.8693,METERS
BG,GHCND:BUM00015730,"KURDJALI, BU",2021-07-19,1957-06-30,41.65,331.0,25.383,0.8242,METERS
BG,GHCND:BUM00015502,"VIDIN, BU",2021-07-19,1975-09-09,43.983,595.0,22.85,0.5865,METERS
CA,GHCND:CA001021830,"COMOX A, CA",2021-07-19,1944-07-01,49.7167,26.0,-124.9,0.9935,METERS
CA,GHCND:CA001026270,"PORT HARDY A, CA",2021-07-19,1944-02-01,50.6833,22.0,-127.3667,0.9922,METERS
CA,GHCND:CA00107G879,"SUSKWA VALLEY, CA",2021-07-19,1982-10-15,55.2833,534.0,-127.1667,0.9509,METERS
CA,GHCND:CA001090660,"BARKERVILLE, CA",2021-06-30,1888-02-01,53.0667,1283.0,-121.5167,0.9165,METERS
CA,GHCND:CA001096601,"QUESNEL, CA",2021-07-19,1977-07-01,53.0333,545.0,-122.5167,0.9958,METERS
CA,GHCND:CA001096468,"PRINCE GEORGE STP, CA",2021-07-19,1975-11-14,53.8833,579.0,-122.7667,0.977,METERS
CA,GHCND:CA001098D90,"VANDERHOOF, CA",2021-07-19,1980-08-01,54.0333,638.0,-124.0167,0.9707,METERS
CA,GHCND:CA001125079,"MERRITT STP, CA",2021-01-15,1968-08-01,50.1167,609.0,-120.8,0.9656,METERS
CA,GHCND:USS0015A05S,"GARVER CREEK, MT US",2021-07-19,1968-09-30,48.98,1295.4,-115.82,1.0,METERS
CA,GHCND:CA001160899,"BLUE RIVER A, CA",2021-07-19,1969-12-01,52.1333,683.0,-119.2833,0.9779,METERS
CA,GHCND:CA001168520,"VAVENBY, CA",2021-07-19,1913-04-01,51.5833,445.0,-119.7833,0.9836,METERS
CA,GHCND:CA001173210,"GOLDEN A, CA",2021-07-14,1902-04-01,51.3,785.0,-116.9833,0.9641,METERS
CA,GHCND:CA001181508,"CHETWYND A, CA",2021-04-11,1982-10-01,55.6833,610.0,-121.6333,0.9652,METERS
CA,GHCND:CA001192946,"FORT NELSON A, CA",2021-07-19,1942-02-20,58.8333,382.0,-122.6,0.6923,METERS
CA,GHCND:CA002100402,"DAWSON A, CA",2021-07-19,1942-04-02,64.05,370.0,-139.1333,0.6263,METERS
CA,GHCND:CA002100630,"HAINES JUNCTION, CA",2021-07-19,1944-10-06,60.7667,595.0,-137.5833,0.846,METERS
CA,GHCND:CA002100636,HERSCHEL ISLAND,2021-07-18,1974-07-08,69.5667,1.0,-138.9167,0.4506,METERS
CA,GHCND:CA002100950,SHINGLE POINT A,2021-07-19,1957-06-01,68.95,49.0,-137.2167,0.8834,METERS
CA,GHCND:CA002101300,"WHITEHORSE A, CA",2021-07-19,1942-04-01,60.7167,706.0,-135.0667,0.9093,METERS
CA,GHCND:CA002202200,"FORT SMITH A, CA",2021-07-19,1942-04-02,60.0167,205.0,-111.9667,0.9794,METERS
CA,GHCND:CA002202400,"HAY RIVER A, CA",2021-07-19,1943-03-01,60.8333,165.0,-115.7833,0.9865,METERS
CA,GHCND:CA002202570,"INUVIK A, CA",2021-07-19,1957-03-01,68.3,68.0,-133.4833,0.811,METERS
CA,GHCND:CA002202678,"LAC LA MARTRE, CA",2021-07-19,1974-05-28,63.1333,271.0,-117.25,0.4797,METERS
CA,GHCND:CA002202801,"NORMAN WELLS, CA",2021-07-19,1945-01-02,65.2833,73.0,-126.8,0.622,METERS
CA,GHCND:CA002204300,"YOHIN, CA",2021-07-19,1957-06-01,61.25,204.0,-123.75,0.7912,METERS
CA,GHCND:CA002300500,"BAKER LAKE A, CA",2021-07-19,1946-02-18,64.3,19.0,-96.0833,0.9425,METERS
CA,GHCND:CA002300551,"BATHURST INLET, CA",2021-07-18,1957-01-06,66.8333,5.0,-108.0167,0.5701,METERS
CA,GHCND:CA002300902,"KUGLUKTUK A, CA",2021-07-19,1944-08-27,67.8167,23.0,-115.15,0.6241,METERS
CA,GHCND:CA002301000,"CORAL HARBOUR A, CA",2021-07-19,1933-10-01,64.2,62.0,-83.3667,0.8748,METERS
CA,GHCND:CA002301102,"ENNADAI LAKE AUT, CA",2021-07-19,1957-01-06,61.1333,353.0,-100.8833,0.5984,METERS
CA,GHCND:CA002302370,"HAT ISLAND, CA",2021-07-19,1959-01-01,68.3167,36.0,-100.0833,0.4601,METERS
CA,GHCND:CA002303610,"ROBERTSON LAKE AUT, CA",2021-07-19,1980-03-01,65.1,244.0,-102.4333,0.73,METERS
CA,GHCND:CA002303685,"SHEPHERD BAY A, CA",2021-07-19,1957-04-01,68.8167,43.0,-93.4333,0.9179,METERS
CA,GHCND:CA002400565,"BREVOORT ISLAND, CA",2021-07-19,1959-11-01,63.3333,376.0,-64.15,0.69,METERS
CA,GHCND:CA002400570,"FOX FIVE, CA",2021-05-17,1957-09-22,67.5333,584.0,-63.7833,0.878,METERS
CA,GHCND:CA002400600,CAMBRIDGE BAY A,2021-07-19,1929-01-01,69.1,31.0,-105.1333,0.8919,METERS
CA,GHCND:CA002400635,"CAPE DORSET A, CA",2021-07-19,1963-02-11,64.2333,48.0,-76.5333,0.7516,METERS
CA,GHCND:CA002400654,"CAPE DYER A, CA",2021-07-19,1956-03-16,66.5833,393.0,-61.6167,0.6154,METERS
CA,GHCND:CA002400660,"CAPE HOOPER, CA",2021-04-26,1957-01-01,68.4667,390.0,-66.8167,0.8941,METERS
CA,GHCND:CA002401030,"DEWAR LAKES, CA",2021-07-19,1958-02-01,68.65,527.0,-71.1667,0.9123,METERS
CA,GHCND:CA002401200,EUREKA,2021-07-19,1947-05-01,79.9833,10.0,-85.9333,0.9618,METERS
CA,GHCND:CA002402350,"HALL BEACH A, CA",2021-07-19,1957-01-01,68.7833,9.0,-81.25,0.8219,METERS
CA,GHCND:CA002402594,"IQALUIT UA, CA",2021-07-19,1942-03-01,63.75,22.0,-68.55,0.6806,METERS
CA,GHCND:CA002402604,"ISACHSEN AUT, CA",2021-07-19,1948-05-05,78.8,58.0,-103.55,0.4094,METERS
CA,GHCND:CA002402684,"LONGSTAFF BLUFF, CA",2021-06-29,1957-11-06,68.9,161.0,-75.1333,0.7509,METERS
CA,GHCND:CA002403049,PANGNIRTUNG,2021-07-19,1977-07-01,66.15,23.0,-65.7167,0.7313,METERS
CA,GHCND:CA002403206,"POND INLET, CA",2021-07-19,1977-07-02,72.6833,62.0,-77.9667,0.9873,METERS
CA,GHCND:CA002403450,"REA POINT, CA",2021-01-03,1969-05-07,75.3833,15.0,-105.7167,0.5807,METERS
CA,GHCND:CA00301222F,"EDMONTON STONY PLAIN, CA",2021-07-19,1966-02-15,53.55,766.0,-114.1167,0.9904,METERS
CA,GHCND:CA003011240,"CAMROSE, CA",2021-07-19,1946-03-01,53.0333,739.0,-112.8167,0.9571,METERS
CA,GHCND:CA003016GF0,"VEGREVILLE, CA",2021-07-19,1980-11-01,53.5,639.0,-112.1,0.9518,METERS
CA,GHCND:CA003012515,"FABYAN, CA",2021-07-18,1966-08-01,52.9667,698.0,-111.0,0.9831,METERS
CA,GHCND:CA003013961,"LLOYDMINSTER A, CA",2021-07-19,1982-04-01,53.3167,668.0,-110.0667,0.9803,METERS
CA,GHCND:CA003014600,"MONITOR, CA",2021-07-19,1983-04-12,52.0167,732.0,-110.55,0.9383,METERS
CA,GHCND:CA003053600,"KANANASKIS, CA",2021-07-06,1939-08-01,51.0333,1391.0,-115.0333,0.9821,METERS
CA,GHCND:CA003060L20,"ATHABASCA 1, CA",2021-07-19,1986-08-01,54.7167,515.0,-113.2833,0.7939,METERS
CA,GHCND:CA003073140,"HIGH LEVEL, CA",2021-07-19,1977-07-01,58.6167,338.0,-117.1667,0.9732,METERS
CA,GHCND:CA003074182,"MANNING, CA",2021-01-08,1985-07-01,56.95,491.0,-117.65,0.6801,METERS
CA,GHCND:CA003075937,"SIMONETTE, CA",2021-07-19,1973-10-01,54.4167,884.0,-117.7333,0.8435,METERS
CA,GHCND:CA003081680,"COLD LAKE A, CA",2021-07-19,1952-12-01,54.4167,541.0,-110.2833,0.9917,METERS
CA,GHCND:CA004014040,"KIPLING, CA",2021-07-19,1949-05-01,50.2,671.0,-102.7333,0.9906,METERS
CA,GHCND:CA004016322,"QU APPELLE 1, CA",2021-07-13,1976-12-01,50.5667,663.0,-103.9833,0.9831,METERS
CA,GHCND:CA004014156,"LAST MOUNTAIN CS, CA",2021-07-19,1975-05-01,51.4167,497.0,-105.25,0.9693,METERS
CA,GHCND:CA004012400,"ESTEVAN A, CA",2021-07-19,1944-11-14,49.2167,581.0,-102.9667,0.9946,METERS
CA,GHCND:CA004013660,"KELLIHER, CA",2021-07-19,1951-11-01,51.25,676.0,-103.75,0.9771,METERS
CA,GHCND:CA004014322,"LEROY, CA",2021-07-18,1980-06-01,52.0,535.0,-104.6333,0.9706,METERS
CA,GHCND:CA004015800,"OXBOW, CA",2021-07-19,1949-08-01,49.3167,576.0,-102.1167,0.9511,METERS
CA,GHCND:CA004028060,"SWIFT CURRENT CDA, CA",2021-07-19,1959-01-01,50.2667,825.0,-107.7333,0.9919,METERS
CA,GHCND:USC00246236,"OPHEIM 10 N, MT US",2021-05-25,1956-12-01,48.99875,877.8,-106.37991,0.9127,METERS
CA,GHCND:CA004047240,"SCOTT CDA, CA",2021-07-19,1911-05-01,52.3667,660.0,-108.8333,0.9902,METERS
CA,GHCND:CA004047644,"SONNINGDALE, CA",2021-07-13,1984-11-01,52.3167,716.0,-107.7667,0.8552,METERS
CA,GHCND:CA004056240,"PRINCE ALBERT A, CA",2021-07-19,1942-12-01,53.2167,428.0,-105.6667,0.9938,METERS
CA,GHCND:CA004060983,"BUFFALO NARROWS AUT, CA",2021-07-19,1977-07-01,55.8333,440.0,-108.4167,0.9508,METERS
CA,GHCND:CA004061570,"CIGAR LAKE, CA",2021-07-19,1987-06-01,58.0833,467.0,-104.4833,0.9677,METERS
CA,GHCND:CA004068340,"URANIUM CITY A, CA",2021-07-19,1953-01-01,59.5667,318.0,-108.4833,0.7483,METERS
CA,GHCND:CA004083321,"HUDSON BAY A, CA",2021-07-19,1943-03-19,52.8167,358.0,-102.3167,0.5874,METERS
CA,GHCND:CA005021695,"MARQUETTE, CA",2021-07-19,1969-11-01,50.0167,244.0,-97.8,0.9759,METERS
CA,GHCND:CA005010QFQ,"ELKHORN 2 EAST, CA",2021-07-19,1987-07-01,49.9333,498.0,-101.2,0.9611,METERS
CA,GHCND:CA005043158,"MCCREARY, CA",2021-07-18,1971-05-14,50.7167,351.0,-99.5333,0.9787,METERS
CA,GHCND:CA00501BMMA,"RIVERS PETTAPIECE, CA",2021-07-19,1987-07-01,50.1,488.0,-100.1833,0.9733,METERS
CA,GHCND:CA00501KE01,"ROSSBURN 4 NORTH, CA",2021-07-19,1986-09-01,50.75,610.0,-100.8167,0.9563,METERS
CA,GHCND:CA005022623,"SCHANZENFELD, CA",2021-07-19,1991-03-01,49.1333,277.0,-97.95,0.9669,METERS
CA,GHCND:CA005030203,"BERENS RIVER CS, CA",2021-07-19,1985-07-01,52.3667,222.0,-97.0167,0.9435,METERS
CA,GHCND:CA005040FJ3,"COWAN, CA",2021-07-16,1984-06-01,52.0333,366.0,-100.65,0.9465,METERS
CA,GHCND:CA005041685,"MAFEKING, CA",2021-07-11,1983-12-01,52.6667,325.0,-101.1,0.9485,METERS
CA,GHCND:CA005050920,"FLIN FLON, CA",2021-07-07,1927-01-20,54.7667,320.0,-101.8833,0.9727,METERS
CA,GHCND:CA005052880,"THE PAS A, CA",2021-07-19,1942-12-29,53.9667,270.0,-101.1,0.9928,METERS
CA,GHCND:CA005061648,"LYNN LAKE, CA",2021-07-19,1977-07-01,56.8667,357.0,-101.0833,0.9648,METERS
CA,GHCND:CA005062922,"THOMPSON A, CA",2021-07-19,1967-04-01,55.8,223.0,-97.8667,0.9899,METERS
CA,GHCND:CA006016295,PEAWANUCK AUT,2021-07-19,1981-10-11,54.9833,53.0,-85.4333,0.9023,METERS
CA,GHCND:CA006016525,"PICKLE LAKE AUT, CA",2021-07-19,1930-07-01,51.45,391.0,-90.2167,0.6802,METERS
CA,GHCND:CA006100971,"BROCKVILLE PCC, CA",2021-07-19,1965-08-01,44.6,96.0,-75.6667,0.9875,METERS
CA,GHCND:CA006135583,"NEW GLASGOW, CA",2021-07-19,1957-07-01,42.5167,198.0,-81.6333,0.9839,METERS
CA,GHCND:CA006134190,"KINGSVILLE MOE, CA",2021-07-19,1960-10-01,42.05,200.0,-82.6667,0.975,METERS
CA,GHCND:CA006136606,"PORT COLBORNE, CA",2021-07-18,1964-07-01,42.8833,175.0,-79.25,0.9617,METERS
CA,GHCND:CA002403500,"RESOLUTE CARS, CA",2021-07-19,1947-10-01,74.7167,68.0,-94.9667,0.9883,METERS
CA,GHCND:CA007036855,"STE ANNE DU LAC, CA",2021-05-31,1963-06-01,46.85,262.0,-75.3333,0.9358,METERS
CA,GHCND:CA007041100,CAPE WHITTLE,2021-06-09,1963-09-01,50.1667,7.0,-60.0667,0.4094,METERS
CA,GHCND:CA007044288,LES BUISSONS,2021-05-31,1973-06-01,49.1167,15.0,-68.3833,0.7289,METERS
CA,GHCND:CA007047910,"SEPT ILES A, CA",2021-07-19,1944-09-01,50.2167,55.0,-66.2667,0.7493,METERS
CA,GHCND:CA00704FEG0,"RIVIERE AU TONNERRE, CA",2021-05-31,1965-11-01,50.2833,15.0,-64.7833,0.9412,METERS
CA,GHCND:CA007053649,"LAC HUMQUI, CA",2021-04-30,1972-12-01,48.2833,236.0,-67.5667,0.9594,METERS
CA,GHCND:CA007060400,"BAGOTVILLE A, CA",2021-07-19,1942-09-01,48.3333,159.0,-71.0,0.982,METERS
CA,GHCND:CA007067658,"ST PRIME, CA",2021-05-31,1980-11-13,48.6167,122.0,-72.4167,0.9521,METERS
CA,GHCND:CA007075800,"PARENT, CA",2021-07-19,1943-07-01,47.9167,445.0,-74.6167,0.7042,METERS
CA,GHCND:CA007085106,"MONT BRUN, CA",2021-05-31,1980-05-29,48.4167,305.0,-78.7333,0.9544,METERS
CA,GHCND:CA007091404,"CHIBOUGAMAU CHAPAIS A, CA",2021-07-19,1977-07-01,49.7667,387.0,-74.5333,0.9638,METERS
CA,GHCND:CA007093716,"LA GRANDE RIVIERE A, CA",2021-07-19,1977-07-01,53.6333,195.0,-77.7,0.9331,METERS
CA,GHCND:CA007093GJ5,"LA GRANDE IV, CA",2021-07-19,1985-12-06,53.75,306.0,-73.6833,0.9617,METERS
CA,GHCND:CA007098600,"VAL D OR A, CA",2021-04-06,1951-07-01,48.05,337.0,-77.7833,0.8957,METERS
CA,GHCND:CA007113534,"KUUJJUAQ A, CA",2021-07-19,1941-11-05,58.1,40.0,-68.4167,0.9241,METERS
CA,GHCND:CA007117827,"SCHEFFERVILLE A, CA",2021-07-19,1957-01-06,54.8,517.0,-66.8,0.7029,METERS
CA,GHCND:CA008103050,MISCOU ISLAND AUT,2021-07-19,1957-11-15,48.0167,4.0,-64.5,0.624,METERS
CA,GHCND:CA008102536,"MACTAQUAC PROV PARK, CA",2021-07-11,1973-12-01,45.95,110.0,-66.9,0.8407,METERS
CA,GHCND:CA008202000,"GREENWOOD A, CA",2021-07-19,1942-11-01,44.9833,28.0,-64.9167,0.992,METERS
CA,GHCND:CA008206240,WESTERN HEAD,2021-07-19,1959-08-17,43.9833,10.0,-64.6667,0.6668,METERS
CA,GHCND:CA008206495,"YARMOUTH A, CA",2021-07-19,1949-01-01,43.8333,43.0,-66.0833,0.6688,METERS
CA,GHCND:CA008300300,"CHARLOTTETOWN A, CA",2021-07-19,1943-04-01,46.2833,49.0,-63.1333,0.9805,METERS
CA,GHCND:CA008400301,"BADGER AUT, CA",2021-07-19,1973-01-01,48.9667,103.0,-56.0667,0.487,METERS
CA,GHCND:CA008400812,"BURNT POND, CA",2021-07-19,1972-07-01,48.1667,299.0,-57.3333,0.7325,METERS
CA,GHCND:CA008401000,"CAPE RACE AUT, CA",2021-07-19,1920-10-26,46.6667,27.0,-53.0833,0.6694,METERS
CA,GHCND:CA008401300,"CORNER BROOK, CA",2021-07-19,1933-04-01,48.95,5.0,-57.95,0.9768,METERS
CA,GHCND:CA008402071,"HARBOUR BRETON, CA",2021-02-28,1983-10-01,47.4667,30.0,-55.8333,0.9418,METERS
CA,GHCND:CA008403690,SOPS ARM WHITE BAY,2021-03-31,1979-11-01,49.7667,17.0,-56.8833,0.9604,METERS
CA,GHCND:CA008402544,"LETHBRIDGE, CA",2021-07-19,1954-01-01,48.35,15.0,-53.9,0.6104,METERS
CA,GHCND:CA008403619,"ST LAWRENCE, CA",2021-07-19,1977-07-01,46.9167,49.0,-55.3833,0.7013,METERS
CA,GHCND:CA008403800,STEPHENVILLE A,2021-07-19,1942-02-05,48.5333,25.0,-58.55,0.9886,METERS
CA,GHCND:CA008501100,CARTWRIGHT,2021-07-19,1934-11-01,53.7167,14.0,-57.0333,0.982,METERS
CA,GHCND:CA008502400,HOPEDALE AUT,2021-07-19,1942-01-01,55.45,12.0,-60.2167,0.833,METERS
CA,GHCND:CA008503249,SAGLEK,2021-07-19,1989-04-01,58.3333,501.0,-62.5833,0.7053,METERS
CA,GHCND:GLW00017605,"PITUFFIK, GL",2021-07-19,1951-10-26,76.51667,77.1,-68.83333,0.6587,METERS
CA,GHCND:CA001060080,ADDENBROKE ISLAND,2021-07-19,1978-01-01,51.6,21.0,-127.8667,0.9754,METERS
CA,GHCND:CA001062544,"DRYAD POINT, CA",2021-07-19,1977-11-25,52.1833,4.0,-128.1167,0.9833,METERS
CA,GHCND:CA001060902,BONILLA ISLAND,2021-07-19,1960-04-07,53.5,16.0,-130.6333,0.9847,METERS
CA,GHCND:CA001063298,GREEN ISLAND,2021-07-12,1978-10-01,54.5667,12.0,-130.7,0.9748,METERS
CA,GHCND:CA001064020,"KEMANO, CA",2021-07-19,1951-08-26,53.5667,87.0,-127.95,0.9215,METERS
CA,GHCND:CA001068131,"TERRACE PCC, CA",2021-07-19,1968-04-09,54.5,58.0,-128.6167,0.9764,METERS
CA,GHCND:CA001154410,"KOOTENAY NATIONAL PARK WEST GATE, CA",2021-07-19,1968-11-01,50.6333,930.0,-116.0667,0.9377,METERS
CA,GHCND:CA002202115,"FORT SIMPSON, CA",2021-07-19,1942-04-02,61.7667,169.0,-121.2333,0.74,METERS
CA,GHCND:CA002400804,"CLYDE RIVER, CA",2021-07-19,1977-07-01,70.4833,27.0,-68.5167,0.9513,METERS
CA,GHCND:CA002403625,"ROWLEY ISLAND, CA",2021-07-19,1957-11-01,69.0833,41.0,-79.0333,0.5679,METERS
CA,GHCND:CA003030QLP,"BROOKS, CA",2021-07-19,1988-12-01,50.55,747.0,-111.85,0.8664,METERS
CA,GHCND:CA003031640,"CLARESHOLM, CA",2021-07-19,1951-08-01,50.0,1009.0,-113.6333,0.4804,METERS
CA,GHCND:CA003033890,"LETHBRIDGE CDA, CA",2021-07-19,1908-02-01,49.7,910.0,-112.7667,0.9419,METERS
CA,GHCND:CA003035340,"QUEENSTOWN, CA",2021-07-17,1961-08-01,50.6,940.0,-112.9833,0.9853,METERS
CA,GHCND:CA00303M9JM,"OKOTOKS, CA",2021-07-19,1990-05-01,50.7333,1081.0,-113.9667,0.9839,METERS
CA,GHCND:CA003044203,"MANYBERRIES AGCM, CA",2021-07-19,1957-01-06,49.3667,927.0,-110.6833,0.6303,METERS
CA,GHCND:CA006036904,"RAWSON LAKE, CA",2021-04-30,1969-06-01,49.65,358.0,-93.7167,0.9245,METERS
CA,GHCND:CA006037775,"SIOUX LOOKOUT A, CA",2021-07-19,1938-08-01,50.1167,383.0,-91.9,0.9689,METERS
CA,GHCND:CA006040325,"ARMSTRONG AUT, CA",2021-07-18,1938-08-01,50.3,323.0,-88.9,0.8106,METERS
CA,GHCND:CA006042716,"GERALDTON A, CA",2021-07-19,1981-08-01,49.7833,348.0,-86.9333,0.9962,METERS
CA,GHCND:CA006049095,"UPSALA AUT, CA",2021-07-19,1973-01-01,49.0333,489.0,-90.4667,0.7497,METERS
CA,GHCND:CA006049443,"WELCOME ISLAND AUT, CA",2021-07-19,1967-05-01,48.3667,211.0,-89.1167,0.5542,METERS
CA,GHCND:CA006065006,"MASSEY, CA",2021-07-19,1983-06-01,46.2,200.0,-82.0167,0.9401,METERS
CA,GHCND:CA006068145,"SUDBURY CLIMATE, CA",2021-07-19,1977-07-01,46.6333,348.0,-80.8,0.992,METERS
CA,GHCND:CA006163171,"HALIBURTON 3, CA",2021-07-19,1987-09-01,45.0333,330.0,-78.5333,0.967,METERS
CA,GHCND:CA007051055,CAP DES ROSIERS,2021-05-31,1973-10-01,48.85,15.0,-64.2,0.9412,METERS
CA,GHCND:USC00171430,"CHURCHILL DAM, ME US",2021-07-20,1988-03-01,46.4925,284.7,-69.2863,0.2861,METERS
CA,GHCND:USC00202094,"DETOUR VILLAGE, MI US",2021-07-20,1900-08-01,45.9983,181.4,-83.9013,0.7386,METERS
CA,GHCND:USC00502607,"EAGLE, AK US",2021-07-20,1901-11-01,64.7856,259.1,-141.2036,0.7885,METERS
CA,GHCND:USC00503821,"HYDER, US",2021-07-20,1936-10-01,55.9158,24.4,-130.02592,0.2295,METERS
CA,GHCND:USR0000ASAL,"SALMON TROUT ALASKA, AK US",2021-07-20,1988-07-01,66.8125,673.6,-141.62,0.7633,METERS
CA,GHCND:USS0013A27S,"MANY GLACIER, MT US",2021-07-19,1976-09-30,48.8,1493.5,-113.67,1.0,METERS
CA,GHCND:USS0020A05S,"HARTS PASS, WA US",2021-07-19,1980-09-26,48.72,1978.2,-120.66,0.9508,METERS
CA,GHCND:USW00025339,"YAKUTAT AIRPORT, AK US",2021-07-20,1917-04-01,59.512,10.1,-139.6712,0.9479,METERS
CA,GHCND:CA003060903,"BRULE BLACK CAT, CA",2021-07-18,1985-07-01,53.35,1036.0,-117.8667,0.9179,METERS
CA,GHCND:CA00501B4G2,"ROBLIN FRIESEN 3 NORTHWEST, CA",2021-07-12,1991-03-01,51.2667,556.0,-101.4,0.9413,METERS
CA,GHCND:CA005022575,"ST LABRE, CA",2021-07-19,1981-09-01,49.35,352.0,-96.0333,0.9123,METERS
CA,GHCND:CA007061541,"CHUTE DES PASSES, CA",2021-07-19,1960-03-01,49.8333,398.0,-71.1667,0.5755,METERS
CA,GHCND:USW00014918,"INTERNATIONAL FALLS INTERNATIONAL AIRPORT, MN US",2021-07-20,1906-07-01,48.5614,360.6,-93.3981,0.7929,METERS
CA,GHCND:CA002200675,"CAPE PARRY A, CA",2021-07-19,1957-05-01,70.1667,87.0,-124.7167,0.9259,METERS
CA,GHCND:CA002403602,"RESOLUTION ISLAND, CA",2021-07-19,1962-03-12,61.6,369.0,-64.6333,0.5892,METERS
CA,GHCND:CA005032360,"RENNIE, CA",2021-07-09,1948-06-01,49.85,323.0,-95.5333,0.4763,METERS
CA,GHCND:CA006073975,"KAPUSKASING A, CA",2021-07-19,1937-04-01,49.4167,227.0,-82.4667,0.9882,METERS
CA,GHCND:CA006075425,"MOOSONEE UA, CA",2021-03-31,1932-10-20,51.2667,10.0,-80.65,0.9288,METERS
CA,GHCND:CA006075543,"NAGAGAMI AUT, CA",2021-07-19,1982-01-01,49.75,264.0,-84.1667,0.9515,METERS
CA,GHCND:CA006085700,"NORTH BAY A, CA",2021-07-19,1939-01-01,46.3667,370.0,-79.4167,0.9916,METERS
CA,GHCND:CA006101335,"CHALK RIVER AECL, CA",2021-06-21,1960-11-01,46.05,122.0,-77.3667,0.897,METERS
CA,GHCND:CA008401703,"GANDER INTERNATIONAL A, CA",2021-07-19,1941-06-30,48.9333,151.0,-54.5667,0.6371,METERS
CA,GHCND:CA008501900,"GOOSE A, CA",2021-07-19,1941-12-01,53.3167,49.0,-60.4167,0.997,METERS
CA,GHCND:USC00213296,"GRAND PORTAGE RANGER STATION, MN US",2021-07-19,1895-01-10,47.9711,222.5,-89.6908,0.3832,METERS
CN,GHCND:CHM00058834,"NANPING, CH",2021-07-19,1951-01-01,26.633,128.0,118.0,0.999,METERS
CN,GHCND:CHM00059758,"HAIKOU, CH",2021-06-02,1951-01-01,20.0,24.0,110.25,0.9526,METERS
CN,GHCND:CHM00059838,DONGFANG,2021-07-19,1952-01-01,19.1,8.0,108.617,0.9997,METERS
CN,GHCND:CHM00053698,"SHIJIAZHUANG, CH",2021-07-19,1955-01-01,38.033,81.0,114.417,0.9998,METERS
CN,GHCND:CHM00053772,"TAIYUAN, CH",2021-07-19,1951-01-01,37.783,779.0,112.55,0.9996,METERS
CN,GHCND:CHM00053845,"YAN AN, CH",2021-07-19,1951-01-01,36.6,959.0,109.5,0.9998,METERS
CN,GHCND:CHM00053915,"PINGLIANG, CH",2021-07-19,1951-01-01,35.55,1348.0,106.667,0.9998,METERS
CN,GHCND:CHM00053959,"YUNCHENG, CH",2021-07-19,1956-01-01,35.05,365.0,111.05,0.9997,METERS
CN,GHCND:CHM00054012,"XI UJIMQIN QI, CH",2021-07-19,1954-01-01,44.583,997.0,117.6,0.9998,METERS
CN,GHCND:CHM00054026,"JARUD QI, CH",2021-07-19,1952-01-01,44.567,266.0,120.9,0.9998,METERS
CN,GHCND:CHM00054027,"LINDONG, CH",2021-07-19,1953-01-01,43.983,485.0,119.4,0.9997,METERS
CN,GHCND:CHM00054094,"MUDANJIANG, CH",2021-07-19,1951-01-01,44.567,242.0,129.6,0.9998,METERS
CN,GHCND:CHM00054096,"SUIFENHE, CH",2021-07-19,1952-01-01,44.383,498.0,131.15,0.9996,METERS
CN,GHCND:CHM00054115,"LINXI, CH",2021-07-19,1952-01-01,43.6,800.0,118.067,0.9992,METERS
CN,GHCND:CHM00054135,"TONGLIAO, CH",2021-07-19,1951-01-01,43.6,180.0,122.267,0.9998,METERS
CN,GHCND:CHM00054157,"SIPING, CH",2021-07-19,1951-01-01,43.183,167.0,124.333,0.9997,METERS
CN,GHCND:CHM00054161,"CHANGCHUN, CH",2021-07-19,1951-01-01,43.9,238.0,125.217,0.9998,METERS
CN,GHCND:CHM00054208,"DUOLUN, CH",2021-07-19,1952-01-01,42.183,1247.0,116.467,0.9997,METERS
CN,GHCND:CHM00054218,"CHIFENG, CH",2021-07-19,1951-01-01,42.3,567.0,118.833,0.9988,METERS
CN,GHCND:CHM00054236,"ZHANGWU, CH",2021-07-19,1952-01-01,42.417,84.0,122.533,0.9994,METERS
CN,GHCND:CHM00054292,"YANJI, CH",2021-07-19,1953-01-01,42.867,178.0,129.5,0.9998,METERS
CN,GHCND:CHM00054324,"CHAOYANG, CH",2021-07-19,1952-01-01,41.55,176.0,120.45,0.9996,METERS
CN,GHCND:CHM00054342,"SHENYANG, CH",2021-07-19,1951-01-01,41.733,43.0,123.517,0.9998,METERS
CN,GHCND:CHM00054374,"LINJIANG, KN",2021-07-19,1953-01-01,41.717,333.0,126.917,0.9998,METERS
CN,GHCND:CHM00054405,"HUAILAI, CH",2021-07-19,1954-01-01,40.417,538.0,115.5,0.9997,METERS
CN,GHCND:CHM00054423,"CHENGDE, CH",2021-07-19,1951-01-01,40.967,423.0,117.917,0.9998,METERS
CN,GHCND:CHM00054471,"YINGKOU, CH",2021-07-19,1951-01-01,40.667,4.0,122.2,0.9998,METERS
CN,GHCND:CHM00054497,DANDONG,2021-07-19,1951-01-01,40.05,14.0,124.333,0.9998,METERS
CN,GHCND:CHM00054511,"BEIJING, CH",2021-07-19,1945-10-31,39.933,55.0,116.283,0.9498,METERS
CN,GHCND:CHM00054662,"DALIAN, CH",2021-07-19,1951-01-01,38.9,97.0,121.633,0.9998,METERS
CN,GHCND:CHM00054725,"HUIMIN, CH",2021-07-19,1951-01-01,37.5,12.0,117.533,0.9997,METERS
CN,GHCND:CHM00054776,"CHENGSHANTOU, CH",2021-07-19,1952-01-01,37.4,47.0,122.683,0.9935,METERS
CN,GHCND:CHM00054823,"JINAN, CH",2021-07-19,1951-01-01,36.6,169.0,117.05,0.9998,METERS
CN,GHCND:CHM00054843,"WEIFANG, CH",2021-07-19,1951-01-01,36.767,22.0,119.183,0.9998,METERS
CN,GHCND:CHM00054857,"QINGDAO, CH",2021-07-19,1956-08-20,36.067,77.0,120.333,0.8763,METERS
CN,GHCND:CHM00054916,"YANZHOU, CH",2021-07-19,1951-01-01,35.567,53.0,116.85,0.9997,METERS
CN,GHCND:CHM00055228,"SHIQUANHE, CH",2021-07-19,1962-01-04,32.5,4280.0,80.083,0.7979,METERS
CN,GHCND:CHM00055279,"BAINGOIN, CH",2021-07-19,1956-10-01,31.367,4701.0,90.017,0.972,METERS
CN,GHCND:CHM00055299,"NAGQU, CH",2021-07-19,1954-07-01,31.483,4508.0,92.067,0.8879,METERS
CN,GHCND:CHM00055472,"XAINZA, CH",2021-07-19,1973-01-01,30.95,4670.0,88.633,0.9776,METERS
CN,GHCND:CHM00055578,"XIGAZE, CH",2021-07-19,1955-12-01,29.25,3837.0,88.883,0.9159,METERS
CN,GHCND:CHM00056004,"TUOTUOHE, CH",2021-07-19,1956-01-01,34.217,4535.0,92.433,0.9997,METERS
CN,GHCND:CHM00056021,"QUMARLEB, CH",2021-07-19,1956-01-01,34.133,4176.0,95.783,0.9996,METERS
CN,GHCND:CHM00056029,"YUSHU, CH",2021-07-19,1951-01-01,33.0,3717.0,96.967,0.996,METERS
CN,GHCND:CHM00056033,"MADOI, CH",2021-07-19,1953-01-01,34.917,4273.0,98.217,0.9997,METERS
CN,GHCND:CHM00056046,"DARLAG, CH",2021-07-19,1956-01-01,33.75,3968.0,99.65,0.9996,METERS
CN,GHCND:CHM00056079,"RUO ERGAI, CH",2021-07-19,1962-01-01,33.583,3441.0,102.967,0.8399,METERS
CN,GHCND:CHM00056080,"HEZUO, CH",2021-07-19,1957-01-01,35.0,2910.0,102.9,0.9994,METERS
CN,GHCND:CHM00056096,"WUDU, CH",2021-07-19,1951-01-01,33.4,1079.0,104.917,0.999,METERS
CN,GHCND:CHM00056116,"DENGQEN, CH",2021-07-19,1954-01-01,31.417,3874.0,95.6,0.8485,METERS
CN,GHCND:CHM00056172,"BARKAM, CH",2021-07-19,1953-01-01,31.9,2666.0,102.233,0.9997,METERS
CN,GHCND:CHM00056182,"SONGPAN, CH",2021-07-19,1951-01-01,32.65,2852.0,103.567,0.9997,METERS
CN,GHCND:CHM00056257,"LITANG, CH",2021-07-19,1952-01-01,30.0,3950.0,100.267,0.9981,METERS
CN,GHCND:CHM00056294,"CHENGDU, CH",2021-07-19,1951-01-01,30.667,508.0,104.017,0.9995,METERS
CN,GHCND:CHM00056444,"DEQEN, CH",2021-07-19,1953-01-01,28.45,3320.0,98.883,0.9992,METERS
CN,GHCND:CHM00056462,"JIULONG, CH",2021-06-30,1952-01-01,29.0,2994.0,101.5,0.9822,METERS
CN,GHCND:CHM00056492,"YIBIN, CH",2021-07-19,1944-04-01,28.8,342.0,104.6,0.9291,METERS
CN,GHCND:CHM00056571,"XICHANG, CH",2021-07-19,1944-03-30,27.9,1599.0,102.267,0.9272,METERS
CN,GHCND:CHM00056651,"LIJING, CH",2021-07-19,1944-01-31,26.833,2394.0,100.467,0.9286,METERS
CN,GHCND:CHM00056671,"HUILI, CH",2021-07-19,1952-01-01,26.65,1788.0,102.25,0.9997,METERS
CN,GHCND:CHM00056739,"TENGCHONG, CH",2021-07-19,1951-01-01,25.117,1649.0,98.483,0.9998,METERS
CN,GHCND:CHM00056768,"CHUXIONG, CH",2021-07-19,1944-02-01,25.017,1820.0,101.517,0.9296,METERS
CN,GHCND:CHM00056778,"KUNMING, CH",2021-07-19,1942-07-13,25.017,1892.0,102.683,0.956,METERS
CN,GHCND:CHM00056954,"LANCANG, CH",2021-07-19,1954-01-01,22.567,1054.0,99.933,0.9998,METERS
CN,GHCND:CHM00056964,"SIMAO, CH",2021-07-19,1944-05-17,22.767,1303.0,100.983,0.9293,METERS
CN,GHCND:CHM00056985,"MENGZI, CH",2021-07-19,1945-03-01,23.383,1302.0,103.383,0.9311,METERS
CN,GHCND:CHM00057036,"XIAN, CH",2021-07-19,1951-01-01,34.3,479.0,108.933,0.9999,METERS
CN,GHCND:CHM00057067,"LUSHI, CH",2021-07-19,1952-01-01,34.05,570.0,111.033,0.9998,METERS
CN,GHCND:CHM00057083,"ZHENGZHOU, CH",2021-07-19,1951-01-01,34.717,111.0,113.65,0.9999,METERS
CN,GHCND:CHM00057127,"HANZHONG, CH",2021-07-19,1951-01-01,33.067,509.0,107.033,0.9992,METERS
CN,GHCND:CHM00057297,"XINYANG, CH",2021-07-19,1951-01-01,32.133,115.0,114.05,0.9999,METERS
CN,GHCND:CHM00057411,"NANCHONG, CH",2021-07-19,1951-01-09,30.8,310.0,106.083,0.9991,METERS
CN,GHCND:CHM00057447,"ENSHI, CH",2021-07-19,1945-03-31,30.283,458.0,109.467,0.9145,METERS
CN,GHCND:CHM00057461,"YICHANG, CH",2021-07-19,1951-01-01,30.7,134.0,111.3,0.9904,METERS
CN,GHCND:CHM00057494,"WUHAN, CH",2021-07-19,1951-01-01,30.6,34.0,114.05,0.9999,METERS
CN,GHCND:CHM00057633,"YOUYANG, CH",2021-07-19,1951-01-01,28.833,665.0,108.767,0.9993,METERS
CN,GHCND:CHM00057662,"CHANGDE, CH",2021-07-19,1951-01-01,29.05,35.0,111.683,0.9998,METERS
CN,GHCND:CHM00057687,"CHANGSHA, CH",2021-07-19,1944-02-15,28.233,68.0,112.867,0.4495,METERS
CN,GHCND:CHM00057707,"BIJIE, CH",2021-07-19,1951-01-01,27.3,1511.0,105.233,0.9997,METERS
CN,GHCND:CHM00057799,"JIAN, CH",2021-07-19,1951-01-01,27.117,78.0,114.967,0.9977,METERS
CN,GHCND:CHM00057816,"GUIYANG, CH",2021-07-19,1945-02-04,26.583,1223.0,106.733,0.9246,METERS
CN,GHCND:CHM00057866,"LINGLING, CH",2021-07-19,1943-06-01,26.233,174.0,111.617,0.916,METERS
CN,GHCND:CHM00057902,"XINGREN, CH",2021-07-19,1951-01-01,25.433,1379.0,105.183,0.9998,METERS
CN,GHCND:CHM00057957,"GUILIN, CH",2021-07-19,1943-06-07,25.333,174.0,110.3,0.9187,METERS
CN,GHCND:CHM00057993,"GANZHOU, CH",2021-07-19,1944-12-02,25.867,138.0,115.0,0.9224,METERS
CN,GHCND:CHM00058027,"XUZHOU, CH",2021-07-19,1956-08-20,34.283,42.0,117.15,0.9989,METERS
CN,GHCND:CHM00058040,"GANYU, CH",2021-07-19,1957-01-01,34.85,10.0,119.133,0.9998,METERS
CN,GHCND:CHM00058221,"BENGBU, CH",2021-07-19,1951-01-01,32.95,22.0,117.367,0.9665,METERS
CN,GHCND:CHM00058238,"NANJING, CH",2021-07-19,1951-01-01,31.933,15.0,118.9,0.9999,METERS
CN,GHCND:CHM00058251,"DONGTAI, CH",2021-07-19,1953-01-01,32.85,5.0,120.283,0.9998,METERS
CN,GHCND:CHM00058314,"HUOSHAN, CH",2021-07-19,1954-01-01,31.4,68.0,116.333,0.999,METERS
CN,GHCND:CHM00058367,"SHANGHAI HONGQIAO, CH",2021-07-19,1951-01-01,31.167,7.0,121.433,0.9998,METERS
CN,GHCND:CHM00058424,"ANQING, CH",2021-07-19,1951-01-01,30.533,20.0,117.05,0.9998,METERS
CN,GHCND:CHM00058457,"HANGZHOU, CH",2021-07-19,1951-01-01,30.233,43.0,120.167,0.9999,METERS
CN,GHCND:CHM00058477,"DINGHAI, CH",2021-07-19,1955-01-01,30.033,37.0,122.117,0.9998,METERS
CN,GHCND:CHM00058606,"NANCHANG, CH",2021-07-19,1951-01-01,28.6,50.0,115.917,0.9881,METERS
CN,GHCND:CHM00058633,"QU XIAN, CH",2021-07-19,1951-01-01,28.967,71.0,118.867,0.9998,METERS
CN,GHCND:CHM00058666,DACHEN DAO,2021-07-19,1959-11-13,28.45,84.0,121.883,0.8455,METERS
CN,GHCND:CHM00058715,"NANCHENG, CH",2021-07-19,1952-01-01,27.583,82.0,116.65,0.9996,METERS
CN,GHCND:CHM00058921,"YONGAN, CH",2021-07-19,1951-01-01,25.967,204.0,117.35,0.9699,METERS
CN,GHCND:CHM00059023,"HECHI, CH",2021-07-19,1955-01-01,24.7,214.0,108.05,0.9991,METERS
CN,GHCND:CHM00059082,"SHAOGUAN, CH",2021-07-19,1951-01-01,24.667,68.0,113.6,0.9998,METERS
CN,GHCND:CHM00059134,"XIAMEN, CH",2021-07-19,1954-01-01,24.483,18.0,118.083,0.9999,METERS
CN,GHCND:CHM00059254,"GUIPING, CH",2021-07-19,1953-01-01,23.4,44.0,110.083,0.9998,METERS
CN,GHCND:CHM00059265,"WUZHOU, CH",2021-07-19,1951-01-01,23.483,120.0,111.3,0.9951,METERS
CN,GHCND:CHM00059287,"GUANGZHOU, CH",2021-07-19,1945-11-30,23.217,71.0,113.483,0.946,METERS
CN,GHCND:CHM00059293,"HEYUAN, CH",2021-07-19,1952-01-01,23.8,41.0,114.733,0.9995,METERS
CN,GHCND:CHM00059316,"SHANTOU, CH",2021-07-19,1951-01-01,23.4,3.0,116.683,0.8873,METERS
CN,GHCND:CHM00059417,"LONGZHOU, CH",2021-07-19,1953-01-01,22.367,129.0,106.75,0.9998,METERS
CN,GHCND:CHM00059431,"NANNING, CH",2021-07-19,1944-01-15,22.633,126.0,108.217,0.923,METERS
CN,GHCND:CHM00059501,"SHANWEI, CH",2021-07-19,1952-01-01,22.783,5.0,115.367,0.9997,METERS
CN,GHCND:CHM00059632,"QINZHOU, CH",2021-07-19,1952-01-01,21.95,6.0,108.617,0.9997,METERS
CN,GHCND:CHM00059663,"YANGJIANG, CH",2021-07-19,1952-01-01,21.867,22.0,111.967,0.9998,METERS
CN,GHCND:CHM00050353,"HUMA, CH",2021-07-19,1954-01-01,51.717,179.0,126.65,0.9998,METERS
CN,GHCND:CHM00050434,"TULIHE, CH",2021-07-19,1957-01-01,50.45,733.0,121.7,0.9997,METERS
CN,GHCND:CHM00050527,"HAILAR, CH",2021-06-02,1951-01-01,49.25,650.0,119.7,0.9535,METERS
CN,GHCND:CHM00050557,"NENJIANG, CH",2021-07-19,1951-01-01,49.167,243.0,125.233,0.9998,METERS
CN,GHCND:CHM00050564,"SUNWU, CH",2021-07-19,1954-01-01,49.433,235.0,127.35,0.9997,METERS
CN,GHCND:CHM00050632,"BUGT, CH",2021-07-19,1951-01-01,48.767,739.0,121.917,0.9949,METERS
CN,GHCND:CHM00050727,"ARXAN, CH",2021-07-19,1952-01-01,47.167,997.0,119.933,0.9997,METERS
CN,GHCND:CHM00050745,"QIQIHAR, CH",2021-07-19,1951-01-01,47.383,148.0,123.917,0.9998,METERS
CN,GHCND:CHM00050756,"HAILUN, CH",2021-07-19,1952-01-01,47.433,240.0,126.967,0.9998,METERS
CN,GHCND:CHM00050788,"FUJIN, CH",2021-07-19,1952-01-01,47.233,65.0,131.983,0.9998,METERS
CN,GHCND:CHM00050854,"ANDA, CH",2021-07-19,1952-01-01,46.383,150.0,125.317,0.9996,METERS
CN,GHCND:CHM00050915,"ULIASTAI, CH",2021-07-19,1955-01-01,45.517,840.0,116.967,0.9998,METERS
CN,GHCND:CHM00050953,"HARBIN, CH",2021-07-19,1951-01-01,45.75,143.0,126.767,0.9998,METERS
CN,GHCND:CHM00050963,"TONGHE, CH",2021-07-19,1952-01-01,45.967,110.0,128.733,0.9998,METERS
CN,GHCND:CHM00050978,"JIXI, CH",2021-07-19,1951-01-01,45.283,234.0,130.949,0.9998,METERS
CN,GHCND:CHM00051087,"FUYUN, CH",2021-07-19,1956-08-20,46.983,827.0,89.517,0.9979,METERS
CN,GHCND:CHM00051156,"HOBOKSAR, CH",2021-07-19,1953-01-01,46.783,1294.0,85.717,0.9998,METERS
CN,GHCND:CHM00051243,"KARAMAY, CH",2021-07-19,1956-01-01,45.6,428.0,84.85,0.9998,METERS
CN,GHCND:CHM00051334,"JINGHE, CH",2021-07-19,1953-01-01,44.617,321.0,82.9,0.9994,METERS
CN,GHCND:CHM00051379,"QITAI, CH",2021-07-19,1951-01-01,44.017,794.0,89.567,0.9997,METERS
CN,GHCND:CHM00051431,"YINING, CH",2021-07-19,1951-01-01,43.95,664.0,81.333,0.9998,METERS
CN,GHCND:CHM00051463,"WU LU MU QI, CH",2021-07-19,1951-01-01,43.8,947.0,87.65,0.9998,METERS
CN,GHCND:CHM00051573,"TURPAN, CH",2021-07-19,1951-01-01,42.933,37.0,89.2,0.9985,METERS
CN,GHCND:CHM00051644,"KUQA, CH",2021-07-19,1951-01-01,41.717,1100.0,82.95,0.9998,METERS
CN,GHCND:CHM00051656,"KORLA, CH",2021-07-19,1962-03-08,41.75,933.0,86.133,0.8272,METERS
CN,GHCND:CHM00051709,"KASHI, CH",2021-07-19,1951-01-01,39.467,1380.0,75.983,0.999,METERS
CN,GHCND:CHM00051716,"BACHU, CH",2021-07-19,1953-01-01,39.8,1117.0,78.567,0.9998,METERS
CN,GHCND:CHM00051765,"TIKANLIK, CH",2021-07-19,1957-01-01,40.633,847.0,87.7,0.9997,METERS
CN,GHCND:CHM00051777,"RUOQIANG, CH",2021-07-19,1953-01-01,39.033,889.0,88.167,0.9998,METERS
CN,GHCND:CHM00051811,"SHACHE, CH",2021-07-19,1953-01-01,38.433,1232.0,77.267,0.9996,METERS
CN,GHCND:CHM00051828,"HOTAN, CH",2021-07-19,1953-01-01,37.133,1375.0,79.933,0.9996,METERS
CN,GHCND:CHM00052203,"HAMI, CH",2021-07-19,1951-01-01,42.817,739.0,93.517,0.9995,METERS
CN,GHCND:CHM00052267,"EJIN QI, CH",2021-07-19,1960-05-15,41.95,941.0,101.067,0.8468,METERS
CN,GHCND:CHM00052436,"YUMENZHEN, CH",2021-07-19,1952-01-01,40.267,1527.0,97.033,0.9993,METERS
CN,GHCND:CHM00052533,"JIUQUAN, CH",2021-07-19,1946-04-01,39.767,1478.0,98.483,0.95,METERS
CN,GHCND:CHM00052754,"GANGCA, CH",2021-07-19,1957-01-01,37.333,3302.0,100.133,0.9997,METERS
CN,GHCND:CHM00052787,"WUSHAOLING, CH",2021-07-19,1951-01-01,37.2,3044.0,102.867,0.9997,METERS
CN,GHCND:CHM00052818,"GOLMUD, CH",2021-07-19,1955-01-01,36.417,2809.0,94.9,0.999,METERS
CN,GHCND:CHM00052836,"DULAN, CH",2021-07-19,1954-01-01,36.3,3192.0,98.1,0.9992,METERS
CN,GHCND:CHM00052866,"XINING, CH",2021-07-19,1954-01-01,36.617,2296.0,101.767,0.9998,METERS
CN,GHCND:CHM00053068,"ERENHOT, CH",2021-07-19,1955-01-01,43.65,966.0,112.0,0.9998,METERS
CN,GHCND:CHM00053192,"ABAG QI, CH",2021-07-19,1952-01-01,44.017,1128.0,114.95,0.9998,METERS
CN,GHCND:CHM00053231,"HAILS, CH",2021-07-19,1961-08-13,41.45,1510.0,106.383,0.8878,METERS
CN,GHCND:CHM00053276,"JURH, CH",2021-07-19,1952-01-01,42.4,1152.0,112.9,0.9994,METERS
CN,GHCND:CHM00053336,"HALIUT, CH",2021-07-19,1954-01-01,41.567,1290.0,108.517,0.9998,METERS
CN,GHCND:CHM00053352,"BAILING MIAO, CH",2021-07-19,1953-01-01,41.7,1377.0,110.433,0.9995,METERS
