cc,id,name,maxdate,mindate,latitude,elevation,longitude,datacoverage,elevationUnit
AE,GHCND:AE000041196,"SHARJAH INTER. AIRP, AE",2021-07-19,1944-03-20,25.333,34.0,55.517,0.7343,METERS
AE,GHCND:AEM00041194,"DUBAI INTERNATIONAL, AE",2021-07-19,1983-01-01,25.255,10.4,55.364,0.9991,METERS
AE,GHCND:AEM00041217,"ABU DHABI INTERNATIONAL, AE",2021-07-19,1983-01-02,24.433,26.8,54.651,0.9977,METERS
AF,GHCND:AFM00040938,"HERAT, AF",2021-07-19,1973-01-02,34.21,977.2,62.228,0.4903,METERS
AF,GHCND:AFM00040948,"KABUL INTERNATIONAL, AF",2021-07-19,1966-03-02,34.566,1791.3,69.212,0.5768,METERS
AF,GHCND:AFM00040990,"KANDAHAR AIRPORT, AF",2020-12-31,1973-01-02,31.5,1010.0,65.85,0.4906,METERS
AF,GHCND:PKM00041710,"NOKKUNDI, PK",2021-07-19,1973-01-02,28.817,683.0,62.75,0.6234,METERS
AF,GHCND:TX000038915,"CARSANGA, TX",2021-07-19,1937-11-18,37.517,265.0,66.017,0.7168,METERS
DZ,GHCND:AGM00060444,"BORDJ BOU ARRERIDJ, AG",2021-07-19,1979-10-01,36.067,930.0,4.767,0.9223,METERS
DZ,GHCND:AG000060590,"EL GOLEA, AG",2021-07-19,1892-01-01,30.5667,397.0,2.8667,0.7238,METERS
DZ,GHCND:AG000060611,"IN AMENAS, AG",2021-07-19,1958-10-01,28.05,561.0,9.6331,0.9254,METERS
DZ,GHCND:AGM00060536,"SAIDA, AG",2021-07-19,1981-01-01,34.867,752.0,0.15,0.6208,METERS
DZ,GHCND:AGM00060559,"GUEMAR, AG",2021-07-19,1965-09-13,33.511,61.9,6.777,0.8531,METERS
DZ,GHCND:AGM00060566,"NOUMERAT, AG",2021-07-19,1965-10-01,32.384,460.9,3.794,0.8651,METERS
DZ,GHCND:AGM00060571,"BECHAR, AG",2021-07-19,1957-01-09,31.646,811.1,-2.27,0.8348,METERS
DZ,GHCND:AGM00060580,"OUARGLA, AG",2021-07-19,1957-03-19,31.917,150.0,5.413,0.5384,METERS
DZ,GHCND:AGM00060550,"EL BAYADH, AG",2021-07-19,1973-01-05,33.667,1347.0,1.0,0.8971,METERS
DZ,GHCND:AGM00060602,"BENI ABBES, AG",2021-07-19,1973-01-01,30.133,505.0,-2.167,0.8449,METERS
DZ,GHCND:AGM00060607,"TIMIMOUN, AG",2021-07-19,1966-07-23,29.237,313.0,0.276,0.7474,METERS
DZ,GHCND:AGM00060620,"TOUAT CHEIKH SIDI MOHAMED BEL, AG",2021-07-19,1965-09-13,27.838,280.1,-0.186,0.776,METERS
DZ,GHCND:AGM00060640,"ILLIZI TAKHAMALT, AG",2021-07-19,1966-02-07,26.724,541.9,8.623,0.5768,METERS
DZ,GHCND:AGM00060656,"TINDOUF, AG",2021-07-19,1943-03-19,27.7,442.9,-8.167,0.4781,METERS
DZ,GHCND:AGM00060475,"CHEIKH LARBI TEBESSI, AG",2021-07-19,1958-03-30,35.432,811.1,8.121,0.7073,METERS
DZ,GHCND:AGM00060535,"DJELFA TLETSI, AG",2021-07-19,1973-01-01,34.683,1144.0,3.25,0.9201,METERS
DZ,GHCND:AGE00147719,"LAGHOUAT, AG",2021-07-19,1888-01-01,33.7997,767.0,2.89,0.3816,METERS
AU,GHCND:ASN00010018,"BURAKIN, AS",2020-12-31,1926-04-01,-30.5325,360.0,117.1739,0.8083,METERS
AU,GHCND:ASM00094995,"LORD HOWE ISLAND AERO, AS",2021-07-19,1947-12-31,-31.542,7.0,159.079,0.7789,METERS
AU,GHCND:ASN00002013,"IVANHOE STATION, AS",2021-04-29,1907-01-01,-15.69,40.0,128.6833,0.7125,METERS
AU,GHCND:ASN00001007,"TROUGHTON ISLAND, AS",2021-07-20,1956-09-01,-13.7542,6.0,126.1485,0.6318,METERS
AU,GHCND:ASM00094299,"WILLIS ISLAND, AS",2021-07-19,1948-01-01,-16.288,9.0,149.965,0.7803,METERS
AU,GHCND:ASN00002048,"FLORA VALLEY, AS",2021-03-24,1971-01-01,-18.2972,380.0,128.4419,0.6465,METERS
AU,GHCND:ASN00003014,"GOGO STATION, AS",2021-03-08,1908-12-01,-18.2914,150.0,125.5869,0.8608,METERS
AU,GHCND:ASN00004026,"NOREENA DOWNS, AS",2021-03-31,1911-03-01,-22.2914,495.0,120.1761,0.8689,METERS
AU,GHCND:ASN00007083,"TUREE CREEK, AS",2021-06-21,1920-01-01,-23.6239,530.0,118.6561,0.9085,METERS
AU,GHCND:ASN00011008,"MUNDRABILLA STATION, AS",2021-07-17,1903-01-01,-31.8433,20.0,127.8572,0.8505,METERS
AU,GHCND:ASN00011017,"BALLADONIA, AS",2021-07-20,1891-02-01,-32.4569,151.0,123.8653,0.7234,METERS
AU,GHCND:ASN00011019,"EYRE, AS",2021-07-20,1888-02-01,-32.2464,5.6,126.3008,0.5276,METERS
AU,GHCND:ASN00012247,"GINDALBIE, AS",2021-07-20,1918-01-31,-30.2817,380.0,121.7606,0.4961,METERS
AU,GHCND:ASN00012029,"FRASER RANGE, AS",2021-06-15,1901-03-01,-32.0339,460.0,122.8017,0.7885,METERS
AU,GHCND:ASN00012062,"NAMBI, AS",2020-11-30,1922-03-01,-28.3897,490.0,121.6775,0.5865,METERS
AU,GHCND:ASN00013018,"WONGAWOL, AS",2021-07-05,1966-04-01,-26.1208,500.0,121.9403,0.8836,METERS
AU,GHCND:ASN00013011,"WARBURTON AIRFIELD, AS",2021-07-20,1940-11-07,-26.1317,459.0,126.5839,0.7508,METERS
AU,GHCND:ASN00013017,"GILES METEOROLOGICAL OFFICE, AS",2021-07-20,1956-08-01,-25.0341,598.0,128.301,0.9997,METERS
AU,GHCND:ASN00013034,"BARWIDGEE, AS",2021-05-31,1988-01-01,-27.0336,450.0,120.9233,0.4633,METERS
AU,GHCND:ASN00014142,"PIRLANGIMPI, AS",2021-07-20,1963-11-01,-11.4022,18.3,130.4217,0.8611,METERS
AU,GHCND:ASN00014208,"JABIRU COUNCIL, AS",2021-03-31,1983-01-27,-12.6686,31.0,132.8358,0.5523,METERS
AU,GHCND:ASN00014401,"WARRUWI, AS",2021-07-20,1916-12-01,-11.6502,19.2,133.3796,0.9324,METERS
AU,GHCND:ASN00014508,"GOVE AIRPORT, AS",2021-07-20,1944-02-17,-12.2741,51.6,136.8203,0.5748,METERS
AU,GHCND:ASN00014704,"MCARTHUR RIVER MINE, AS",2021-07-20,1968-03-01,-16.4423,40.0,136.076,0.9143,METERS
AU,GHCND:ASN00029069,"WESTMORELAND STATION, AS",2021-03-25,1965-01-01,-17.3383,60.0,138.2508,0.9523,METERS
AU,GHCND:ASN00014719,"NATHAN RIVER, AS",2021-04-29,1979-06-01,-15.5789,30.0,135.4271,0.6553,METERS
AU,GHCND:ASN00049117,"NYMAGEE BALOWRA, AS",2021-06-30,1898-09-01,-32.2479,335.0,146.4856,0.4398,METERS
AU,GHCND:ASN00014857,"SUPLEJACK, AS",2021-03-23,1982-01-01,-19.2798,452.0,129.9422,0.8963,METERS
AU,GHCND:ASN00015123,"BRUNCHILLY, AS",2021-05-05,1968-01-01,-18.8689,250.0,134.4991,0.7435,METERS
AU,GHCND:ASN00015085,"BRUNETTE DOWNS, AS",2021-07-20,1891-01-01,-18.637,218.0,135.945,0.9208,METERS
AU,GHCND:ASN00015501,"YAMBAH, AS",2021-06-23,1968-01-01,-23.1273,700.0,133.836,0.9499,METERS
AU,GHCND:ASN00015660,"ULURU RANGERS, AS",2021-07-16,1970-07-01,-25.3602,530.0,131.0196,0.4074,METERS
AU,GHCND:ASN00015641,"THE GRANITES, AS",2021-06-23,1986-09-12,-20.5476,430.0,130.3466,0.8312,METERS
AU,GHCND:ASN00015585,"AMMAROO, AS",2021-06-30,1956-01-01,-21.7498,396.0,135.2382,0.9524,METERS
AU,GHCND:ASN00015611,"NEWHAVEN, AS",2021-07-19,1962-01-01,-22.7228,609.0,131.1685,0.92,METERS
AU,GHCND:ASN00015624,"VICTORY DOWNS, AS",2020-11-30,1945-01-01,-25.9891,549.3,132.9748,0.7657,METERS
AU,GHCND:ASN00015652,"WATARRKA, AS",2021-07-20,1990-05-01,-24.2914,614.0,131.5488,0.932,METERS
AU,GHCND:ASN00016047,"TODMORDEN, AS",2021-07-15,1949-05-01,-27.1391,200.0,134.7575,0.8842,METERS
AU,GHCND:ASN00017004,"ANNA CREEK, AS",2021-06-23,1883-01-01,-28.8921,105.0,136.1688,0.8222,METERS
AU,GHCND:ASN00045029,"ORIENTOS STATION, AS",2021-06-24,1965-08-01,-28.0722,92.0,141.5317,0.9763,METERS
AU,GHCND:ASN00017089,"MUNGERANIE KALAMURINA, AS",2021-07-16,1884-10-01,-27.7205,5.0,138.2548,0.2507,METERS
AU,GHCND:ASN00017115,"CAMERON CORNER LINDON, AS",2020-10-24,1987-10-01,-29.1266,110.0,140.9018,0.9356,METERS
AU,GHCND:ASN00018106,"NULLARBOR, AS",2021-07-20,1889-02-01,-31.4492,64.0,130.8976,0.5283,METERS
AU,GHCND:ASN00018110,"COOK, AS",2021-07-19,1918-02-01,-30.6143,120.0,130.4136,0.9192,METERS
AU,GHCND:ASN00018114,"MARALINGA, AS",2021-07-18,1955-05-23,-30.1591,290.0,131.579,0.7792,METERS
AU,GHCND:ASN00027044,"MERLUNA, AS",2021-04-09,1913-01-01,-13.0658,80.0,142.4511,0.5754,METERS
AU,GHCND:ASN00027031,"BAMAGA, AS",2021-01-31,1960-07-01,-10.8969,58.0,142.3844,0.5831,METERS
AU,GHCND:ASN00014153,"BLACK POINT, AS",2021-07-20,1965-01-01,-11.1538,5.0,132.143,0.9583,METERS
AU,GHCND:ASN00046052,"WANAARING OWEN DOWNS, AS",2021-06-24,1956-01-01,-29.4089,115.0,143.3808,0.9701,METERS
AU,GHCND:ASN00038009,"GLENGYLE, AS",2021-06-30,1914-03-01,-24.7856,72.0,139.5919,0.8464,METERS
AU,GHCND:ASN00038031,"DURRIE STATION, AS",2021-06-23,1913-06-01,-25.65,80.0,140.2333,0.2228,METERS
AU,GHCND:AYM00089606,"VOSTOK, AY",2021-07-19,1973-01-01,-78.45,3488.0,106.867,0.677,METERS
AU,GHCND:AYM00089611,CASEY,2021-07-19,1969-03-01,-66.283,41.0,110.517,0.9245,METERS
AU,GHCND:AYM00089832,"D 10, AY",2021-07-18,1990-05-12,-66.717,243.0,139.833,0.2792,METERS
AU,GHCND:AYM00089828,"DOME C II, AY",2021-07-19,1990-05-10,-75.117,3250.0,123.367,0.8862,METERS
AU,GHCND:ASN00029012,"CROYDON TOWNSHIP, AS",2021-05-01,1889-02-01,-18.2044,115.5,142.2447,0.9913,METERS
AU,GHCND:ASN00029048,"VANROOK STATION, AS",2021-03-18,1921-12-01,-16.9683,35.0,141.9547,0.873,METERS
AU,GHCND:ASN00030081,"BURLEIGH STATION, AS",2020-12-31,1969-07-01,-20.2631,250.0,143.1097,0.7732,METERS
AU,GHCND:ASN00013030,"TELFER AERO, AS",2021-07-20,1974-01-01,-21.7125,291.9,122.2281,0.9769,METERS
US,GHCND:USC00144357,"KIRWIN DAM, KS US",2021-04-30,1952-05-01,39.6619,517.2,-99.1228,0.9125,METERS
US,GHCND:USC00515842,"MAKENA GOLF COURSE 249.1, HI US",2021-04-17,1982-05-01,20.6419,26.8,-156.44,0.8886,METERS
US,GHCND:USC00511038,"HALENANAHO 1006, HI US",2021-04-30,1942-07-01,21.9649,149.4,-159.4297,0.7763,METERS
US,GHCND:USS0046P01S,"MUNSON RIDGE, AK US",2021-07-19,1980-09-30,64.85,944.9,-146.21,0.9977,METERS
US,GHCND:USR0000AJAT,"JATAHMUND LAKE ALASKA, AK US",2021-07-20,1990-07-02,62.6,701.0,-142.0833,0.8234,METERS
US,GHCND:USC00509869,"WISEMAN, AK US",2021-07-20,1918-11-01,67.40822,360.0,-150.10958,0.3586,METERS
US,GHCND:USS0049L19S,"SUMMIT CREEK, AK US",2021-07-19,1989-09-30,60.62,426.7,-149.53,0.999,METERS
US,GHCND:USC00500464,"AUKE BAY, AK US",2021-07-19,1963-02-01,58.3814,13.4,-134.645,0.9653,METERS
US,GHCND:USC00505884,"MONASHKA CREEK DAM, AK US",2021-03-31,1909-09-01,57.8426,39.6,-152.4585,0.1431,METERS
US,GHCND:USW00025713,"SAINT PAUL ISLAND AIRPORT, AK US",2021-07-20,1915-08-08,57.1552,10.7,-170.2222,0.9787,METERS
US,GHCND:CA005031320,"INDIAN BAY, CA",2021-07-19,1915-04-01,49.6167,327.0,-95.2,0.9764,METERS
US,GHCND:CA001054500,"LANGARA, CA",2021-07-19,1936-07-23,54.25,43.0,-133.05,0.9913,METERS
US,GHCND:USC00082418,"DRY TORTUGAS, US",2021-07-15,1950-07-01,24.62787,0.9,-82.87362,0.5891,METERS
US,GHCND:USC00213417,"GUNFLINT LAKE 10 NW, MN US",2021-07-20,1951-08-27,48.1603,443.5,-90.8842,0.7211,METERS
US,GHCND:USW00026425,"GULKANA AIRPORT, AK US",2021-07-20,1907-03-02,62.1591,476.1,-145.4588,0.7214,METERS
US,GHCND:USC00505136,"KUPARUK, AK US",2021-04-30,1983-02-01,70.3289,19.5,-149.6114,0.9801,METERS
US,GHCND:USC00505881,"MINCHUMINA, AK US",2021-04-30,1945-01-01,63.9033,312.4,-152.2816,0.7863,METERS
US,GHCND:USC00507570,"PORT ALSWORTH, AK US",2021-04-30,1960-07-01,60.2036,79.2,-154.3163,0.9652,METERS
US,GHCND:USC00507783,"PUNTILLA, AK US",2021-07-19,1942-01-01,62.0911,566.3,-152.7349,0.8708,METERS
US,GHCND:USR0000ABEV,"BEAVER WBQ ALASKA, AK US",2021-07-20,1990-05-29,66.2667,147.2,-146.5167,0.6618,METERS
US,GHCND:USR0000AKOY,"KOYUKUK NWR ALASKA, AK US",2021-07-20,1990-07-16,66.0083,30.5,-157.57,0.8009,METERS
US,GHCND:USR0000AHEL,"HELMUT MOUNTAIN ALASKA, AK US",2021-07-20,1988-09-22,67.7414,853.4,-144.1225,0.6986,METERS
US,GHCND:USR0000ATHO,"THORNE BAY ALASKA, AK US",2021-07-20,1989-09-25,55.75,548.6,-132.9833,0.5343,METERS
US,GHCND:USR0000AHAY,"HAYCOCK ALASKA, AK US",2021-07-20,1988-05-22,65.2017,53.9,-161.155,0.7893,METERS
US,GHCND:USR0000AINN,"INNOKO FLATS ALASKA, AK US",2021-07-20,1988-03-30,63.39,283.5,-158.8167,0.7453,METERS
US,GHCND:USR0000AKIL,"KILBUCK ALASKA, AK US",2021-07-20,1991-07-15,60.32,582.2,-160.2,0.8877,METERS
US,GHCND:USR0000ANOA,"NOATAK ALASKA, AK US",2021-07-20,1990-04-23,68.0708,300.2,-158.7042,0.8303,METERS
US,GHCND:USR0000APOO,"POORMAN ALASKA, AK US",2021-07-20,1988-06-02,64.105,285.0,-155.5583,0.8162,METERS
US,GHCND:USR0000ASEV,"SEVEN MILE ALASKA, AK US",2021-07-20,1988-03-24,65.9383,250.9,-149.855,0.9165,METERS
US,GHCND:USR0000ASTR,"STONEY RIVER ALASKA, AK US",2021-07-20,1990-09-24,61.6467,80.8,-156.4333,0.8213,METERS
US,GHCND:USC00501684,"CHICKEN, AK US",2021-07-19,1911-05-30,64.0917,548.6,-141.9211,0.2467,METERS
US,GHCND:USC00502587,"DUTCH HARBOR, AK US",2021-07-19,1915-05-01,53.895,3.0,-166.5433,0.6495,METERS
US,GHCND:USW00003940,"JACKSON INTERNATIONAL AIRPORT, MS US",2021-07-20,1942-09-01,32.3205,100.6,-90.0777,0.7357,METERS
US,GHCND:USW00025503,"KING SALMON AIRPORT, AK US",2021-07-20,1942-01-12,58.6829,20.4,-156.6563,0.9755,METERS
US,GHCND:USW00025624,"COLD BAY AIRPORT, AK US",2021-07-20,1942-03-25,55.2207,23.8,-162.7324,0.8976,METERS
US,GHCND:USW00026410,"CORDOVA AIRPORT, AK US",2021-07-18,1909-05-05,60.4888,9.4,-145.4511,0.9549,METERS
US,GHCND:USW00026510,"MCGRATH AIRPORT, AK US",2021-07-19,1939-04-01,62.9574,101.5,-155.6103,0.997,METERS
US,GHCND:USW00026615,"BETHEL AIRPORT, AK US",2021-07-20,1923-08-01,60.785,31.1,-161.8293,0.9986,METERS
US,GHCND:USW00026617,"NOME AIRPORT, AK US",2021-07-20,1900-08-01,64.5111,4.0,-165.44,0.947,METERS
US,GHCND:USW00027401,"BARTER ISLAND WEATHER SERVICE OFFICE AIRPORT, AK US",2021-07-15,1947-09-23,70.13389,14.9,-143.57694,0.6365,METERS
US,GHCND:USW00027502,"BARROW AIRPORT, AK US",2021-07-20,1901-09-01,71.2834,9.4,-156.7815,0.8818,METERS
US,GHCND:USW00027503,"WAINWRIGHT AIRPORT, AK US",2021-07-15,1935-09-20,70.63917,9.1,-159.995,0.5221,METERS
US,GHCND:USR0000AKEL,"KELLY ALASKA, AK US",2021-07-20,1990-04-23,67.9333,125.6,-162.3,0.8863,METERS
US,GHCND:USR0000AQTZ,"QUARTZ CREEK ALASKA, AK US",2021-07-20,1988-05-18,65.4,130.1,-164.65,0.8187,METERS
US,GHCND:USW00026529,"TANANA AIRPORT, AK US",2021-07-19,1901-08-24,65.175,67.7,-152.1067,0.8779,METERS
LY,GHCND:AGM00060670,"TISKA, AG",2021-07-19,1965-09-14,24.293,968.0,9.452,0.7801,METERS
LY,GHCND:LY000062131,"HON, LY",2021-07-19,1956-01-01,29.12,267.0,15.95,0.6379,METERS
LY,GHCND:LY000062271,"KUFRA, LY",2021-07-19,1956-01-01,24.22,436.0,23.3,0.6936,METERS
LY,GHCND:LYE00147740,"NALUT, LY",2021-07-19,1932-01-01,31.87,621.0,10.98,0.5716,METERS
LY,GHCND:LYE00147741,"ZUARA, LY",2021-07-19,1920-01-01,32.88,3.0,12.08,0.5893,METERS
LY,GHCND:LYM00062012,"EL KHOMS, LY",2021-07-19,1990-06-02,32.633,22.0,14.3,0.7384,METERS
LY,GHCND:LYE00147746,"SIRTE, LY",2021-07-19,1925-08-01,31.2,13.0,16.5797,0.5979,METERS
LY,GHCND:LYE00147747,"BENGHAZI BENINA, LY",2021-07-19,1943-11-01,32.08,132.0,20.27,0.6749,METERS
LY,GHCND:LYE00147751,DERNA,2021-07-19,1928-01-01,32.76,10.0,22.66,0.422,METERS
LY,GHCND:LYM00062062,"TOBRUK, LY",2021-07-19,1944-10-27,32.1,51.0,23.933,0.271,METERS
LY,GHCND:LYM00062120,"GARIAT EL SHARGHIA, LY",2021-06-20,1973-01-01,30.383,497.0,13.583,0.5691,METERS
LY,GHCND:LYM00062161,"JALO, LY",2021-07-19,1956-01-01,29.033,60.0,21.567,0.6044,METERS
LY,GHCND:LYM00062176,"GIGHBUB, LY",2021-07-13,1956-01-01,29.75,-1.0,24.533,0.4539,METERS
LY,GHCND:LYM00062200,"OBARI, LY",2021-07-19,1988-07-09,26.6,463.0,12.783,0.4654,METERS
LY,GHCND:LYM00062212,"GHAT, LY",2021-07-17,1981-12-01,25.146,699.8,10.143,0.3223,METERS
LY,GHCND:LYM00062259,"TAZERBO, LY",2021-07-19,1962-12-01,25.8,261.0,21.133,0.5323,METERS
LY,GHCND:LYM00062103,"GHADAMES EAST, LY",2021-07-19,1961-08-14,30.152,342.0,9.715,0.7,METERS
AZ,GHCND:AJ000037575,"ZAKATALA, AJ",2021-07-19,1936-01-01,41.55,490.0,46.667,0.6668,METERS
AZ,GHCND:AJ000037675,"GUBA, AJ",2021-07-19,1936-01-02,41.367,552.0,48.517,0.5312,METERS
AZ,GHCND:AJ000037735,"GANCA, AJ",2021-07-19,1882-01-01,40.7167,311.0,46.4167,0.833,METERS
AZ,GHCND:AJ000037747,"EVLAKH AIRPORT, AJ",2021-07-19,1955-01-01,40.617,15.0,47.15,0.5457,METERS
AZ,GHCND:AJ000037749,"GOYCHAY, AJ",2021-07-19,1936-01-01,40.65,95.0,47.75,0.6427,METERS
AZ,GHCND:AJ000037756,"MARAZA, AJ",2021-07-19,1955-01-01,40.533,755.0,48.933,0.5943,METERS
AZ,GHCND:AJ000037985,"LANKARAN, AJ",2021-07-19,1897-05-01,38.75,-12.0,48.817,0.7577,METERS
AL,GHCND:ALM00013615,"TIRANA RINAS, AL",2021-07-19,1973-02-05,41.415,38.4,19.721,0.6978,METERS
AM,GHCND:AM000037682,"AMASIA, AM",2021-07-19,1936-01-01,40.783,1866.0,43.833,0.6827,METERS
AM,GHCND:AM000037699,"APARAN, AM",2021-07-19,1936-01-30,40.533,1892.0,44.383,0.6286,METERS
AM,GHCND:AM000037787,"ARMAVIR, AM",2021-07-19,1936-01-01,40.133,865.0,44.05,0.6337,METERS
AM,GHCND:AM000037792,"HRAZDAN, AM",2021-07-19,1936-01-01,40.483,1761.0,44.75,0.6222,METERS
AM,GHCND:AM000037711,"IDJEVAN, AM",2021-07-19,1920-11-29,40.867,733.0,45.15,0.3587,METERS
AM,GHCND:AM000037801,"GAVAR, AM",2021-07-19,1891-01-01,40.35,1961.0,45.1331,0.841,METERS
AM,GHCND:AM000037959,"KAPAN, AM",2021-07-19,1908-12-09,39.2,706.0,46.433,0.4729,METERS
AM,GHCND:AM000037897,"SISIAN, AM",2021-07-19,1936-01-01,39.533,1581.0,46.017,0.6389,METERS
AM,GHCND:AM000037704,"VANADZOR, AM",2021-07-19,1966-02-01,40.817,1379.0,44.5,0.4531,METERS
AO,GHCND:AO000066160,"LUANDA, AO",2021-07-19,1960-04-01,-8.85,74.0,13.233,0.3893,METERS
AO,GHCND:AO000066390,"LUBANGO SA DA BAND, AO",2021-07-19,1957-09-03,-14.933,1761.0,13.567,0.2295,METERS
AS,GHCND:AQC00914000,"AASUFOU, US",2021-05-31,1980-01-01,-14.31667,408.4,-170.76667,0.6872,METERS
AS,GHCND:AQW00061705,"PAGO PAGO WEATHER SERVICE OFFICE AIRPORT, US",2021-07-19,1945-08-01,-14.33056,3.7,-170.71361,0.7137,METERS
AS,GHCND:AQC00914594,"MALAELOA, US",2021-05-31,1978-11-01,-14.33333,42.4,-170.76667,0.0674,METERS
AR,GHCND:ARM00087016,"ORAN, AR",2021-07-19,1961-05-01,-23.153,356.0,-64.329,0.6436,METERS
AR,GHCND:AR000000011,"MONTE CASEROS AERO, AR",2021-07-19,1967-04-15,-30.267,53.0,-57.65,0.8396,METERS
AR,GHCND:ARM00087349,"PILAR OBSERVATORIO, AR",2021-07-19,1973-02-13,-31.667,338.0,-63.883,0.7195,METERS
AR,GHCND:AR000087374,"PARANA AERO, AR",2021-07-19,1956-02-01,-31.783,74.0,-60.483,0.9458,METERS
AR,GHCND:AR000087418,"MENDOZA AERO, AR",2021-07-19,1957-06-30,-32.833,704.0,-68.783,0.924,METERS
AR,GHCND:AR000087534,"LABOULAYE AERO, AR",2021-07-19,1950-01-01,-34.133,137.0,-63.367,0.9869,METERS
AR,GHCND:AR000087623,"SANTA ROSA AERO, AR",2021-07-19,1951-01-01,-36.567,192.0,-64.266,0.9903,METERS
AR,GHCND:AR000087692,"MAR DEL PLATA AERO, AR",2021-07-19,1956-02-01,-37.933,22.0,-57.583,0.9562,METERS
AR,GHCND:AR000087715,"NEUQUEN AERO, AR",2021-07-19,1956-08-01,-38.95,273.0,-68.133,0.9449,METERS
AR,GHCND:AR000087803,"ESQUEL AERO, AR",2021-07-19,1957-06-30,-42.933,799.0,-71.15,0.8974,METERS
AR,GHCND:AR000087828,"TRELEW AERO, AR",2021-07-19,1956-02-02,-43.2,43.0,-65.266,0.9804,METERS
AR,GHCND:AR000087860,"COMODORO RIVADAVIA, AR",2021-07-19,1956-02-01,-45.783,58.0,-67.5,0.967,METERS
AR,GHCND:AR000087925,"RIO GALLEGOS AERO, AR",2021-07-19,1956-02-01,-51.617,19.0,-69.283,0.9361,METERS
AR,GHCND:AR000870470,"SALTA AERO, AR",2021-07-19,1956-02-01,-24.85,1246.0,-65.483,0.9281,METERS
AR,GHCND:AR000087065,"RIVADAVIA, AR",2020-10-20,1956-04-01,-24.167,205.0,-62.9,0.6399,METERS
AR,GHCND:AR000087078,"LAS LOMITAS, AR",2021-07-19,1956-04-01,-24.7,130.0,-60.583,0.7802,METERS
AR,GHCND:AR000087129,"SANTIAGO DEL ESTERO, AR",2021-07-19,1956-02-01,-27.767,200.0,-64.3,0.9732,METERS
AR,GHCND:AR000087155,"RESISTENCIA AERO, AR",2021-07-19,1960-01-01,-27.45,53.0,-59.05,0.9039,METERS
AR,GHCND:AR000087257,"CERES AERO, AR",2021-07-19,1956-04-01,-29.883,88.0,-61.95,0.9604,METERS
AR,GHCND:AR000087270,"RECONQUISTA AERO, AR",2021-07-19,1961-01-01,-29.183,53.0,-59.7,0.9415,METERS
AR,GHCND:ARM00087640,"BOLIVAR AERO, AR",2021-07-19,1989-04-06,-36.2,94.0,-61.067,0.5778,METERS
AR,GHCND:ARM00087593,"LA PLATA, AR",2021-07-19,1973-01-01,-34.972,21.9,-57.895,0.7762,METERS
AR,GHCND:AR000877500,"BAHIA BLANCA AERO, AR",2021-07-19,1956-02-02,-38.733,75.0,-62.167,0.9532,METERS
AR,GHCND:ARM00087311,"SAN JUAN, AR",2021-07-19,1973-01-01,-31.571,597.1,-68.418,0.9949,METERS
AR,GHCND:ARM00087320,"CHAMICAL AERO, AR",2021-07-19,1973-06-18,-30.367,461.0,-66.283,0.81,METERS
AR,GHCND:ARM00087328,"VILLA DOLORES, AR",2021-07-19,1973-01-01,-31.945,583.7,-65.146,0.8712,METERS
AR,GHCND:ARM00087436,"SAN LUIS, AR",2021-07-19,1957-06-30,-33.273,709.9,-66.356,0.7855,METERS
AR,GHCND:ARM00087448,"VILLA REYNOLDS, AR",2021-07-19,1973-01-01,-33.73,484.9,-65.387,0.9291,METERS
AR,GHCND:ARM00087453,"RIO CUARTO AREA DE MATERIAL, AR",2021-07-19,1973-01-01,-33.085,420.9,-64.261,0.9882,METERS
AR,GHCND:ARM00087162,"FORMOSA, AR",2021-07-19,1973-01-01,-26.213,59.1,-58.228,0.9722,METERS
AR,GHCND:ARM00087178,"POSADAS, AR",2021-07-19,1960-01-02,-27.386,131.1,-55.971,0.8841,METERS
AR,GHCND:ARM00087222,"CATAMARCA, AR",2021-07-19,1973-07-02,-28.596,463.9,-65.752,0.9707,METERS
AR,GHCND:ARM00087244,"VILLA MARIA DEL RIO, AR",2021-07-19,1973-01-01,-29.9,341.0,-63.683,0.6595,METERS
AR,GHCND:ARM00087467,"MARCOS JUAREZ, AR",2021-07-19,1973-01-01,-32.684,110.0,-62.158,0.9907,METERS
AR,GHCND:ARM00087480,"ROSARIO, AR",2021-07-19,1965-03-08,-32.904,25.9,-60.785,0.8726,METERS
AR,GHCND:ARM00087497,"GUALEGUAYCHU, AR",2021-07-19,1965-03-27,-33.01,22.9,-58.613,0.8767,METERS
AR,GHCND:ARM00087679,"PIGUE AIRPORT, AR",2021-07-19,1973-03-04,-37.6,304.0,-62.383,0.171,METERS
AR,GHCND:ARM00087645,"TANDIL, AR",2021-07-19,1973-01-01,-37.237,175.0,-59.228,0.9768,METERS
AR,GHCND:ARM00087648,"DOLORES AIRPORT, AR",2021-07-19,1973-01-01,-36.35,9.0,-57.733,0.8415,METERS
AR,GHCND:ARM00087688,"TRES ARROYOS, AR",2021-07-19,1973-01-01,-38.387,121.9,-60.33,0.6094,METERS
AR,GHCND:ARM00087765,"SAN CARLOS DE BARILOCHE, AR",2021-07-19,1957-06-30,-41.151,846.1,-71.158,0.7875,METERS
AR,GHCND:ARM00087774,"MAQUINCHAO, AR",2021-07-19,1957-09-01,-41.25,888.0,-68.733,0.39,METERS
AR,GHCND:ARM00087784,"SAN ANTONIO OESTE AERO, AR",2021-07-19,1968-01-02,-40.783,20.0,-65.1,0.7431,METERS
AR,GHCND:ARM00087791,"GOBERNADOR CASTELLO, AR",2021-07-19,1973-01-01,-40.869,6.1,-63.0,0.9521,METERS
AR,GHCND:ARM00087548,"JUNIN, AR",2021-07-19,1967-05-05,-34.546,79.9,-60.931,0.9153,METERS
AR,GHCND:ARM00087563,"LAS FLORES, AR",2021-07-01,1974-10-25,-36.067,38.0,-59.1,0.2066,METERS
AR,GHCND:ARM00087814,"PASO DE INDIOS, AR",2021-07-19,1973-09-22,-43.817,460.0,-68.883,0.251,METERS
AR,GHCND:ARM00087938,"USHUAIA MALVINAS ARGENTINAS, AR",2021-07-19,1957-06-30,-54.843,21.6,-68.296,0.5989,METERS
AR,GHCND:ARM00087896,"PUERTO DESEADO, AR",2021-07-19,1962-07-22,-47.735,81.1,-65.904,0.3069,METERS
AR,GHCND:ARM00087909,"SAN JULIAN, AR",2021-07-19,1973-01-01,-49.307,57.9,-67.803,0.9458,METERS
AR,GHCND:ARM00087934,"RIO GRANDE, AR",2021-07-19,1973-01-01,-53.778,19.8,-67.749,0.8742,METERS
AR,GHCND:ARM00087506,"MALARGUE, AR",2021-07-19,1967-06-05,-35.494,1430.1,-69.574,0.8766,METERS
AR,GHCND:ARM00087852,"PERITO MORENO AIRPORT, AR",2021-07-19,1967-07-04,-46.517,429.0,-71.017,0.4362,METERS
AR,GHCND:AR000087007,"LA QUIACA OBSERVATO, AR",2021-07-19,1956-04-01,-22.1,3479.0,-65.6,0.8937,METERS
AR,GHCND:ARM00087121,"TENIENTE BENJAMIN MATIENZO, AR",2021-07-19,1981-11-01,-26.841,455.7,-65.105,0.9939,METERS
AR,GHCND:ARM00087532,"GENERAL PICO, AR",2021-07-19,1973-01-01,-35.696,139.9,-63.758,0.6172,METERS
AR,GHCND:BR002554002,"IGUAZU AERO, AR",2021-07-19,1962-07-10,-25.733,279.0,-54.467,0.8267,METERS
AR,GHCND:AYM00089063,"VERNADSKY, AY",2021-07-19,1985-07-08,-65.25,11.0,-64.267,0.487,METERS
AR,GHCND:AYM00089066,BASE SAN MARTIN,2021-07-19,1976-10-09,-68.117,7.0,-67.133,0.9006,METERS
AR,GHCND:AYM00089262,UNIVERSITY WI ID 8926 LARSEN ICE,2021-06-26,1990-05-12,-67.017,45.0,-61.467,0.6737,METERS
AR,GHCND:AYM00089266,"UNIVERSITY WI ID 8902 BUTLER ISLA, AY",2021-07-19,1990-05-10,-72.2,115.0,-60.167,0.7902,METERS
AR,GHCND:AR000087217,"LA RIOJA AERO., AR",2021-07-19,1956-02-01,-29.383,438.0,-66.817,0.9468,METERS
AR,GHCND:ARM00087509,"SAN RAFAEL, AR",2021-07-19,1973-01-01,-34.588,752.9,-68.403,0.9891,METERS
AR,GHCND:ARM00087880,"GOBERNADOR GREGORES, AR",2021-06-26,1973-01-01,-48.783,356.0,-70.167,0.2246,METERS
UY,GHCND:ARM00087395,"COMODORO PIERRESTEGUI, AR",2021-07-19,1973-01-01,-31.297,34.1,-57.997,0.9893,METERS
UY,GHCND:UY000001709,"MELO, UY",2021-07-19,1964-01-03,-32.35,100.0,-54.183,0.6577,METERS
UY,GHCND:UY000002206,"DURAZNO, UY",2021-07-19,1957-07-05,-33.35,92.0,-56.5,0.5998,METERS
UY,GHCND:UY000086330,"EST.MET.ARTIGAS, UY",2021-07-19,1976-07-14,-30.4,121.0,-56.52,0.9059,METERS
UY,GHCND:UY000086490,"MERCEDES, UY",2021-07-19,1931-01-01,-33.25,17.0,-58.067,0.8907,METERS
UY,GHCND:UY000086565,"ROCHA, UY",2021-07-19,1970-01-01,-34.483,18.0,-54.3,0.9365,METERS
UY,GHCND:UYM00086580,"CARRASCO INTERNATIONAL, UY",2021-07-19,1957-06-30,-34.838,32.0,-56.031,0.7967,METERS
UY,GHCND:UY000086360,"SALTO, UY",2021-07-19,1957-06-30,-31.433,33.0,-57.967,0.7241,METERS
UY,GHCND:UYM00086560,"LAGUNA DE LOS PATOS INTERNATIONAL, UY",2021-07-19,1957-07-01,-34.456,21.0,-57.771,0.691,METERS
NZ,GHCND:ASM00094998,"MACQUARIE ISLAND, AS",2021-07-19,1973-01-01,-54.499,8.3,158.937,0.9204,METERS
NZ,GHCND:AYM00089377,LETTAU,2021-07-19,1990-05-10,-82.517,55.0,-174.45,0.5351,METERS
NZ,GHCND:NZ000093292,"GISBORNE AERODROME, NZ",2021-07-19,1962-02-01,-38.65,5.0,177.983,0.9805,METERS
NZ,GHCND:NZ000093417,"PARAPARAUMU AWS, NZ",2021-07-19,1972-01-01,-40.9,7.0,174.983,0.9772,METERS
NZ,GHCND:NZ000093844,"INVERCARGILL AIRPOR, NZ",2021-07-19,1948-05-31,-46.417,2.0,168.333,0.9853,METERS
NZ,GHCND:NZ000933090,"NEW PLYMOUTH AWS, NZ",2021-07-19,1944-01-01,-39.017,32.0,174.183,0.9879,METERS
NZ,GHCND:NZ000936150,"HOKITIKA AERODROME, NZ",2021-07-19,1964-01-01,-42.717,40.0,170.983,0.9741,METERS
NZ,GHCND:NZ000939450,CAMPBELL ISLAND AWS,2021-07-19,1941-07-03,-52.55,19.0,169.167,0.8242,METERS
NZ,GHCND:NZM00093781,"CHRISTCHURCH INTERNATIONAL, NZ",2021-07-19,1954-03-02,-43.489,37.5,172.532,0.9463,METERS
NZ,GHCND:NZ000093012,"KAITAIA, NZ",2021-07-19,1965-12-31,-35.1,54.0,173.267,0.9427,METERS
VN,GHCND:VMM00048820,"NOIBAI INTERNATIONAL, VM",2021-07-19,1958-12-18,21.221,11.9,105.807,0.8034,METERS
VN,GHCND:VM000048900,"TAN SON HOA, VM",2021-07-19,1951-01-09,10.82,5.0,106.67,0.9654,METERS
VN,GHCND:VMM00048808,"CAO BANG, VM",2021-07-19,1959-05-09,22.667,243.0,106.25,0.535,METERS
VN,GHCND:VMM00048830,"LANG SON, VM",2021-07-19,1974-09-26,21.833,263.0,106.767,0.6311,METERS
VN,GHCND:VMM00048840,"THANH HOA, VM",2021-07-19,1974-09-24,19.75,5.0,105.783,0.703,METERS
VN,GHCND:VMM00048845,"VINH, VM",2021-07-19,1974-10-15,18.737,5.2,105.671,0.9484,METERS
VN,GHCND:VMM00048848,"DONG HOI, VM",2021-07-19,1974-09-25,17.483,8.0,106.6,0.9301,METERS
VN,GHCND:VMM00048855,"DANANG INTERNATIONAL, VM",2021-07-19,1957-01-01,16.044,10.1,108.199,0.9381,METERS
VN,GHCND:VMM00048887,"PHAN THIET, VM",2021-07-19,1956-11-08,10.933,5.0,108.1,0.8245,METERS
VN,GHCND:VMM00048914,"CA MAU, VM",2021-07-19,1957-08-31,9.183,2.0,105.15,0.8165,METERS
VN,GHCND:VMM00048917,"PHU QUOC, VM",2021-07-19,1957-04-15,10.217,4.0,103.967,0.7525,METERS
VN,GHCND:VMW00041010,NHA TRANG,2021-07-19,1957-01-01,12.23333,9.1,109.2,0.8731,METERS
VN,GHCND:VMW00041011,"QUI NHON, VM",2021-07-19,1957-01-04,13.76667,9.1,109.21667,0.8788,METERS
VG,GHCND:VQC00672551,"EAST END, US",2021-05-31,1972-01-01,18.33459,32.0,-64.67573,0.8523,METERS
NA,GHCND:WA004191820,"J.G.H. VAN DER WATH AIRP, WA",2021-07-19,1949-01-01,-26.53,1077.0,18.12,0.7715,METERS
NA,GHCND:WA007401540,"WINDHOEK, WA",2021-07-19,1913-01-01,-22.567,1700.0,17.1,0.8738,METERS
NA,GHCND:WA007848390,"HOSEA KUTAKO INTERNATIONAL A, WA",2021-07-19,1966-02-01,-22.483,1700.0,17.467,0.7679,METERS
NA,GHCND:WA007878380,"GOBABIS, WA",2021-07-19,1959-01-01,-22.5,1400.0,18.967,0.4442,METERS
NA,GHCND:WA010101860,"GROOTFONTEIN, WA",2021-07-19,1917-01-01,-19.6,1400.0,18.117,0.7875,METERS
NA,GHCND:WA010517310,"OKAUKUEJO, WA",2021-07-19,1968-01-01,-19.15,1100.0,15.912,0.3247,METERS
NA,GHCND:WAM00068006,"ONDANGWA, WA",2021-07-19,1973-02-06,-17.933,1100.0,15.983,0.3141,METERS
NA,GHCND:WAM00068098,"WALVIS BAY AIRPORT, WA",2021-07-17,1990-02-14,-22.983,88.0,14.65,0.5427,METERS
BO,GHCND:BL000085041,"COBIJA, BL",2021-07-19,1973-06-19,-11.03,,-68.78,0.877,
BO,GHCND:BL000085141,"RURRENABAQUE, BL",2021-07-19,1973-06-13,-14.47,,-67.57,0.8635,
BO,GHCND:BL000085043,"RIBERALTA, BL",2021-07-19,1973-05-09,-11.0,141.0,-66.117,0.8685,METERS
BO,GHCND:BLM00085109,"SAN RAMON, BL",2021-05-09,1984-05-30,-13.3,140.0,-64.7,0.5684,METERS
BO,GHCND:BL000085223,"COCHABAMBA, BL",2021-07-19,1973-01-01,-17.42,,-66.18,0.9856,
BO,GHCND:BL000085364,"TARIJA, BL",2021-07-19,1973-06-13,-21.55,1854.0,-64.7,0.8785,METERS
BO,GHCND:BL000085365,"YACUIBA, BL",2021-07-19,1973-01-29,-21.95,,-63.65,0.8731,
BO,GHCND:BLM00085153,"SAN IGNACIO DE MOXO, BL",2021-07-19,1973-07-08,-14.967,241.0,-65.633,0.4747,METERS
BO,GHCND:BLM00085195,"SAN JAVIER, BL",2021-07-19,1976-02-05,-16.267,520.0,-62.467,0.2989,METERS
BO,GHCND:BLM00085201,"EL ALTO INTERNATIONAL, BL",2021-07-19,1942-06-01,-16.513,4061.5,-68.192,0.7098,METERS
BO,GHCND:BLM00085207,"SAN IGNACIO VELASCO, BL",2021-06-17,1958-07-04,-16.367,413.0,-60.95,0.5941,METERS
BO,GHCND:BLM00085210,"SAN MATIAS, BL",2021-07-19,1987-05-02,-16.333,124.0,-58.383,0.2978,METERS
BO,GHCND:BLM00085242,"JUAN MENDOZA, BL",2021-07-19,1958-05-01,-17.963,3702.1,-67.076,0.6849,METERS
BO,GHCND:BLM00085245,"EL TROMPILLO, BL",2021-07-19,1958-05-02,-17.812,417.9,-63.171,0.7578,METERS
BO,GHCND:BLM00085247,"SAN JOSE, BL",2021-07-01,1958-05-01,-17.833,284.0,-60.75,0.4943,METERS
BO,GHCND:BLM00085264,"VALLEGRANDE, BL",2021-07-19,1989-09-01,-18.467,1998.0,-64.1,0.3297,METERS
BO,GHCND:BLM00085268,"ROBORE CIV MIL, BL",2021-07-19,1958-05-01,-18.317,284.0,-59.75,0.6386,METERS
BO,GHCND:BLM00085293,"CAPITAN NICOLAS ROJAS, BL",2021-07-19,1973-08-18,-19.543,3935.9,-65.724,0.5827,METERS
BO,GHCND:BLM00085315,"CAMIRI, BL",2021-07-19,1973-01-30,-20.05,792.0,-63.567,0.8797,METERS
GS,GHCND:AYW00090001,"AMUNDSEN SCOTT, AY",2021-07-19,1957-01-09,-90.0,,0.0,0.7485,
GS,GHCND:AYM00088968,"BASE ORCADAS, AY",2021-07-19,1957-01-01,-60.733,8.0,-44.733,0.9169,METERS
GS,GHCND:AYM00089002,NEUMAYER,2021-07-19,1981-01-28,-70.667,50.0,-8.25,0.8731,METERS
GS,GHCND:AYM00089022,HALLEY,2021-07-19,1956-06-18,-75.45,30.0,-26.217,0.6231,METERS
GS,GHCND:AYM00089034,"BASE BELGRANO II, AY",2021-07-19,1956-09-01,-77.867,256.0,-34.617,0.5185,METERS
GS,GHCND:SXM00088903,GRYTVIKEN,2021-07-19,1953-01-01,-54.283,3.0,-36.5,0.4901,METERS
UZ,GHCND:UZM00038927,"TERMEZ, UZ",2021-07-19,1936-01-01,37.2294,309.0,67.2694,0.9881,METERS
UZ,GHCND:UZM00038141,"JASLYK, UZ",2021-07-19,1974-08-09,43.883,128.0,57.517,0.5949,METERS
UZ,GHCND:UZM00038262,"CIMBAJ, UZ",2021-07-19,1936-07-04,42.95,66.0,59.8167,0.9973,METERS
UZ,GHCND:UZM00038178,"AK BAJTAL, UZ",2021-07-19,1957-02-03,43.15,234.0,64.333,0.8743,METERS
UZ,GHCND:UZM00038396,"URGENCH, UZ",2021-07-19,1936-01-01,41.567,101.0,60.567,0.7661,METERS
UZ,GHCND:UZM00038403,"BUZAUBAJ, UZ",2021-07-19,1960-01-01,41.75,98.0,62.467,0.8129,METERS
UZ,GHCND:UZM00038413,"TAMDY, UZ",2021-07-19,1932-06-01,41.7331,237.0,64.6167,0.9959,METERS
UZ,GHCND:UZM00038457,"TASHKENT, UZ",2021-07-19,1881-01-01,41.27,477.0,69.2694,0.9845,METERS
UZ,GHCND:UZM00038462,"PSKEM, UZ",2021-07-19,1936-01-01,41.9,1258.0,70.367,0.5767,METERS
UZ,GHCND:UZM00038475,"ANDIZAN, UZ",2021-07-16,1936-01-01,40.733,477.0,72.333,0.7335,METERS
UZ,GHCND:UZM00038567,"NAVOI, UZ",2021-07-19,1936-01-01,40.133,341.0,65.349,0.55,METERS
UZ,GHCND:UZM00038579,"DZIZAK, UZ",2021-07-19,1942-01-01,40.117,345.0,67.833,0.6631,METERS
UZ,GHCND:UZM00038812,"KARSHI, UZ",2021-07-19,1966-01-06,38.8,376.0,65.717,0.7646,METERS
BR,GHCND:BR000956000,"ALTA FLORESTA AERO, BR",2021-07-19,1978-07-16,-9.867,289.0,-56.1,0.6872,METERS
BR,GHCND:BR001957002,"CORUMBA, BR",2021-07-19,1968-08-19,-19.083,141.0,-57.5,0.5181,METERS
BR,GHCND:BR00E2-0320,"SAO JOSE DOS CAMPOS, BR",2021-07-19,1942-11-01,-23.217,646.0,-45.85,0.6861,METERS
BR,GHCND:BR002351003,"LONDRINA AEROPORTO, BR",2021-07-19,1973-01-01,-23.333,569.0,-51.133,0.9405,METERS
BR,GHCND:BR002548005,"PARANAGUA, BR",2021-07-08,1948-10-16,-25.517,5.0,-48.517,0.3796,METERS
BR,GHCND:BR002752004,"CHAPECO, BR",2021-07-19,1957-07-21,-27.117,679.0,-52.617,0.2209,METERS
BR,GHCND:BR002957005,"URUGUAIANA AEROPOR, BR",2021-05-28,1973-01-01,-29.783,78.0,-57.033,0.8073,METERS
BR,GHCND:BR00D6-0010,"BAURU, BR",2021-07-19,1936-01-01,-22.317,617.0,-49.117,0.4823,METERS
BR,GHCND:BR00D8-0390,"PRESIDENTE PRUDENTE, BR",2021-07-19,1944-10-01,-22.117,450.0,-51.383,0.4125,METERS
BR,GHCND:BR038983570,"MACEIO AEROPORTO, BR",2021-07-19,1912-10-01,-9.517,118.0,-35.783,0.7972,METERS
BR,GHCND:BR039402250,"JOAO PESSOA, BR",2021-07-19,1912-07-01,-7.1,66.0,-34.867,0.5371,METERS
BR,GHCND:BR047635180,"BOM JESUS DA LAPA, BR",2020-11-06,1917-11-01,-13.267,443.0,-43.417,0.6243,METERS
BR,GHCND:BR057324290,"MONTES CLAROS, BR",2021-07-19,1950-09-01,-16.717,668.0,-43.867,0.3408,METERS
BR,GHCND:BRM00082098,"MACAPA, BR",2021-07-19,1973-01-01,0.051,17.1,-51.072,0.8697,METERS
BR,GHCND:BRM00082336,"ITACOATIARA, BR",2020-08-05,1989-11-21,-3.127,43.3,-58.481,0.2469,METERS
BR,GHCND:BRM00082533,"MANICORE, BR",2021-07-14,1974-02-22,-5.811,53.0,-61.278,0.3412,METERS
BR,GHCND:BRM00082562,"MARABA, BR",2021-07-19,1973-01-01,-5.369,108.8,-49.138,0.7551,METERS
BR,GHCND:BRM00083208,"VILHENA, BR",2021-07-19,1973-01-23,-12.694,615.1,-60.098,0.7392,METERS
BR,GHCND:BR001943012,"LAGOA SANTA AIRPORT, BR",2021-07-19,1941-01-01,-19.65,837.0,-43.883,0.3496,METERS
BR,GHCND:BRM00083698,"BARTOLOMEU LISANDRO, BR",2021-07-19,1973-01-01,-21.698,17.4,-41.302,0.5678,METERS
BR,GHCND:BRM00083746,"GALEAO ANTONIO CARLOS JOBIM, BR",2021-07-19,1973-01-01,-22.809,8.5,-43.244,0.9973,METERS
BR,GHCND:BRM00083967,"CANOAS, BR",2021-07-19,1977-10-02,-29.946,7.9,-51.144,0.5137,METERS
BR,GHCND:BR037041370,"TERESINA AEROPORTO, BR",2021-07-19,1956-01-01,-5.05,67.0,-42.817,0.702,METERS
BR,GHCND:BR038837530,"PAULO AFONSO, BR",2021-07-19,1940-10-01,-9.4,269.0,-38.217,0.4294,METERS
BR,GHCND:BR000047002,SALINOPOLIS,2021-07-19,1977-12-09,-0.617,14.0,-47.383,0.5246,METERS
BR,GHCND:BR000065001,"TAPURUCUARA, BR",2021-07-18,1973-01-03,-0.417,6.0,-65.0,0.3407,METERS
BR,GHCND:BR000082400,"FERNANDO DE NORONHA, BR",2021-07-19,1943-09-01,-3.85,59.0,-32.417,0.6347,METERS
BR,GHCND:BR000082704,"CRUZEIRO DO SUL, BR",2021-07-19,1974-06-22,-7.633,194.0,-72.667,0.5021,METERS
BR,GHCND:BR000082861,"CONCEICAO DO ARAGUAIA, BR",2021-07-19,1973-11-18,-8.25,,-49.28,0.4685,
BR,GHCND:BR000254000,"SANTAREM AEROPORTO, BR",2021-07-19,1968-05-01,-2.433,60.0,-54.717,0.8996,METERS
BR,GHCND:BR000352000,"ALTAMIRA, BR",2021-07-19,1968-06-05,-3.2,112.0,-52.2,0.3486,METERS
BR,GHCND:BR000747000,"CAROLINA AEROPORTO, BR",2021-07-19,1969-09-20,-7.317,172.0,-47.467,0.4694,METERS
BR,GHCND:PA000086086,"PUERTO CASADO, PA",2021-07-19,1974-12-02,-22.283,87.0,-57.933,0.5133,METERS
BR,GHCND:UYM00086350,"PRESIDENTE GENERAL DON OSCAR, UY",2021-07-19,1976-01-06,-30.975,223.0,-55.476,0.9233,METERS
BR,GHCND:BR00C4-0630,"PIRASSUNUNGA, BR",2021-07-19,1943-05-01,-21.983,600.0,-47.333,0.5201,METERS
BR,GHCND:BR038484280,"CAMPINA GRANDE, BR",2021-07-19,1910-10-01,-7.217,502.0,-35.883,0.572,METERS
BR,GHCND:BRM00082193,"VAL DE CANS INTERNATIONAL, BR",2021-07-19,1942-10-01,-1.379,16.5,-48.476,0.9165,METERS
BR,GHCND:BR027568450,"PARNAIBA AEROPORTO, BR",2021-07-19,1943-05-12,-2.917,5.0,-41.75,0.3305,METERS
BG,GHCND:BUM00015552,"VARNA, BU",2021-07-19,1952-01-03,43.232,70.1,27.825,0.8434,METERS
BG,GHCND:BUM00015614,"SOFIA, BU",2021-07-19,1952-01-01,42.695,531.0,23.406,0.8693,METERS
BG,GHCND:BUM00015730,"KURDJALI, BU",2021-07-19,1957-06-30,41.65,331.0,25.383,0.8242,METERS
BG,GHCND:BUM00015502,"VIDIN, BU",2021-07-19,1975-09-09,43.983,595.0,22.85,0.5865,METERS
CA,GHCND:CA001125079,"MERRITT STP, CA",2021-01-15,1968-08-01,50.1167,609.0,-120.8,0.9656,METERS
CA,GHCND:CA001073615,"HOUSTON, CA",2021-07-19,1957-07-01,54.4,610.0,-126.6667,0.5836,METERS
CA,GHCND:CA001181508,"CHETWYND A, CA",2021-04-11,1982-10-01,55.6833,610.0,-121.6333,0.9652,METERS
CA,GHCND:CA001192946,"FORT NELSON A, CA",2021-07-19,1942-02-20,58.8333,382.0,-122.6,0.6923,METERS
CA,GHCND:CA002100402,"DAWSON A, CA",2021-07-19,1942-04-02,64.05,370.0,-139.1333,0.6263,METERS
CA,GHCND:CA002101095,"TAKHINI RIVER RANCH, CA",2021-05-11,1980-02-01,60.95,671.0,-135.5667,0.7849,METERS
CA,GHCND:CA002100636,HERSCHEL ISLAND,2021-07-18,1974-07-08,69.5667,1.0,-138.9167,0.4506,METERS
CA,GHCND:CA002202200,"FORT SMITH A, CA",2021-07-19,1942-04-02,60.0167,205.0,-111.9667,0.9794,METERS
CA,GHCND:CA002202400,"HAY RIVER A, CA",2021-07-19,1943-03-01,60.8333,165.0,-115.7833,0.9865,METERS
CA,GHCND:CA002202570,"INUVIK A, CA",2021-07-19,1957-03-01,68.3,68.0,-133.4833,0.811,METERS
CA,GHCND:CA002202678,"LAC LA MARTRE, CA",2021-07-19,1974-05-28,63.1333,271.0,-117.25,0.4797,METERS
CA,GHCND:CA002202801,"NORMAN WELLS, CA",2021-07-19,1945-01-02,65.2833,73.0,-126.8,0.622,METERS
CA,GHCND:CA002204300,"YOHIN, CA",2021-07-19,1957-06-01,61.25,204.0,-123.75,0.7912,METERS
CA,GHCND:CA002300500,"BAKER LAKE A, CA",2021-07-19,1946-02-18,64.3,19.0,-96.0833,0.9425,METERS
CA,GHCND:CA002300551,"BATHURST INLET, CA",2021-07-18,1957-01-06,66.8333,5.0,-108.0167,0.5701,METERS
CA,GHCND:CA002300902,"KUGLUKTUK A, CA",2021-07-19,1944-08-27,67.8167,23.0,-115.15,0.6241,METERS
CA,GHCND:CA002301000,"CORAL HARBOUR A, CA",2021-07-19,1933-10-01,64.2,62.0,-83.3667,0.8748,METERS
CA,GHCND:CA002301102,"ENNADAI LAKE AUT, CA",2021-07-19,1957-01-06,61.1333,353.0,-100.8833,0.5984,METERS
CA,GHCND:CA002302370,"HAT ISLAND, CA",2021-07-19,1959-01-01,68.3167,36.0,-100.0833,0.4601,METERS
CA,GHCND:CA002303610,"ROBERTSON LAKE AUT, CA",2021-07-19,1980-03-01,65.1,244.0,-102.4333,0.73,METERS
CA,GHCND:CA002303685,"SHEPHERD BAY A, CA",2021-07-19,1957-04-01,68.8167,43.0,-93.4333,0.9179,METERS
CA,GHCND:CA002400565,"BREVOORT ISLAND, CA",2021-07-19,1959-11-01,63.3333,376.0,-64.15,0.69,METERS
CA,GHCND:CA002400570,"FOX FIVE, CA",2021-05-17,1957-09-22,67.5333,584.0,-63.7833,0.878,METERS
CA,GHCND:CA002400600,CAMBRIDGE BAY A,2021-07-19,1929-01-01,69.1,31.0,-105.1333,0.8919,METERS
CA,GHCND:CA002400635,"CAPE DORSET A, CA",2021-07-19,1963-02-11,64.2333,48.0,-76.5333,0.7516,METERS
CA,GHCND:CA002400650,"CAPE DYER, CA",2021-07-19,1958-02-01,66.65,725.0,-61.3833,0.2264,METERS
CA,GHCND:CA002400660,"CAPE HOOPER, CA",2021-04-26,1957-01-01,68.4667,390.0,-66.8167,0.8941,METERS
CA,GHCND:CA002401030,"DEWAR LAKES, CA",2021-07-19,1958-02-01,68.65,527.0,-71.1667,0.9123,METERS
CA,GHCND:CA002401200,EUREKA,2021-07-19,1947-05-01,79.9833,10.0,-85.9333,0.9618,METERS
CA,GHCND:CA002403625,"ROWLEY ISLAND, CA",2021-07-19,1957-11-01,69.0833,41.0,-79.0333,0.5679,METERS
CA,GHCND:CA002402594,"IQALUIT UA, CA",2021-07-19,1942-03-01,63.75,22.0,-68.55,0.6806,METERS
CA,GHCND:CA002402604,"ISACHSEN AUT, CA",2021-07-19,1948-05-05,78.8,58.0,-103.55,0.4094,METERS
CA,GHCND:CA002402684,"LONGSTAFF BLUFF, CA",2021-06-29,1957-11-06,68.9,161.0,-75.1333,0.7509,METERS
CA,GHCND:CA002403049,PANGNIRTUNG,2021-07-19,1977-07-01,66.15,23.0,-65.7167,0.7313,METERS
CA,GHCND:CA002403206,"POND INLET, CA",2021-07-19,1977-07-02,72.6833,62.0,-77.9667,0.9873,METERS
CA,GHCND:CA002403450,"REA POINT, CA",2021-01-03,1969-05-07,75.3833,15.0,-105.7167,0.5807,METERS
CA,GHCND:CA002403500,"RESOLUTE CARS, CA",2021-07-19,1947-10-01,74.7167,68.0,-94.9667,0.9883,METERS
CA,GHCND:CA003016GF0,"VEGREVILLE, CA",2021-07-19,1980-11-01,53.5,639.0,-112.1,0.9518,METERS
CA,GHCND:CA003014600,"MONITOR, CA",2021-07-19,1983-04-12,52.0167,732.0,-110.55,0.9383,METERS
CA,GHCND:CA003060L20,"ATHABASCA 1, CA",2021-07-19,1986-08-01,54.7167,515.0,-113.2833,0.7939,METERS
CA,GHCND:CA003073140,"HIGH LEVEL, CA",2021-07-19,1977-07-01,58.6167,338.0,-117.1667,0.9732,METERS
CA,GHCND:CA003074182,"MANNING, CA",2021-01-08,1985-07-01,56.95,491.0,-117.65,0.6801,METERS
CA,GHCND:CA003075937,"SIMONETTE, CA",2021-07-19,1973-10-01,54.4167,884.0,-117.7333,0.8435,METERS
CA,GHCND:CA003081680,"COLD LAKE A, CA",2021-07-19,1952-12-01,54.4167,541.0,-110.2833,0.9917,METERS
CA,GHCND:CA004014156,"LAST MOUNTAIN CS, CA",2021-07-19,1975-05-01,51.4167,497.0,-105.25,0.9693,METERS
CA,GHCND:CA005040166,"BEAVER, CA",2021-06-13,1973-05-01,50.05,268.0,-98.7,0.7326,METERS
CA,GHCND:USC00246236,"OPHEIM 10 N, MT US",2021-05-25,1956-12-01,48.99875,877.8,-106.37991,0.9127,METERS
CA,GHCND:CA004047240,"SCOTT CDA, CA",2021-07-19,1911-05-01,52.3667,660.0,-108.8333,0.9902,METERS
CA,GHCND:CA004060983,"BUFFALO NARROWS AUT, CA",2021-07-19,1977-07-01,55.8333,440.0,-108.4167,0.9508,METERS
CA,GHCND:CA004061570,"CIGAR LAKE, CA",2021-07-19,1987-06-01,58.0833,467.0,-104.4833,0.9677,METERS
CA,GHCND:CA004068340,"URANIUM CITY A, CA",2021-07-19,1953-01-01,59.5667,318.0,-108.4833,0.7483,METERS
CA,GHCND:CA005030203,"BERENS RIVER CS, CA",2021-07-19,1985-07-01,52.3667,222.0,-97.0167,0.9435,METERS
CA,GHCND:CA005050920,"FLIN FLON, CA",2021-07-07,1927-01-20,54.7667,320.0,-101.8833,0.9727,METERS
CA,GHCND:CA005052880,"THE PAS A, CA",2021-07-19,1942-12-29,53.9667,270.0,-101.1,0.9928,METERS
CA,GHCND:CA005061648,"LYNN LAKE, CA",2021-07-19,1977-07-01,56.8667,357.0,-101.0833,0.9648,METERS
CA,GHCND:CA005062922,"THOMPSON A, CA",2021-07-19,1967-04-01,55.8,223.0,-97.8667,0.9899,METERS
CA,GHCND:CA006016295,PEAWANUCK AUT,2021-07-19,1981-10-11,54.9833,53.0,-85.4333,0.9023,METERS
CA,GHCND:CA006016525,"PICKLE LAKE AUT, CA",2021-07-19,1930-07-01,51.45,391.0,-90.2167,0.6802,METERS
CA,GHCND:CA006107276,"ST. ALBERT, CA",2021-06-18,1986-06-01,45.2833,80.0,-75.0667,0.7851,METERS
CA,GHCND:CA007041100,CAPE WHITTLE,2021-06-09,1963-09-01,50.1667,7.0,-60.0667,0.4094,METERS
CA,GHCND:CA007051200,"CAUSAPSCAL, CA",2021-05-31,1913-09-01,48.3667,168.0,-67.2333,0.9148,METERS
CA,GHCND:CA007047910,"SEPT ILES A, CA",2021-07-19,1944-09-01,50.2167,55.0,-66.2667,0.7493,METERS
CA,GHCND:CA00704FEG0,"RIVIERE AU TONNERRE, CA",2021-05-31,1965-11-01,50.2833,15.0,-64.7833,0.9412,METERS
CA,GHCND:CA007066820,"ST AMBROISE, CA",2021-05-31,1954-09-01,48.5667,122.0,-71.3333,0.9454,METERS
CA,GHCND:CA007075800,"PARENT, CA",2021-07-19,1943-07-01,47.9167,445.0,-74.6167,0.7042,METERS
CA,GHCND:CA007085106,"MONT BRUN, CA",2021-05-31,1980-05-29,48.4167,305.0,-78.7333,0.9544,METERS
CA,GHCND:CA007091404,"CHIBOUGAMAU CHAPAIS A, CA",2021-07-19,1977-07-01,49.7667,387.0,-74.5333,0.9638,METERS
CA,GHCND:CA007093716,"LA GRANDE RIVIERE A, CA",2021-07-19,1977-07-01,53.6333,195.0,-77.7,0.9331,METERS
CA,GHCND:CA007093GJ5,"LA GRANDE IV, CA",2021-07-19,1985-12-06,53.75,306.0,-73.6833,0.9617,METERS
CA,GHCND:CA007113534,"KUUJJUAQ A, CA",2021-07-19,1941-11-05,58.1,40.0,-68.4167,0.9241,METERS
CA,GHCND:CA007117827,"SCHEFFERVILLE A, CA",2021-07-19,1957-01-06,54.8,517.0,-66.8,0.7029,METERS
CA,GHCND:CA008103050,MISCOU ISLAND AUT,2021-07-19,1957-11-15,48.0167,4.0,-64.5,0.624,METERS
CA,GHCND:CA008102536,"MACTAQUAC PROV PARK, CA",2021-07-11,1973-12-01,45.95,110.0,-66.9,0.8407,METERS
CA,GHCND:CA008206316,"WHITE ROCK, CA",2021-07-07,1977-07-15,45.05,38.0,-64.3833,0.7476,METERS
CA,GHCND:CA008206240,WESTERN HEAD,2021-07-19,1959-08-17,43.9833,10.0,-64.6667,0.6668,METERS
CA,GHCND:CA008206495,"YARMOUTH A, CA",2021-07-19,1949-01-01,43.8333,43.0,-66.0833,0.6688,METERS
CA,GHCND:CA008300590,"STANHOPE, CA",2021-07-19,1961-06-12,46.4167,3.0,-63.0833,0.7244,METERS
CA,GHCND:CA008401500,"DEER LAKE, CA",2021-07-19,1933-03-01,49.1667,11.0,-57.4333,0.9546,METERS
CA,GHCND:CA008401000,"CAPE RACE AUT, CA",2021-07-19,1920-10-26,46.6667,27.0,-53.0833,0.6694,METERS
CA,GHCND:CA008402071,"HARBOUR BRETON, CA",2021-02-28,1983-10-01,47.4667,30.0,-55.8333,0.9418,METERS
CA,GHCND:CA008401703,"GANDER INTERNATIONAL A, CA",2021-07-19,1941-06-30,48.9333,151.0,-54.5667,0.6371,METERS
CA,GHCND:CA008501100,CARTWRIGHT,2021-07-19,1934-11-01,53.7167,14.0,-57.0333,0.982,METERS
CA,GHCND:CA008502400,HOPEDALE AUT,2021-07-19,1942-01-01,55.45,12.0,-60.2167,0.833,METERS
CA,GHCND:CA008503249,SAGLEK,2021-07-19,1989-04-01,58.3333,501.0,-62.5833,0.7053,METERS
CA,GHCND:GLW00017605,"PITUFFIK, GL",2021-07-19,1951-10-26,76.51667,77.1,-68.83333,0.6587,METERS
CA,GHCND:CA001064728,LUCY ISLAND LIGHTSTATION,2021-07-19,1991-01-01,54.3,23.0,-130.6167,0.8856,METERS
CA,GHCND:CA002202115,"FORT SIMPSON, CA",2021-07-19,1942-04-02,61.7667,169.0,-121.2333,0.74,METERS
CA,GHCND:CA002400804,"CLYDE RIVER, CA",2021-07-19,1977-07-01,70.4833,27.0,-68.5167,0.9513,METERS
CA,GHCND:CA003044203,"MANYBERRIES AGCM, CA",2021-07-19,1957-01-06,49.3667,927.0,-110.6833,0.6303,METERS
CA,GHCND:CA006036904,"RAWSON LAKE, CA",2021-04-30,1969-06-01,49.65,358.0,-93.7167,0.9245,METERS
CA,GHCND:CA006037775,"SIOUX LOOKOUT A, CA",2021-07-19,1938-08-01,50.1167,383.0,-91.9,0.9689,METERS
CA,GHCND:CA006040325,"ARMSTRONG AUT, CA",2021-07-18,1938-08-01,50.3,323.0,-88.9,0.8106,METERS
CA,GHCND:CA006042716,"GERALDTON A, CA",2021-07-19,1981-08-01,49.7833,348.0,-86.9333,0.9962,METERS
CA,GHCND:CA006049095,"UPSALA AUT, CA",2021-07-19,1973-01-01,49.0333,489.0,-90.4667,0.7497,METERS
CA,GHCND:CA006049443,"WELCOME ISLAND AUT, CA",2021-07-19,1967-05-01,48.3667,211.0,-89.1167,0.5542,METERS
CA,GHCND:CA006065006,"MASSEY, CA",2021-07-19,1983-06-01,46.2,200.0,-82.0167,0.9401,METERS
CA,GHCND:CA006068145,"SUDBURY CLIMATE, CA",2021-07-19,1977-07-01,46.6333,348.0,-80.8,0.992,METERS
CA,GHCND:USC00202094,"DETOUR VILLAGE, MI US",2021-07-20,1900-08-01,45.9983,181.4,-83.9013,0.7386,METERS
CA,GHCND:USC00503821,"HYDER, US",2021-07-20,1936-10-01,55.9158,24.4,-130.02592,0.2295,METERS
CA,GHCND:USR0000ASAL,"SALMON TROUT ALASKA, AK US",2021-07-20,1988-07-01,66.8125,673.6,-141.62,0.7633,METERS
CA,GHCND:USC00502607,"EAGLE, AK US",2021-07-20,1901-11-01,64.7856,259.1,-141.2036,0.7885,METERS
CA,GHCND:USS0013A27S,"MANY GLACIER, MT US",2021-07-19,1976-09-30,48.8,1493.5,-113.67,1.0,METERS
CA,GHCND:USW00025339,"YAKUTAT AIRPORT, AK US",2021-07-20,1917-04-01,59.512,10.1,-139.6712,0.9479,METERS
CA,GHCND:CA003060903,"BRULE BLACK CAT, CA",2021-07-18,1985-07-01,53.35,1036.0,-117.8667,0.9179,METERS
CA,GHCND:CA007061541,"CHUTE DES PASSES, CA",2021-07-19,1960-03-01,49.8333,398.0,-71.1667,0.5755,METERS
CA,GHCND:USW00014918,"INTERNATIONAL FALLS INTERNATIONAL AIRPORT, MN US",2021-07-20,1906-07-01,48.5614,360.6,-93.3981,0.7929,METERS
CA,GHCND:CA002200675,"CAPE PARRY A, CA",2021-07-19,1957-05-01,70.1667,87.0,-124.7167,0.9259,METERS
CA,GHCND:CA002403602,"RESOLUTION ISLAND, CA",2021-07-19,1962-03-12,61.6,369.0,-64.6333,0.5892,METERS
CA,GHCND:CA006073975,"KAPUSKASING A, CA",2021-07-19,1937-04-01,49.4167,227.0,-82.4667,0.9882,METERS
CA,GHCND:CA006075431,MOOSONEE AWOS,2021-07-19,1982-01-02,51.2833,9.0,-80.6,0.8929,METERS
CA,GHCND:CA006075543,"NAGAGAMI AUT, CA",2021-07-19,1982-01-01,49.75,264.0,-84.1667,0.9515,METERS
CA,GHCND:CA007080468,"BARRAGE TEMISCAMINGUE, CA",2021-07-19,1910-04-01,46.7167,181.0,-79.1,0.947,METERS
CA,GHCND:CA008501900,"GOOSE A, CA",2021-07-19,1941-12-01,53.3167,49.0,-60.4167,0.997,METERS
CN,GHCND:CHM00058834,"NANPING, CH",2021-07-19,1951-01-01,26.633,128.0,118.0,0.999,METERS
CN,GHCND:CHM00059758,"HAIKOU, CH",2021-06-02,1951-01-01,20.0,24.0,110.25,0.9526,METERS
CN,GHCND:CHM00059838,DONGFANG,2021-07-19,1952-01-01,19.1,8.0,108.617,0.9997,METERS
CN,GHCND:CHM00057290,"ZHUMADIAN, CH",2021-07-19,1958-01-01,33.0,83.0,114.017,0.9996,METERS
CN,GHCND:CHM00057411,"NANCHONG, CH",2021-07-19,1951-01-09,30.8,310.0,106.083,0.9991,METERS
CN,GHCND:CHM00057447,"ENSHI, CH",2021-07-19,1945-03-31,30.283,458.0,109.467,0.9145,METERS
CN,GHCND:CHM00057461,"YICHANG, CH",2021-07-19,1951-01-01,30.7,134.0,111.3,0.9904,METERS
CN,GHCND:CHM00057494,"WUHAN, CH",2021-07-19,1951-01-01,30.6,34.0,114.05,0.9999,METERS
CN,GHCND:CHM00057633,"YOUYANG, CH",2021-07-19,1951-01-01,28.833,665.0,108.767,0.9993,METERS
CN,GHCND:CHM00057662,"CHANGDE, CH",2021-07-19,1951-01-01,29.05,35.0,111.683,0.9998,METERS
CN,GHCND:CHM00057687,"CHANGSHA, CH",2021-07-19,1944-02-15,28.233,68.0,112.867,0.4495,METERS
CN,GHCND:CHM00057707,"BIJIE, CH",2021-07-19,1951-01-01,27.3,1511.0,105.233,0.9997,METERS
CN,GHCND:CHM00057799,"JIAN, CH",2021-07-19,1951-01-01,27.117,78.0,114.967,0.9977,METERS
CN,GHCND:CHM00057816,"GUIYANG, CH",2021-07-19,1945-02-04,26.583,1223.0,106.733,0.9246,METERS
CN,GHCND:CHM00057866,"LINGLING, CH",2021-07-19,1943-06-01,26.233,174.0,111.617,0.916,METERS
CN,GHCND:CHM00057902,"XINGREN, CH",2021-07-19,1951-01-01,25.433,1379.0,105.183,0.9998,METERS
CN,GHCND:CHM00057957,"GUILIN, CH",2021-07-19,1943-06-07,25.333,174.0,110.3,0.9187,METERS
CN,GHCND:CHM00057993,"GANZHOU, CH",2021-07-19,1944-12-02,25.867,138.0,115.0,0.9224,METERS
CN,GHCND:CHM00058027,"XUZHOU, CH",2021-07-19,1956-08-20,34.283,42.0,117.15,0.9989,METERS
CN,GHCND:CHM00058040,"GANYU, CH",2021-07-19,1957-01-01,34.85,10.0,119.133,0.9998,METERS
CN,GHCND:CHM00058221,"BENGBU, CH",2021-07-19,1951-01-01,32.95,22.0,117.367,0.9665,METERS
CN,GHCND:CHM00058238,"NANJING, CH",2021-07-19,1951-01-01,31.933,15.0,118.9,0.9999,METERS
CN,GHCND:CHM00058251,"DONGTAI, CH",2021-07-19,1953-01-01,32.85,5.0,120.283,0.9998,METERS
CN,GHCND:CHM00058321,"HEFEI, CH",2021-07-19,1952-01-01,31.867,36.0,117.233,0.9998,METERS
CN,GHCND:CHM00058362,"SHANGHAI, CH",2021-07-19,1991-01-01,31.4,4.0,121.467,0.9997,METERS
CN,GHCND:CHM00058424,"ANQING, CH",2021-07-19,1951-01-01,30.533,20.0,117.05,0.9998,METERS
CN,GHCND:CHM00058457,"HANGZHOU, CH",2021-07-19,1951-01-01,30.233,43.0,120.167,0.9999,METERS
CN,GHCND:CHM00058477,"DINGHAI, CH",2021-07-19,1955-01-01,30.033,37.0,122.117,0.9998,METERS
CN,GHCND:CHM00058606,"NANCHANG, CH",2021-07-19,1951-01-01,28.6,50.0,115.917,0.9881,METERS
CN,GHCND:CHM00058633,"QU XIAN, CH",2021-07-19,1951-01-01,28.967,71.0,118.867,0.9998,METERS
CN,GHCND:CHM00058666,DACHEN DAO,2021-07-19,1959-11-13,28.45,84.0,121.883,0.8455,METERS
CN,GHCND:CHM00058715,"NANCHENG, CH",2021-07-19,1952-01-01,27.583,82.0,116.65,0.9996,METERS
CN,GHCND:CHM00059023,"HECHI, CH",2021-07-19,1955-01-01,24.7,214.0,108.05,0.9991,METERS
CN,GHCND:CHM00059082,"SHAOGUAN, CH",2021-07-19,1951-01-01,24.667,68.0,113.6,0.9998,METERS
CN,GHCND:CHM00059134,"XIAMEN, CH",2021-07-19,1954-01-01,24.483,18.0,118.083,0.9999,METERS
CN,GHCND:CHM00059254,"GUIPING, CH",2021-07-19,1953-01-01,23.4,44.0,110.083,0.9998,METERS
CN,GHCND:CHM00059265,"WUZHOU, CH",2021-07-19,1951-01-01,23.483,120.0,111.3,0.9951,METERS
CN,GHCND:CHM00059287,"GUANGZHOU, CH",2021-07-19,1945-11-30,23.217,71.0,113.483,0.946,METERS
CN,GHCND:CHM00059293,"HEYUAN, CH",2021-07-19,1952-01-01,23.8,41.0,114.733,0.9995,METERS
CN,GHCND:CHM00059316,"SHANTOU, CH",2021-07-19,1951-01-01,23.4,3.0,116.683,0.8873,METERS
CN,GHCND:CHM00059417,"LONGZHOU, CH",2021-07-19,1953-01-01,22.367,129.0,106.75,0.9998,METERS
CN,GHCND:CHM00059431,"NANNING, CH",2021-07-19,1944-01-15,22.633,126.0,108.217,0.923,METERS
CN,GHCND:CHM00059501,"SHANWEI, CH",2021-07-19,1952-01-01,22.783,5.0,115.367,0.9997,METERS
CN,GHCND:CHM00059663,"YANGJIANG, CH",2021-07-19,1952-01-01,21.867,22.0,111.967,0.9998,METERS
CN,GHCND:CHM00050353,"HUMA, CH",2021-07-19,1954-01-01,51.717,179.0,126.65,0.9998,METERS
CN,GHCND:CHM00050434,"TULIHE, CH",2021-07-19,1957-01-01,50.45,733.0,121.7,0.9997,METERS
CN,GHCND:CHM00050527,"HAILAR, CH",2021-06-02,1951-01-01,49.25,650.0,119.7,0.9535,METERS
CN,GHCND:CHM00050557,"NENJIANG, CH",2021-07-19,1951-01-01,49.167,243.0,125.233,0.9998,METERS
CN,GHCND:RSM00031510,"BLAGOVESCENSK, CH",2021-07-19,1881-01-01,50.25,130.0,127.5,0.9662,METERS
CN,GHCND:CHM00050632,"BUGT, CH",2021-07-19,1951-01-01,48.767,739.0,121.917,0.9949,METERS
CN,GHCND:CHM00050727,"ARXAN, CH",2021-07-19,1952-01-01,47.167,997.0,119.933,0.9997,METERS
CN,GHCND:CHM00050745,"QIQIHAR, CH",2021-07-19,1951-01-01,47.383,148.0,123.917,0.9998,METERS
CN,GHCND:CHM00050756,"HAILUN, CH",2021-07-19,1952-01-01,47.433,240.0,126.967,0.9998,METERS
CN,GHCND:RSM00031707,"EKATERINO NIKOLSKOE, RS",2021-07-19,1936-01-01,47.7331,72.0,130.9667,0.9974,METERS
CN,GHCND:CHM00050854,"ANDA, CH",2021-07-19,1952-01-01,46.383,150.0,125.317,0.9996,METERS
CN,GHCND:CHM00050915,"ULIASTAI, CH",2021-07-19,1955-01-01,45.517,840.0,116.967,0.9998,METERS
CN,GHCND:CHM00050953,"HARBIN, CH",2021-07-19,1951-01-01,45.75,143.0,126.767,0.9998,METERS
CN,GHCND:CHM00050963,"TONGHE, CH",2021-07-19,1952-01-01,45.967,110.0,128.733,0.9998,METERS
CN,GHCND:CHM00050978,"JIXI, CH",2021-07-19,1951-01-01,45.283,234.0,130.949,0.9998,METERS
CN,GHCND:CHM00051087,"FUYUN, CH",2021-07-19,1956-08-20,46.983,827.0,89.517,0.9979,METERS
CN,GHCND:CHM00051156,"HOBOKSAR, CH",2021-07-19,1953-01-01,46.783,1294.0,85.717,0.9998,METERS
CN,GHCND:CHM00051243,"KARAMAY, CH",2021-07-19,1956-01-01,45.6,428.0,84.85,0.9998,METERS
CN,GHCND:CHM00051334,"JINGHE, CH",2021-07-19,1953-01-01,44.617,321.0,82.9,0.9994,METERS
CN,GHCND:CHM00051379,"QITAI, CH",2021-07-19,1951-01-01,44.017,794.0,89.567,0.9997,METERS
CN,GHCND:CHM00051431,"YINING, CH",2021-07-19,1951-01-01,43.95,664.0,81.333,0.9998,METERS
CN,GHCND:CHM00051463,"WU LU MU QI, CH",2021-07-19,1951-01-01,43.8,947.0,87.65,0.9998,METERS
CN,GHCND:CHM00051573,"TURPAN, CH",2021-07-19,1951-01-01,42.933,37.0,89.2,0.9985,METERS
CN,GHCND:CHM00051644,"KUQA, CH",2021-07-19,1951-01-01,41.717,1100.0,82.95,0.9998,METERS
CN,GHCND:CHM00051656,"KORLA, CH",2021-07-19,1962-03-08,41.75,933.0,86.133,0.8272,METERS
CN,GHCND:CHM00051709,"KASHI, CH",2021-07-19,1951-01-01,39.467,1380.0,75.983,0.999,METERS
CN,GHCND:CHM00051716,"BACHU, CH",2021-07-19,1953-01-01,39.8,1117.0,78.567,0.9998,METERS
CN,GHCND:CHM00051765,"TIKANLIK, CH",2021-07-19,1957-01-01,40.633,847.0,87.7,0.9997,METERS
CN,GHCND:CHM00051777,"RUOQIANG, CH",2021-07-19,1953-01-01,39.033,889.0,88.167,0.9998,METERS
CN,GHCND:CHM00051811,"SHACHE, CH",2021-07-19,1953-01-01,38.433,1232.0,77.267,0.9996,METERS
CN,GHCND:CHM00051828,"HOTAN, CH",2021-07-19,1953-01-01,37.133,1375.0,79.933,0.9996,METERS
CN,GHCND:CHM00052203,"HAMI, CH",2021-07-19,1951-01-01,42.817,739.0,93.517,0.9995,METERS
CN,GHCND:CHM00052267,"EJIN QI, CH",2021-07-19,1960-05-15,41.95,941.0,101.067,0.8468,METERS
CN,GHCND:CHM00052436,"YUMENZHEN, CH",2021-07-19,1952-01-01,40.267,1527.0,97.033,0.9993,METERS
CN,GHCND:CHM00052533,"JIUQUAN, CH",2021-07-19,1946-04-01,39.767,1478.0,98.483,0.95,METERS
CN,GHCND:CHM00052754,"GANGCA, CH",2021-07-19,1957-01-01,37.333,3302.0,100.133,0.9997,METERS
CN,GHCND:CHM00052787,"WUSHAOLING, CH",2021-07-19,1951-01-01,37.2,3044.0,102.867,0.9997,METERS
CN,GHCND:CHM00052818,"GOLMUD, CH",2021-07-19,1955-01-01,36.417,2809.0,94.9,0.999,METERS
CN,GHCND:CHM00052836,"DULAN, CH",2021-07-19,1954-01-01,36.3,3192.0,98.1,0.9992,METERS
CN,GHCND:CHM00052866,"XINING, CH",2021-07-19,1954-01-01,36.617,2296.0,101.767,0.9998,METERS
CN,GHCND:MGM00044358,"ZAMYN UUD, MG",2021-07-19,1956-08-20,43.733,964.0,111.9,0.837,METERS
CN,GHCND:CHM00053192,"ABAG QI, CH",2021-07-19,1952-01-01,44.017,1128.0,114.95,0.9998,METERS
CN,GHCND:CHM00053231,"HAILS, CH",2021-07-19,1961-08-13,41.45,1510.0,106.383,0.8878,METERS
CN,GHCND:CHM00053276,"JURH, CH",2021-07-19,1952-01-01,42.4,1152.0,112.9,0.9994,METERS
CN,GHCND:CHM00053336,"HALIUT, CH",2021-07-19,1954-01-01,41.567,1290.0,108.517,0.9998,METERS
CN,GHCND:CHM00053352,"BAILING MIAO, CH",2021-07-19,1953-01-01,41.7,1377.0,110.433,0.9995,METERS
CN,GHCND:CHM00053391,"HUADE, CH",2021-07-19,1952-01-01,41.9,1484.0,114.0,0.9994,METERS
CN,GHCND:CHM00053463,"HOHHOT, CH",2021-07-19,1951-01-01,40.817,1065.0,111.683,0.9985,METERS
CN,GHCND:CHM00053502,"JARTAI, CH",2021-07-19,1955-01-01,39.783,1143.0,105.75,0.9997,METERS
CN,GHCND:CHM00053529,"OTOG QI, CH",2021-07-19,1954-01-01,39.1,1381.0,107.983,0.9998,METERS
CN,GHCND:CHM00053646,"YULIN, CH",2021-07-19,1951-01-01,38.233,1058.0,109.7,0.9983,METERS
CN,GHCND:CHM00053673,"YUANPING, CH",2021-06-25,1954-01-01,38.75,838.0,112.7,0.9778,METERS
CN,GHCND:CHM00053698,"SHIJIAZHUANG, CH",2021-07-19,1955-01-01,38.033,81.0,114.417,0.9998,METERS
CN,GHCND:CHM00053772,"TAIYUAN, CH",2021-07-19,1951-01-01,37.783,779.0,112.55,0.9996,METERS
CN,GHCND:CHM00053845,"YAN AN, CH",2021-07-19,1951-01-01,36.6,959.0,109.5,0.9998,METERS
CN,GHCND:CHM00053915,"PINGLIANG, CH",2021-07-19,1951-01-01,35.55,1348.0,106.667,0.9998,METERS
CN,GHCND:CHM00053959,"YUNCHENG, CH",2021-07-19,1956-01-01,35.05,365.0,111.05,0.9997,METERS
CN,GHCND:CHM00054012,"XI UJIMQIN QI, CH",2021-07-19,1954-01-01,44.583,997.0,117.6,0.9998,METERS
CN,GHCND:CHM00054026,"JARUD QI, CH",2021-07-19,1952-01-01,44.567,266.0,120.9,0.9998,METERS
CN,GHCND:CHM00054027,"LINDONG, CH",2021-07-19,1953-01-01,43.983,485.0,119.4,0.9997,METERS
CN,GHCND:CHM00054094,"MUDANJIANG, CH",2021-07-19,1951-01-01,44.567,242.0,129.6,0.9998,METERS
CN,GHCND:CHM00054096,"SUIFENHE, CH",2021-07-19,1952-01-01,44.383,498.0,131.15,0.9996,METERS
CN,GHCND:CHM00054115,"LINXI, CH",2021-07-19,1952-01-01,43.6,800.0,118.067,0.9992,METERS
CN,GHCND:CHM00054135,"TONGLIAO, CH",2021-07-19,1951-01-01,43.6,180.0,122.267,0.9998,METERS
CN,GHCND:CHM00054157,"SIPING, CH",2021-07-19,1951-01-01,43.183,167.0,124.333,0.9997,METERS
CN,GHCND:CHM00054161,"CHANGCHUN, CH",2021-07-19,1951-01-01,43.9,238.0,125.217,0.9998,METERS
CN,GHCND:CHM00054208,"DUOLUN, CH",2021-07-19,1952-01-01,42.183,1247.0,116.467,0.9997,METERS
CN,GHCND:CHM00054218,"CHIFENG, CH",2021-07-19,1951-01-01,42.3,567.0,118.833,0.9988,METERS
CN,GHCND:CHM00054236,"ZHANGWU, CH",2021-07-19,1952-01-01,42.417,84.0,122.533,0.9994,METERS
CN,GHCND:CHM00054292,"YANJI, CH",2021-07-19,1953-01-01,42.867,178.0,129.5,0.9998,METERS
CN,GHCND:CHM00054324,"CHAOYANG, CH",2021-07-19,1952-01-01,41.55,176.0,120.45,0.9996,METERS
CN,GHCND:CHM00054342,"SHENYANG, CH",2021-07-19,1951-01-01,41.733,43.0,123.517,0.9998,METERS
CN,GHCND:KNM00047014,"CHUNGGANG, KN",2021-07-19,1957-02-03,41.783,331.0,126.883,0.8919,METERS
CN,GHCND:CHM00054405,"HUAILAI, CH",2021-07-19,1954-01-01,40.417,538.0,115.5,0.9997,METERS
CN,GHCND:CHM00054423,"CHENGDE, CH",2021-07-19,1951-01-01,40.967,423.0,117.917,0.9998,METERS
CN,GHCND:CHM00054471,"YINGKOU, CH",2021-07-19,1951-01-01,40.667,4.0,122.2,0.9998,METERS
CN,GHCND:CHM00054497,DANDONG,2021-07-19,1951-01-01,40.05,14.0,124.333,0.9998,METERS
CN,GHCND:CHM00054662,"DALIAN, CH",2021-07-19,1951-01-01,38.9,97.0,121.633,0.9998,METERS
CN,GHCND:CHM00054725,"HUIMIN, CH",2021-07-19,1951-01-01,37.5,12.0,117.533,0.9997,METERS
CN,GHCND:CHM00054776,"CHENGSHANTOU, CH",2021-07-19,1952-01-01,37.4,47.0,122.683,0.9935,METERS
CN,GHCND:CHM00054823,"JINAN, CH",2021-07-19,1951-01-01,36.6,169.0,117.05,0.9998,METERS
CN,GHCND:CHM00054843,"WEIFANG, CH",2021-07-19,1951-01-01,36.767,22.0,119.183,0.9998,METERS
CN,GHCND:CHM00054857,"QINGDAO, CH",2021-07-19,1956-08-20,36.067,77.0,120.333,0.8763,METERS
CN,GHCND:CHM00054916,"YANZHOU, CH",2021-07-19,1951-01-01,35.567,53.0,116.85,0.9997,METERS
CN,GHCND:CHM00055228,"SHIQUANHE, CH",2021-07-19,1962-01-04,32.5,4280.0,80.083,0.7979,METERS
CN,GHCND:CHM00055279,"BAINGOIN, CH",2021-07-19,1956-10-01,31.367,4701.0,90.017,0.972,METERS
CN,GHCND:CHM00055299,"NAGQU, CH",2021-07-19,1954-07-01,31.483,4508.0,92.067,0.8879,METERS
CN,GHCND:CHM00055472,"XAINZA, CH",2021-07-19,1973-01-01,30.95,4670.0,88.633,0.9776,METERS
CN,GHCND:CHM00055578,"XIGAZE, CH",2021-07-19,1955-12-01,29.25,3837.0,88.883,0.9159,METERS
CN,GHCND:CHM00056004,"TUOTUOHE, CH",2021-07-19,1956-01-01,34.217,4535.0,92.433,0.9997,METERS
CN,GHCND:CHM00056021,"QUMARLEB, CH",2021-07-19,1956-01-01,34.133,4176.0,95.783,0.9996,METERS
CN,GHCND:CHM00056029,"YUSHU, CH",2021-07-19,1951-01-01,33.0,3717.0,96.967,0.996,METERS
CN,GHCND:CHM00056033,"MADOI, CH",2021-07-19,1953-01-01,34.917,4273.0,98.217,0.9997,METERS
CN,GHCND:CHM00056046,"DARLAG, CH",2021-07-19,1956-01-01,33.75,3968.0,99.65,0.9996,METERS
CN,GHCND:CHM00056079,"RUO ERGAI, CH",2021-07-19,1962-01-01,33.583,3441.0,102.967,0.8399,METERS
CN,GHCND:CHM00056080,"HEZUO, CH",2021-07-19,1957-01-01,35.0,2910.0,102.9,0.9994,METERS
CN,GHCND:CHM00056096,"WUDU, CH",2021-07-19,1951-01-01,33.4,1079.0,104.917,0.999,METERS
CN,GHCND:CHM00056116,"DENGQEN, CH",2021-07-19,1954-01-01,31.417,3874.0,95.6,0.8485,METERS
CN,GHCND:CHM00056172,"BARKAM, CH",2021-07-19,1953-01-01,31.9,2666.0,102.233,0.9997,METERS
CN,GHCND:CHM00056182,"SONGPAN, CH",2021-07-19,1951-01-01,32.65,2852.0,103.567,0.9997,METERS
CN,GHCND:CHM00056257,"LITANG, CH",2021-07-19,1952-01-01,30.0,3950.0,100.267,0.9981,METERS
CN,GHCND:CHM00056294,"CHENGDU, CH",2021-07-19,1951-01-01,30.667,508.0,104.017,0.9995,METERS
CN,GHCND:CHM00056444,"DEQEN, CH",2021-07-19,1953-01-01,28.45,3320.0,98.883,0.9992,METERS
CN,GHCND:CHM00056462,"JIULONG, CH",2021-06-30,1952-01-01,29.0,2994.0,101.5,0.9822,METERS
CN,GHCND:CHM00056492,"YIBIN, CH",2021-07-19,1944-04-01,28.8,342.0,104.6,0.9291,METERS
CN,GHCND:CHM00056571,"XICHANG, CH",2021-07-19,1944-03-30,27.9,1599.0,102.267,0.9272,METERS
CN,GHCND:CHM00056651,"LIJING, CH",2021-07-19,1944-01-31,26.833,2394.0,100.467,0.9286,METERS
CN,GHCND:CHM00056671,"HUILI, CH",2021-07-19,1952-01-01,26.65,1788.0,102.25,0.9997,METERS
CN,GHCND:CHM00056739,"TENGCHONG, CH",2021-07-19,1951-01-01,25.117,1649.0,98.483,0.9998,METERS
CN,GHCND:CHM00056768,"CHUXIONG, CH",2021-07-19,1944-02-01,25.017,1820.0,101.517,0.9296,METERS
CN,GHCND:CHM00056778,"KUNMING, CH",2021-07-19,1942-07-13,25.017,1892.0,102.683,0.956,METERS
CN,GHCND:CHM00056954,"LANCANG, CH",2021-07-19,1954-01-01,22.567,1054.0,99.933,0.9998,METERS
CN,GHCND:CHM00056964,"SIMAO, CH",2021-07-19,1944-05-17,22.767,1303.0,100.983,0.9293,METERS
CN,GHCND:CHM00056985,"MENGZI, CH",2021-07-19,1945-03-01,23.383,1302.0,103.383,0.9311,METERS
CN,GHCND:CHM00057036,"XIAN, CH",2021-07-19,1951-01-01,34.3,479.0,108.933,0.9999,METERS
CN,GHCND:CHM00057067,"LUSHI, CH",2021-07-19,1952-01-01,34.05,570.0,111.033,0.9998,METERS
CN,GHCND:CHM00057083,"ZHENGZHOU, CH",2021-07-19,1951-01-01,34.717,111.0,113.65,0.9999,METERS
CN,GHCND:CHM00057127,"HANZHONG, CH",2021-07-19,1951-01-01,33.067,509.0,107.033,0.9992,METERS
CN,GHCND:KZ000036736,"BAHTY, KZ",2021-07-19,1894-12-01,46.65,441.0,82.75,0.5262,METERS
CN,GHCND:RSM00030781,"URJUPINO, RS",2021-07-19,1940-01-01,52.75,370.0,120.033,0.7536,METERS
CN,GHCND:RSM00031371,"CHERNJAEVO, RS",2021-06-21,1901-01-01,52.78,208.0,126.0,0.9851,METERS
CN,GHCND:CHM00051076,"ALTAY, CH",2021-07-19,1954-01-01,47.733,737.0,88.083,0.9996,METERS
CN,GHCND:CHM00052713,"DA QAIDAM, CH",2021-07-19,1956-01-01,37.85,3174.0,95.367,0.9998,METERS
CN,GHCND:CHM00053898,"ANYANG, CH",2021-07-19,1951-01-01,36.05,64.0,114.4,0.9997,METERS
CN,GHCND:CHM00054539,"LETING, CH",2021-07-19,1957-01-01,39.433,12.0,118.9,0.9998,METERS
CN,GHCND:CHM00056146,"GARZE, CH",2021-07-19,1951-01-01,31.617,3394.0,100.0,0.9985,METERS
CN,GHCND:CHM00059981,"XISHA DAO, CH",2021-07-19,1957-07-04,16.833,5.0,112.333,0.8192,METERS
CN,GHCND:CHM00050949,"QIAN GORLOS, CH",2021-07-19,1952-01-01,45.083,136.0,124.867,0.9997,METERS
CN,GHCND:CHM00052323,"MAZONG SHAN, CH",2021-07-19,1962-02-06,41.8,1770.0,97.033,0.8313,METERS
CN,GHCND:CHM00052418,"DUNHUANG, CH",2021-07-19,1951-01-01,40.15,1140.0,94.683,0.9986,METERS
CN,GHCND:CHM00053487,"DATONG, CH",2021-07-19,1955-01-01,40.1,1069.0,113.333,0.9997,METERS
CN,GHCND:CHM00053614,"YINCHUAN, CH",2021-07-19,1951-01-01,38.467,1112.0,106.2,0.9998,METERS
CN,GHCND:CHM00055591,"LHASA, CH",2021-07-19,1955-01-01,29.667,3650.0,91.133,0.9988,METERS
CN,GHCND:CHM00056951,"LINCANG, CH",2021-07-19,1953-01-01,23.95,1503.0,100.217,0.9996,METERS
CN,GHCND:CHM00057516,"CHONGQING, CH",2021-07-19,1944-11-11,29.583,416.0,106.467,0.9386,METERS
CN,GHCND:CHM00057745,"ZHIJIANG, CH",2021-07-19,1943-10-01,27.45,273.0,109.683,0.9548,METERS
CN,GHCND:CHM00058527,"JINGDEZHEN, CH",2021-07-19,1952-01-01,29.3,60.0,117.2,0.9998,METERS
CN,GHCND:CHM00058847,"FUZHOU, CH",2021-07-19,1953-01-01,26.083,14.0,119.283,0.9999,METERS
CN,GHCND:CHM00050658,"KESHAN, CH",2021-07-19,1951-01-01,48.05,237.0,125.883,0.9996,METERS
CN,GHCND:CHM00050968,"SHANGZHI, CH",2021-07-19,1952-01-01,45.217,191.0,127.967,0.9996,METERS
CN,GHCND:CHM00052602,"LENGHU, CH",2021-07-19,1956-01-01,38.833,2771.0,93.383,0.9996,METERS
CN,GHCND:CHM00052681,"MINQIN, CH",2021-07-19,1953-01-01,38.633,1367.0,103.083,0.9998,METERS
CN,GHCND:CHM00053723,"YANCHI, CH",2021-07-19,1954-01-01,37.8,1356.0,107.383,0.9998,METERS
CN,GHCND:CHM00053863,"JIEXIU, CH",2021-07-19,1954-01-01,37.033,745.0,111.917,0.9995,METERS
CN,GHCND:CHM00054527,"TIANJIN, CH",2021-07-19,1954-01-01,39.1,5.0,117.167,0.9997,METERS
CN,GHCND:CHM00056106,"SOG XIAN, CH",2021-07-19,1957-07-03,31.883,4024.0,93.783,0.7896,METERS
CN,GHCND:CHM00056137,"QAMDO, CH",2021-07-19,1954-01-01,31.15,3307.0,97.167,0.9292,METERS
CN,GHCND:CHM00057237,"WANYUAN, CH",2021-07-19,1952-01-01,32.067,674.0,108.033,0.9996,METERS
CN,GHCND:CHM00057265,"GUANGHUA, CH",2021-07-19,1951-01-01,32.383,91.0,111.667,0.9998,METERS
CN,GHCND:CHM00058102,"BOXIAN, CH",2021-07-19,1953-01-01,33.883,42.0,115.767,0.9998,METERS
CN,GHCND:CHM00059211,"BAISE, CH",2021-07-19,1951-01-01,23.9,177.0,106.6,0.9998,METERS
CN,GHCND:CHM00059948,"SANYA, CH",2021-07-19,1956-08-20,18.217,7.0,109.583,0.8733,METERS
FR,GHCND:FRE00104116,"TARBES OSSUN, FR",2021-07-19,1946-01-01,43.1881,360.0,0.0,0.999,METERS
FR,GHCND:FR000007130,"RENNES ST JACQUES, FR",2021-07-19,1944-11-01,48.0689,36.0,-1.7339,0.9998,METERS
FR,GHCND:FR000007150,"PARIS LE BOURGET, FR",2021-07-19,1900-01-01,48.8231,75.0,2.3367,0.9791,METERS
FR,GHCND:FR000007190,"STRASBOURG ENTZHEIM, FR",2021-07-19,1923-05-01,48.5492,150.0,7.6403,0.9784,METERS
FR,GHCND:FR000007255,"BOURGES, FR",2021-07-19,1945-03-01,47.0592,161.0,2.3594,0.9998,METERS
FR,GHCND:FR000007510,"BORDEAUX MERIGNAC, FR",2021-07-19,1901-01-01,44.8306,47.0,0.6914,0.9599,METERS
FR,GHCND:FR000007560,"MONT AIGOUAL, FR",2021-07-19,1896-01-01,44.1167,1567.0,3.5831,0.9776,METERS
FR,GHCND:FR000007650,"MARSEILLES MARIGNANE, FR",2021-07-19,1921-01-01,43.4378,9.0,5.2158,0.9769,METERS
FR,GHCND:FR000007747,"PERPIGNAN, FR",2021-07-19,1901-01-01,42.7369,42.0,2.8728,0.9939,METERS
FR,GHCND:FRE00104044,"CAEN CARPIQUET, FR",2021-07-19,1944-10-13,49.18,67.0,0.4558,0.9997,METERS
FR,GHCND:FRM00007280,"LONGVIC, FR",2021-07-19,1973-01-01,47.269,221.3,5.09,0.9787,METERS
FR,GHCND:FRM00007240,"VAL DE LOIRE, FR",2021-07-19,1973-01-01,47.432,108.8,0.728,0.9769,METERS
FR,GHCND:FRM00007471,"LOUDES, FR",2021-07-19,1983-12-01,45.081,832.4,3.763,0.9641,METERS
FR,GHCND:FRM00007591,"EMBRUN, FR",2021-02-17,1973-01-01,44.567,876.0,6.5,0.9925,METERS
FR,GHCND:FRM00007690,"COTE D AZUR, FR",2021-07-19,1945-10-01,43.658,3.7,7.216,0.6436,METERS
FR,GHCND:FRE00104124,"BASTIA, FR",2021-07-19,1945-05-18,42.5406,10.0,9.4853,0.9771,METERS
FR,GHCND:FRE00104484,"BREST GUIPAVAS, FR",2021-07-19,1945-01-01,48.4442,94.0,-4.4117,0.9999,METERS
FR,GHCND:FRE00106192,"BASEL MULHOUSE, FR",2020-12-31,1947-01-01,47.6142,263.0,7.51,1.0,METERS
FR,GHCND:FRM00007434,"BELLEGARDE, FR",2021-07-19,1973-01-04,45.863,396.2,1.179,0.996,METERS
FR,GHCND:FRE00171619,"TROYES BARBEREY, FR",2021-07-19,1975-05-01,48.3244,112.0,4.0197,0.9997,METERS
FR,GHCND:FRM00007314,CHASSIRON,2021-07-19,1973-01-02,46.05,22.0,-1.417,0.9657,METERS
FR,GHCND:FRE00171632,"NANCY OCHEY, FR",2021-07-19,1963-01-01,48.5808,336.0,5.9594,0.9897,METERS
FR,GHCND:FRM00007207,"BELLE ILE LE TALUT, FR",2021-07-19,1930-04-01,47.2942,34.0,-3.2181,0.9218,METERS
FR,GHCND:FRM00007222,"NANTES BOUGUENAIS, FR",2021-07-19,1945-05-01,47.15,26.0,-1.6089,0.9999,METERS
FR,GHCND:FR069029001,"LYON ST EXUPERY, FR",2021-07-19,1920-09-01,45.7264,235.0,5.0778,0.9983,METERS
FR,GHCND:FRE00104937,"PTE DE LA HAGUE, FR",2021-07-19,1880-01-01,49.7253,6.0,-1.9394,0.7708,METERS
FR,GHCND:FRE00104040,"LILLE LESQUIN, FR",2021-07-19,1944-12-01,50.57,47.0,3.0975,0.9988,METERS
TD,GHCND:CD000004750,"SARH, CD",2021-07-19,1950-01-01,9.15,0.0,18.38,0.652,METERS
TD,GHCND:CD000004700,"NDJAMENA, CD",2021-07-19,1950-01-01,12.13,295.0,15.03,0.6753,METERS
TD,GHCND:CD000004758,"MONGO, CD",2021-05-28,1950-01-01,12.18,430.0,18.68,0.4349,METERS
TD,GHCND:CD000064751,"ATI, CD",2021-03-05,1973-04-03,13.217,334.0,18.317,0.136,METERS
TD,GHCND:CD000064753,"FAYA, CD",2021-05-12,1973-02-12,18.0,234.0,19.167,0.2619,METERS
TD,GHCND:CD000064754,"AM TIMAN, CD",2021-05-27,1973-03-03,11.033,436.0,20.283,0.2154,METERS
TD,GHCND:CD000004756,"ABECHE, CD",2021-07-19,1950-01-01,13.85,549.0,20.85,0.547,METERS
TD,GHCND:CD000064706,"MOUNDOU, CD",2021-07-19,1950-08-01,8.567,429.0,16.067,0.6185,METERS
EE,GHCND:EN000026134,"KUUSIKU, EN",2021-07-19,1941-01-01,58.967,52.0,24.733,0.5862,METERS
GH,GHCND:GHM00065460,"AKUSE, GH",2021-07-19,1973-05-06,6.1,19.0,0.117,0.1322,METERS
GH,GHCND:GHM00065401,"NAVRONGO, GH",2021-07-19,1973-02-10,10.9,203.0,-1.1,0.191,METERS
GH,GHCND:GHM00065404,"WA, GH",2021-07-19,1973-02-10,10.083,323.1,-2.508,0.2836,METERS
GH,GHCND:GHM00065418,"TAMALE, GH",2021-07-19,1973-01-04,9.557,168.6,-0.863,0.2275,METERS
GH,GHCND:GHM00065432,"WENCHI, GH",2021-07-17,1973-07-23,7.75,340.0,-2.1,0.229,METERS
GH,GHCND:GHM00065442,"KUMASI, GH",2021-07-19,1973-01-04,6.715,287.1,-1.591,0.2873,METERS
GH,GHCND:GHM00065445,"SEFWI BEKWAI, GH",2021-07-19,1976-04-17,6.2,172.0,-2.333,0.2572,METERS
GH,GHCND:GHM00065467,"TAKORADI, GH",2021-07-19,1973-01-03,4.896,6.4,-1.775,0.2529,METERS
GH,GHCND:GHM00065437,"KETE KRACHI, GH",2021-05-02,1976-08-05,7.817,122.0,-0.033,0.1726,METERS
AT,GHCND:AU000005010,"KREMSMUENSTER, AU",2021-07-19,1876-01-01,48.05,383.0,14.1331,0.9974,METERS
AT,GHCND:AU000005901,"WIEN, AU",2021-07-19,1855-02-01,48.2331,199.0,16.35,0.9962,METERS
AT,GHCND:AU000006306,"SALZBURG, AU",2021-07-19,1874-01-01,47.8,437.0,13.0,0.9447,METERS
AT,GHCND:AU000011801,"INNSBRUCK, AU",2021-07-19,1877-01-01,47.2667,577.0,11.4,0.9196,METERS
AT,GHCND:AU000016402,"GRAZ, AU",2021-07-19,1894-01-01,47.0831,366.0,15.45,0.962,METERS
AT,GHCND:AUM00011155,"FEUERKOGEL, AU",2021-07-19,1965-05-26,47.817,1620.1,13.717,0.8648,METERS
AT,GHCND:AUM00011231,"KLAGENFURT CIV MIL, AU",2021-07-19,1952-01-01,46.65,452.0,14.333,0.9176,METERS
AT,GHCND:SIE00115206,"RATECE PLANICA, IT",2021-05-31,1960-12-31,46.5,864.0,13.7,0.999,METERS
FK,GHCND:AYM00088963,"BASE ESPERANZA, AY",2021-07-19,1961-01-01,-63.4,24.0,-56.983,0.8793,METERS
FK,GHCND:AYM00089058,"GREAT WALL, AY",2021-07-16,1986-01-02,-62.217,10.0,-58.967,0.709,METERS
FK,GHCND:FKM00088889,"MOUNT PLEASANT, FK",2021-07-19,1985-07-09,-51.823,74.4,-58.447,0.9847,METERS
IN,GHCND:IN005100100,VERAVAL,2021-07-19,1901-01-01,20.9,8.0,70.367,0.7853,METERS
IN,GHCND:IN011140700,"GUNA, IN",2021-07-19,1931-01-01,24.65,478.0,77.317,0.6516,METERS
IN,GHCND:IN001020700,"PBO ANANTAPUR, IN",2021-07-19,1910-08-12,14.583,364.0,77.633,0.7799,METERS
IN,GHCND:IN001050200,"KAKINADA, IN",2021-07-19,1901-01-01,16.95,8.0,82.233,0.7803,METERS
IN,GHCND:IN001090500,"RAMGUNDAM, IN",2021-07-19,1951-01-01,18.767,156.0,79.433,0.5435,METERS
IN,GHCND:IN001111600,"VIJAYAWADA GANNAVA, IN",2021-07-19,1951-01-01,16.533,24.0,80.8,0.3449,METERS
IN,GHCND:IN001120100,"KURNOOL, IN",2021-07-19,1901-01-01,15.8,281.0,78.067,0.7679,METERS
IN,GHCND:IN001190700,KALINGAPATAM,2021-07-19,1906-08-01,18.333,6.0,84.133,0.5842,METERS
IN,GHCND:IN001200200,"VISHAKHAPATNAM, IN",2021-07-19,1901-01-01,17.717,3.0,83.233,0.635,METERS
IN,GHCND:IN003050500,"DIBRUGARH MOHANBAR, IN",2021-07-19,1942-09-02,27.483,111.0,95.017,0.6036,METERS
IN,GHCND:IN021012000,"KAILASHAHAR, IN",2021-07-10,1945-01-19,24.317,30.0,92.0,0.183,METERS
IN,GHCND:IN003020100,"TEZPUR, IN",2021-07-19,1901-07-01,26.617,79.0,92.783,0.7287,METERS
IN,GHCND:IN014020300,"SHILLONG, IN",2021-07-19,1902-06-12,25.567,1598.0,91.883,0.5661,METERS
IN,GHCND:IN004102500,"PATNA, IN",2021-07-19,1946-05-01,25.6,60.0,85.1,0.6668,METERS
IN,GHCND:IN004091000,"DALTONGANJ, IN",2021-07-19,1901-01-01,24.05,221.0,84.067,0.5936,METERS
IN,GHCND:IN004110600,"PURNEA, IN",2021-07-19,1901-01-01,25.267,38.0,87.467,0.5887,METERS
IN,GHCND:IN004122600,"M.O. RANCHI, IN",2021-07-19,1956-01-01,23.317,652.0,85.317,0.5707,METERS
IN,GHCND:IN005010600,"AHMADABAD, IN",2021-07-19,1901-01-01,23.067,55.0,72.633,0.8024,METERS
IN,GHCND:IN005030100,"DEESA, IN",2021-06-02,1901-01-01,24.2,136.0,72.2,0.5803,METERS
IN,GHCND:IN005090100,"DWARKA, IN",2021-07-19,1901-01-13,22.367,11.0,69.083,0.5826,METERS
IN,GHCND:IN005120501,"BHUJ RUDRAMATA, IN",2021-07-19,1955-01-01,23.25,80.0,69.667,0.732,METERS
IN,GHCND:IN005050100,"BHAUNAGAR, IN",2021-07-19,1901-01-01,21.75,11.0,72.2,0.5058,METERS
IN,GHCND:IN006011400,"CHANDIGARH IAFB, IN",2021-07-19,1954-01-08,30.733,347.0,76.883,0.2725,METERS
IN,GHCND:IN006031000,"HISSAR, IN",2021-07-19,1914-05-22,29.167,221.0,75.733,0.7327,METERS
IN,GHCND:IN008010200,"SRINAGAR, IN",2021-07-19,1901-01-01,34.083,1587.0,74.833,0.7411,METERS
IN,GHCND:IN008040500,"JAMMU, IN",2021-07-19,1960-04-11,32.667,367.0,74.833,0.1423,METERS
IN,GHCND:IN009010100,"BANGALORE, IN",2021-07-19,1901-01-01,12.967,921.0,77.583,0.8181,METERS
IN,GHCND:IN009120100,"KARWAR, IN",2021-07-19,1901-01-01,14.783,4.0,74.133,0.59,METERS
IN,GHCND:IN009090300,"GADAG, IN",2021-07-19,1931-01-01,15.417,650.0,75.633,0.7269,METERS
IN,GHCND:IN009100200,"GULBARGA, IN",2021-06-20,1901-01-01,17.35,458.0,76.85,0.5715,METERS
IN,GHCND:IN010021200,CANNUR,2021-07-19,1975-01-01,11.833,18.0,75.333,0.2187,METERS
IN,GHCND:IN010100700,"THIRUVANANTHAPURAM, IN",2021-07-19,1955-08-13,8.467,8.0,76.95,0.3596,METERS
IN,GHCND:IN011020300,"JAGDALPUR, IN",2021-07-19,1910-01-01,19.083,553.0,82.033,0.6973,METERS
IN,GHCND:IN011351500,"BHOPAL BAIRAGARH, IN",2021-07-19,1951-01-01,23.283,523.0,77.35,0.7114,METERS
IN,GHCND:IN011170400,"INDORE, IN",2021-07-19,1901-01-01,22.717,567.0,75.8,0.797,METERS
IN,GHCND:IN011180800,"JABALPUR, IN",2021-07-19,1901-01-01,23.2,393.0,79.95,0.7762,METERS
IN,GHCND:IN011291000,"RAIPUR, IN",2021-07-19,1901-01-01,21.217,294.0,81.667,0.7118,METERS
IN,GHCND:IN011330900,"SAGAR, IN",2021-06-30,1901-01-01,23.85,551.0,78.75,0.5873,METERS
IN,GHCND:IN011340100,"SATNA, IN",2021-07-19,1901-01-01,24.567,317.0,80.833,0.7064,METERS
IN,GHCND:IN011410500,"AMBIKAPUR, IN",2021-07-19,1951-01-01,23.167,611.0,83.25,0.3097,METERS
IN,GHCND:IN012020100,"AKOLA, IN",2021-07-19,1901-01-01,20.7,282.0,77.033,0.616,METERS
IN,GHCND:IN012051400,"GONDIA, IN",2021-07-19,1951-01-01,21.467,313.0,80.2,0.3074,METERS
IN,GHCND:IN012090600,"CHANDRAPUR, IN",2021-07-19,1901-01-01,19.967,193.0,79.3,0.5815,METERS
IN,GHCND:IN012212400,"SANGLI, IN",2021-06-02,1970-01-01,16.85,549.0,74.6,0.0195,METERS
IN,GHCND:IN012141800,"NAGPUR SONEGAON, IN",2021-07-19,1943-01-01,21.1,310.0,79.05,0.6614,METERS
IN,GHCND:IN012161300,"NASIK OZAR, IN",2021-07-19,1965-01-14,20.133,608.0,73.917,0.1094,METERS
IN,GHCND:IN012180300,"PARBHANI, IN",2021-03-11,1913-05-01,19.133,422.0,76.833,0.5316,METERS
IN,GHCND:IN012220400,"MAHABALESHWAR, IN",2021-07-19,1901-01-01,17.933,1382.0,73.667,0.5958,METERS
IN,GHCND:IN012230300,"SHOLAPUR, IN",2021-07-19,1901-01-01,17.667,479.0,75.9,0.7941,METERS
IN,GHCND:IN013010200,"IMPHAL, IN",2021-07-19,1944-12-06,24.667,774.0,93.9,0.4376,METERS
IN,GHCND:IN017010300,"BALASORE, IN",2021-07-19,1901-01-01,21.517,20.0,86.933,0.764,METERS
IN,GHCND:IN017060500,"GOPALPUR, IN",2021-07-19,1901-01-01,19.267,17.0,84.883,0.594,METERS
IN,GHCND:IN017111200,"BHUBANESWAR, IN",2021-07-19,1918-04-01,20.25,46.0,85.833,0.5935,METERS
IN,GHCND:IN017121000,"JHARSUGUDA, IN",2021-07-19,1949-08-11,21.917,230.0,84.083,0.5377,METERS
IN,GHCND:IN019010300,"AJMER, IN",2021-07-19,1901-01-01,26.45,486.0,74.617,0.585,METERS
IN,GHCND:IN019040100,"BARMER, IN",2021-07-19,1931-01-01,25.75,194.0,71.383,0.4779,METERS
IN,GHCND:IN019070100,"BIKANER, IN",2021-06-20,1901-01-01,28.0,224.0,73.3,0.7692,METERS
IN,GHCND:IN019100500,"CHURU, IN",2021-07-19,1956-03-12,28.25,291.0,74.917,0.2435,METERS
IN,GHCND:IN019120700,"GANGANAGAR, IN",2021-07-19,1951-01-01,29.917,177.0,73.917,0.3313,METERS
IN,GHCND:IN019131301,"JAIPUR SANGANER, IN",2021-07-19,1957-07-01,26.817,390.0,75.8,0.7835,METERS
IN,GHCND:IN019140400,"JAISALMER, IN",2021-07-19,1949-01-01,26.9,231.0,70.917,0.547,METERS
IN,GHCND:IN019180500,"JODHPUR, IN",2021-07-19,1901-01-01,26.3,224.0,73.017,0.7562,METERS
IN,GHCND:IN019191200,"KOTA AERODROME, IN",2021-07-19,1961-07-01,25.15,274.0,75.85,0.6783,METERS
IN,GHCND:IN019261900,"UDAIPUR DABOK, IN",2021-07-19,1965-01-12,24.617,514.0,73.883,0.3009,METERS
IN,GHCND:IN020011100,"VELLORE, IN",2021-07-19,1901-01-01,12.917,214.0,79.15,0.54,METERS
IN,GHCND:IN022043500,"KARAIKAL, IN",2021-07-19,1975-07-08,10.917,7.0,79.833,0.3586,METERS
IN,GHCND:IN020031700,"COIMBATORE PEELAMED, IN",2021-07-19,1948-10-01,11.033,399.0,77.05,0.6681,METERS
IN,GHCND:IN020081700,"MADURAI, IN",2021-07-19,1958-10-17,9.833,131.0,78.083,0.2318,METERS
IN,GHCND:IN020100500,TONDI,2021-07-19,1959-06-15,9.733,5.0,79.033,0.2076,METERS
IN,GHCND:IN020110800,"SALEM, IN",2021-07-19,1901-01-01,11.65,278.0,78.167,0.5835,METERS
IN,GHCND:IN020130700,"TIRUCHCHIRAPALLI, IN",2021-07-19,1901-01-01,10.767,88.0,78.717,0.7902,METERS
IN,GHCND:IN022021900,"NEW DELHI SAFDARJUN, IN",2021-07-19,1901-01-01,28.583,216.0,77.2,0.8125,METERS
IN,GHCND:IN023060800,"BAHRAICH, IN",2021-07-19,1901-01-01,27.567,124.0,81.6,0.5918,METERS
IN,GHCND:IN023101700,"BAREILLY, IN",2021-07-19,1901-01-01,28.367,169.0,79.4,0.6873,METERS
IN,GHCND:IN023522100,"TEHRI, IN",2021-07-17,1956-01-01,30.4,899.0,78.483,0.242,METERS
IN,GHCND:IN023261300,"GORAKHPUR, IN",2021-07-19,1901-01-01,26.75,77.0,83.367,0.7142,METERS
IN,GHCND:IN011150300,"GWALIOR, IN",2021-07-19,1940-08-01,26.233,207.0,78.25,0.6783,METERS
IN,GHCND:IN023351400,"LUCKNOW AMAUSI, IN",2021-07-19,1951-01-01,26.75,128.0,80.883,0.7032,METERS
IN,GHCND:IN023550300,"VARANASI BABATPUR, IN",2021-07-19,1951-01-01,25.45,85.0,82.867,0.356,METERS
IN,GHCND:IN024080100,"JALPAIGURI, IN",2021-07-19,1901-01-02,26.533,83.0,88.717,0.5855,METERS
IN,GHCND:IN024141500,"CALCUTTA DUM DUM, IN",2021-07-19,1943-08-31,22.65,6.0,88.45,0.693,METERS
IN,GHCND:IN099990101,M.O. AMINI,2021-07-19,1901-01-10,11.117,3.0,72.733,0.4356,METERS
IN,GHCND:IN099999901,"PORT BLAIR, IN",2021-07-19,1901-01-01,11.667,79.0,92.717,0.7476,METERS
IN,GHCND:INM00042071,"AMRITSAR, IN",2021-07-19,1973-01-01,31.71,230.4,74.797,0.928,METERS
IN,GHCND:INM00042475,"ALLAHABAD, IN",2021-04-19,1942-07-27,25.441,98.1,81.735,0.4456,METERS
IN,GHCND:IN023420800,"MUKTESHWAR KUMAON, IN",2021-07-19,1901-01-01,29.467,2311.0,79.65,0.5901,METERS
IN,GHCND:IN009070100,"CHITRADURGA, IN",2021-07-19,1901-01-01,14.233,733.0,76.433,0.7911,METERS
IN,GHCND:IN009130300,"MANGALORE BAJPE, IN",2021-07-19,1956-06-01,12.917,102.0,74.883,0.7168,METERS
IN,GHCND:IN012041000,"AURANGABAD CHIKALTH, IN",2021-07-19,1951-10-08,19.85,579.0,75.4,0.6755,METERS
IN,GHCND:IN012070800,"BOMBAY SANTACRUZ, IN",2021-07-19,1949-10-01,19.117,14.0,72.85,0.7343,METERS
IN,GHCND:IN001080500,"BEGUMPET OBSERVATORY, IN",2021-07-19,1901-01-01,17.45,527.0,78.47,0.818,METERS
IN,GHCND:IN001170800,"NIZAMABAD, IN",2021-07-19,1901-01-01,18.667,381.0,78.1,0.5747,METERS
IN,GHCND:IN005150100,"RAJKOT, IN",2021-07-19,1901-01-01,22.3,138.0,70.783,0.7844,METERS
IN,GHCND:IN001160200,"NELLORE, IN",2021-07-19,1901-01-01,14.45,20.0,79.983,0.7908,METERS
IN,GHCND:IN011060800,"PENDRA ROAD, IN",2021-07-19,1903-06-23,22.767,625.0,81.9,0.7552,METERS
IN,GHCND:IN020040900,"MADRAS MINAMBAKKAM, IN",2021-07-19,1901-01-01,13.0,16.0,80.183,0.8247,METERS
CL,GHCND:AYM00089324,"BYRD STATION, AY",2021-07-19,1990-05-10,-80.0,1530.0,-119.4,0.4658,METERS
CL,GHCND:CI000085406,"ARICA, CI",2021-07-19,1957-07-01,-18.35,58.0,-70.333,0.7915,METERS
CL,GHCND:CI000085442,"ANTOFAGASTA, CI",2021-07-19,1946-11-13,-23.433,140.0,-70.45,0.7243,METERS
CL,GHCND:CI000085469,"ISLA DE PASCUA, CI",2021-07-19,1965-05-03,-27.167,69.0,-109.433,0.7976,METERS
CL,GHCND:CI000085488,"LA SERENA, CI",2021-07-19,1957-07-01,-29.917,146.0,-71.2,0.8035,METERS
CL,GHCND:CI000085629,"CURICO, CI",2021-07-19,1957-09-08,-34.967,225.0,-71.233,0.6681,METERS
CL,GHCND:CI000085743,"TEMUCO, CI",2021-07-19,1963-01-03,-38.75,114.0,-72.633,0.7603,METERS
CL,GHCND:CI000085799,"PUERTO MONTT, CI",2021-07-19,1963-08-07,-41.433,90.0,-73.1,0.862,METERS
CL,GHCND:CI000085874,"BALMACEDA, CI",2021-07-19,1973-01-24,-45.917,525.0,-71.7,0.9452,METERS
CL,GHCND:CI000085934,"PUNTA ARENAS, CI",2021-07-19,1963-07-02,-53.0,37.0,-70.967,0.8506,METERS
CL,GHCND:CIM00085418,"DIEGO ARACENA INTERNATIONAL, CI",2021-07-19,1973-01-21,-20.535,47.2,-70.181,0.7781,METERS
CL,GHCND:CIM00085577,"QUINTA NORMAL, CI",2021-07-19,1946-11-13,-33.433,520.0,-70.683,0.2187,METERS
CL,GHCND:CIM00085682,"CARRIEL SUR INTERNATIONAL, CI",2021-07-19,1973-01-03,-36.773,7.9,-73.063,0.9889,METERS
CL,GHCND:CIM00085766,"PICHOY, CI",2021-07-19,1973-02-16,-39.65,18.0,-73.086,0.8343,METERS
CL,GHCND:CI000085585,JUAN FERNANDEZ,2021-07-19,1963-01-06,-33.633,30.0,-75.817,0.6772,METERS
ZA,GHCND:AYM00089512,"NOVOLAZAREVSKAJA, AY",2021-07-19,1973-01-01,-70.767,119.0,11.833,0.7665,METERS
ZA,GHCND:SF000068296,"SKUKUZA, SF",2021-07-19,1911-09-01,-24.983,271.0,31.6,0.7295,METERS
ZA,GHCND:SF000414170,"MALMESBURY, SF",2021-07-19,1877-12-01,-33.467,102.0,18.717,0.8743,METERS
ZA,GHCND:SF000782270,"FORT BEAUFORT, SF",2021-07-19,1877-11-01,-32.783,455.0,26.633,0.8707,METERS
ZA,GHCND:SF000068920,CAPE AGULHAS,2021-07-19,1894-01-01,-34.833,14.0,20.017,0.6411,METERS
ZA,GHCND:SF000068994,"MARION ISLAND, SF",2021-07-19,1949-01-01,-46.883,21.0,37.867,0.8551,METERS
ZA,GHCND:SF000104560,"RIVERSDALE, SF",2021-07-19,1877-11-01,-34.083,116.0,21.25,0.567,METERS
ZA,GHCND:SF000288380,"GEORGE AIRPORT, SF",2021-07-19,1877-11-01,-34.017,190.0,22.383,0.8833,METERS
ZA,GHCND:SFM00068842,"PORT ELIZABETH INTERNATIONAL, SF",2021-07-19,1973-01-14,-33.985,68.9,25.617,0.9517,METERS
ZA,GHCND:SF000456110,"LAINGSBURG, SF",2021-07-19,1901-01-01,-33.2,656.0,20.867,0.7948,METERS
ZA,GHCND:SF000508870,"WILLOWMORE, SF",2021-07-19,1877-12-01,-33.283,842.0,23.5,0.6042,METERS
ZA,GHCND:SF000981900,"CRADOCK, SF",2021-02-10,1877-12-01,-32.167,102.0,25.617,0.6253,METERS
ZA,GHCND:SF001130250,"FRASERBURG, SF",2021-07-19,1878-01-01,-31.917,1268.0,21.517,0.5931,METERS
ZA,GHCND:SF001290070,"CAPE HERMES, SF",2021-07-18,1923-05-01,-31.633,47.0,29.55,0.7547,METERS
ZA,GHCND:SF001344780,"CALVINIA, SF",2021-07-19,1905-07-01,-31.467,975.0,19.767,0.7634,METERS
ZA,GHCND:SF001447910,"NOUPOORT, SF",2021-07-19,1884-10-01,-31.183,1496.0,24.95,0.6713,METERS
ZA,GHCND:SF001771780,"BARKLY EAST, SF",2021-07-19,1884-03-01,-30.933,1819.0,27.6,0.8503,METERS
ZA,GHCND:SFM00068588,"DURBAN INTERNATIONAL, SF",2021-04-22,1973-01-14,-29.97,10.1,30.951,0.9382,METERS
ZA,GHCND:SF002613650,"BLOEMFONTEIN AIRPOR, SF",2021-07-19,1909-02-01,-29.1,1354.0,26.3,0.8174,METERS
ZA,GHCND:SF002760720,"VIOOLSDRIF, SF",2021-07-19,1952-06-01,-28.7,168.0,17.6,0.7109,METERS
ZA,GHCND:SF003336820,"VAN REENEN, SF",2021-07-19,1913-08-01,-28.367,1680.0,29.383,0.6572,METERS
ZA,GHCND:SF002966820,"FICKSBURG, SF",2021-07-19,1905-11-01,-28.817,1614.0,27.9,0.8165,METERS
ZA,GHCND:SF004722810,"LICHTENBURG, SF",2021-07-19,1903-10-01,-26.133,1487.0,26.167,0.6878,METERS
ZA,GHCND:SF003211100,"POSTMASBURG, SF",2021-07-19,1917-06-01,-28.333,1321.0,23.067,0.756,METERS
ZA,GHCND:SF005547860,"LYDENBURG, SF",2020-12-27,1904-01-01,-25.1,1425.0,30.467,0.6386,METERS
ZA,GHCND:SFM00068263,"PRETORIA IRENE, SF",2021-07-19,1991-01-08,-25.917,1500.0,28.217,0.8563,METERS
ZA,GHCND:SF000068438,"KIMBERLEY, SF",2021-07-19,1940-01-01,-28.8,1196.0,24.767,0.8561,METERS
ZA,GHCND:SF003174470,"UPINGTON AGR., SF",2021-07-19,1951-05-11,-28.45,794.0,21.25,0.9622,METERS
ZA,GHCND:SF002146700,"SPRINGBOK, SF",2021-07-19,1878-01-01,-29.667,1007.0,17.9,0.8771,METERS
ZA,GHCND:SF003044460,"MTUNZINI, SF",2021-07-19,1916-01-01,-28.95,38.0,31.7,0.8465,METERS
ZA,GHCND:SF003605120,"TAUNG, SF",2021-07-19,1898-01-01,-27.55,1100.0,24.767,0.7924,METERS
ZA,GHCND:SF004371040,"POTCHEFSTROOM, SF",2021-04-30,1903-01-01,-26.733,1351.0,27.067,0.7643,METERS
ZA,GHCND:SF003724960,"VRYHEID, SF",2021-07-19,1925-08-01,-27.783,1163.0,30.8,0.726,METERS
TF,GHCND:AYM00089532,SYOWA,2021-07-19,1973-01-29,-69.0,21.0,39.583,0.8242,METERS
TF,GHCND:AYM00089542,MOLODEZNAJA,2021-07-19,1973-01-02,-67.667,50.0,45.85,0.4154,METERS
TF,GHCND:AYM00089564,MAWSON,2021-07-19,1954-03-01,-67.6,16.0,62.867,0.9444,METERS
TF,GHCND:AYM00089571,DAVIS,2021-07-19,1957-03-01,-68.583,13.0,77.95,0.8684,METERS
TF,GHCND:AYM00089573,ZHONGSHAN,2021-07-19,1990-03-10,-69.367,18.0,76.367,0.4825,METERS
TF,GHCND:AYM00089574,PROGRESS,2021-07-19,1988-04-01,-69.383,64.0,76.383,0.5615,METERS
TF,GHCND:AYM00089592,MIRNYJ,2021-07-19,1973-01-01,-66.55,40.0,93.017,0.7674,METERS
TF,GHCND:FRM00061998,"PORT AUX FRANCAIS ILES KERGU, FS",2021-07-19,1973-01-16,-49.35,30.0,70.25,0.8868,METERS
TF,GHCND:FSM00061997,"ALFRED FAURE ILES CROZET, FS",2021-07-08,1976-06-06,-46.433,142.0,51.85,0.7642,METERS
AQ,GHCND:AYM00089667,PEGASUS NORTH,2021-02-13,1990-05-10,-77.95,10.0,166.5,0.4806,METERS
AQ,GHCND:AYM00089864,MANUELA,2021-07-19,1990-05-10,-74.95,80.0,163.683,0.7342,METERS
AQ,GHCND:AYM00089865,WHITLOCK,2021-07-19,1990-05-10,-76.133,274.0,168.383,0.2305,METERS
AQ,GHCND:AYM00089868,SCHWERDTFEGER,2021-07-19,1990-05-10,-79.9,60.0,169.983,0.6564,METERS
AQ,GHCND:AYM00089869,MARILYN,2021-07-17,1990-05-13,-79.95,75.0,165.117,0.5925,METERS
AQ,GHCND:AYM00089872,FERRELL,2021-07-19,1990-05-10,-77.9,45.0,170.817,0.4937,METERS
AQ,GHCND:AYW00087602,MARBLE POINT,2021-07-19,1957-12-19,-77.41667,48.2,163.68333,0.4492,METERS
BH,GHCND:BA000041150,"BAHRAIN INT. AIRPORT, BA",2021-07-19,1944-03-19,26.267,2.0,50.65,0.5203,METERS
BW,GHCND:BC000068032,"MAUN, BC",2021-07-19,1921-10-01,-19.983,943.0,23.417,0.77,METERS
BW,GHCND:BC004612080,"TWEE RIVIEREN, BC",2021-07-19,1960-09-01,-26.467,879.0,20.617,0.6023,METERS
BW,GHCND:BC008382520,"GHANZI, BC",2021-06-28,1922-01-01,-21.7,1100.0,21.65,0.7672,METERS
BW,GHCND:BC008948490,"FRANCISTOWN, BC",2021-05-25,1922-01-01,-21.217,1001.0,27.5,0.7784,METERS
BW,GHCND:BC012192590,"KASANE, BC",2021-07-18,1921-10-01,-17.817,1002.0,25.15,0.7788,METERS
BM,GHCND:BDM00078016,"L F WADE INTERNATIONAL AIRPORT KINDLEY FIELD, BD",2021-07-19,1941-12-03,32.3667,6.1,-64.6833,0.7937,METERS
BE,GHCND:BE000006447,"UCCLE, BE",2021-07-19,1833-01-02,50.8,104.0,4.35,0.9787,METERS
BE,GHCND:NLE00102057,"PHILIPPINE, NL",2021-05-10,1950-12-31,51.2831,2.0,3.75,0.9996,METERS
BE,GHCND:NLE00109074,"EPEN L, NL",2021-05-10,1980-07-31,50.7667,155.0,5.9,0.9992,METERS
BE,GHCND:NLE00109228,"NOORBEEK, NL",2021-05-10,1950-12-31,50.7667,160.0,5.8167,0.9996,METERS
BE,GHCND:NLE00109296,"ST KRUIS, NL",2021-05-10,1950-12-31,51.2667,1.0,3.5,0.9996,METERS
BE,GHCND:NLE00109308,"STRAMPROY, NL",2021-05-10,1950-12-31,51.1831,31.0,5.7167,0.9996,METERS
BS,GHCND:BF000078073,"NASSAU AIRPORT NEW, BF",2021-07-19,1961-01-01,25.05,5.0,-77.467,0.8285,METERS
BD,GHCND:BGM00041859,"RANGPUR, BG",2021-03-01,1982-01-10,25.733,34.0,89.233,0.5934,METERS
BD,GHCND:BGM00041883,"BOGRA, BG",2021-03-01,1982-01-01,24.85,20.0,89.367,0.6719,METERS
BD,GHCND:BGM00041891,"OSMANY INTERNATIONAL, BG",2021-03-01,1944-01-31,24.963,15.2,91.867,0.349,METERS
BD,GHCND:BGM00041907,"ISHURDI, BG",2021-03-01,1982-01-05,24.153,13.7,89.049,0.6297,METERS
BD,GHCND:BGM00041923,"TEJGAON, BG",2021-03-01,1945-02-28,23.779,7.3,90.383,0.3634,METERS
BD,GHCND:BGM00041936,"JESSORE, BG",2021-03-01,1982-01-02,23.184,6.1,89.161,0.6342,METERS
BD,GHCND:BGM00041950,"BARISAL, BG",2021-03-01,1961-01-15,22.75,4.0,90.367,0.2672,METERS
BD,GHCND:BGM00041978,"SHAH AMANAT INTERNATIONAL, BG",2021-07-19,1982-01-12,22.25,3.7,91.813,0.8344,METERS
BD,GHCND:BGM00041992,"COXS BAZAR, BG",2021-03-01,1982-01-17,21.452,3.7,91.964,0.5891,METERS
BZ,GHCND:BHM00078583,"PHILIP S W GOLDSON INTERNATIONAL, BH",2021-07-19,1960-11-07,17.539,4.6,-88.308,0.6635,METERS
BA,GHCND:BKM00014652,"BJELASNICA, BK",2021-07-19,1897-10-01,44.0667,2067.0,18.2667,0.5779,METERS
BA,GHCND:BKM00014654,"SARAJEVO, BK",2021-07-19,1901-01-01,43.8678,630.0,18.4228,1.0,METERS
OM,GHCND:MUM00041268,"SUR, MU",2021-07-19,1983-01-01,22.533,14.0,59.483,0.9707,METERS
OM,GHCND:MUM00041256,"SEEB INTERNATIONAL, MU",2021-07-19,1983-01-01,23.593,14.6,58.284,0.8927,METERS
OM,GHCND:MU000041288,"MASIRAH, MU",2020-08-23,1943-05-11,20.667,19.0,58.9,0.495,METERS
OM,GHCND:MUM00041262,"FAHUD AUT, MU",2020-08-23,1987-09-15,22.35,170.0,56.483,0.6924,METERS
OM,GHCND:MUM00041304,"MARMUL, MU",2020-08-23,1987-09-15,18.133,273.0,55.183,0.6548,METERS
OM,GHCND:MUM00041316,"SALALAH, MU",2021-07-19,1943-04-13,17.039,22.3,54.091,0.7014,METERS
OM,GHCND:MUM00041246,"SOHAR MAJIS, MU",2021-07-19,1983-01-01,24.467,4.0,56.633,0.9582,METERS
MZ,GHCND:MZ000067261,"TETE, MZ",2021-07-19,1952-09-01,-16.183,150.0,33.583,0.661,METERS
MZ,GHCND:MZ000067215,"PEMBA, MZ",2021-07-19,1973-01-20,-12.983,50.0,40.533,0.6529,METERS
MZ,GHCND:MZ000067217,"LICHINGA, MZ",2021-07-19,1951-04-01,-13.3,1365.0,35.233,0.7497,METERS
MZ,GHCND:MZ000067237,"NAMPULA, MZ",2021-07-19,1956-12-01,-15.1,441.0,39.283,0.7896,METERS
MZ,GHCND:MZ000067295,"CHIMOIO, MZ",2021-07-19,1951-01-01,-19.117,732.0,33.467,0.7403,METERS
MZ,GHCND:MZ000067297,"BEIRA, MZ",2021-07-19,1951-01-01,-19.8,16.0,34.9,0.7168,METERS
MZ,GHCND:MZ000067323,"INHAMBANE, MZ",2021-07-19,1951-01-01,-23.867,15.0,35.383,0.8014,METERS
MZ,GHCND:MZM00067223,"MONTEPUEZ, MZ",2020-12-30,1974-04-05,-13.133,535.0,39.033,0.1768,METERS
MZ,GHCND:MZM00067241,"LUMBO, MZ",2021-07-18,1973-08-07,-15.033,10.1,40.672,0.2153,METERS
MZ,GHCND:MZM00067341,"MAPUTO, MZ",2021-07-19,1973-01-02,-25.921,44.2,32.573,0.8534,METERS
MZ,GHCND:MZM00067315,"VILANKULO, MZ",2021-07-19,1973-02-27,-22.018,14.0,35.313,0.4293,METERS
MZ,GHCND:MZ000067283,QUELIMANE,2021-07-19,1951-01-01,-17.883,16.0,36.883,0.7997,METERS
MZ,GHCND:MZ000067335,"XAI XAI, MZ",2021-07-19,1951-01-01,-25.05,5.0,33.633,0.7278,METERS
MZ,GHCND:MZM00067273,"ANGOCHE, MZ",2021-07-19,1973-07-28,-16.217,62.0,39.9,0.1927,METERS
NL,GHCND:NLE00109226,"NIJKERK, NL",2021-05-10,1950-12-31,52.2331,0.0,5.4667,0.9996,METERS
KY,GHCND:CJW00011813,"ROBERTS, CJ",2021-07-19,1966-02-01,19.3,3.0,-81.36667,0.7774,METERS
CC,GHCND:CK000096996,COCOS ISLAND AERO,2021-07-19,1949-08-19,-12.183,4.0,96.833,0.9142,METERS
CM,GHCND:CM000004910,"DOUALA, CM",2021-07-19,1948-01-01,4.02,13.0,9.72,0.5449,METERS
CM,GHCND:CMM00064860,"GAROUA, CM",2021-07-19,1973-01-11,9.336,242.0,13.37,0.7349,METERS
CM,GHCND:CMM00064851,"SALAK, CM",2021-07-19,1973-01-11,10.451,424.0,14.257,0.4032,METERS
CM,GHCND:CM000064870,"NGAOUNDERE, CM",2021-07-19,1973-01-11,7.35,1104.0,13.567,0.5597,METERS
CO,GHCND:COM00080002,"EL EMBRUJO, CO",2021-07-19,1979-04-23,13.357,3.0,-81.358,0.2814,METERS
CO,GHCND:CO000080222,"BOGOTA ELDORADO, CO",2021-07-19,1941-03-02,4.701,2548.0,-74.15,0.7859,METERS
CO,GHCND:CO000080342,"PASTO ANTONIO NARIN, CO",2021-07-13,1957-01-01,1.417,1826.0,-77.267,0.7863,METERS
CO,GHCND:COM00080028,"ERNESTO CORTISSOZ, CO",2021-07-19,1941-05-02,10.89,29.9,-74.781,0.7779,METERS
CO,GHCND:COM00080035,"ALMIRANTE PADILLA, CO",2021-06-30,1973-01-03,11.526,13.1,-72.926,0.3917,METERS
CO,GHCND:COM00080036,"ALFONSO LOPEZ PUMAREJO, CO",2021-06-16,1969-08-20,10.435,147.2,-73.25,0.3889,METERS
CO,GHCND:COM00080063,"LOS GARZONES, CO",2021-07-14,1964-09-17,8.824,11.0,-75.826,0.3363,METERS
CO,GHCND:COM00080084,"ANTONIO ROLDAN BETANCOURT, CO",2021-07-15,1984-12-29,7.812,14.0,-76.716,0.3619,METERS
CO,GHCND:COM00080094,"PALONEGRO, CO",2021-07-19,1975-04-05,7.127,1187.8,-73.185,0.8515,METERS
CO,GHCND:COM00080097,"CAMILO DAZA, CO",2021-07-19,1964-09-16,7.928,334.1,-72.512,0.6742,METERS
CO,GHCND:COM00080099,"SANTIAGO PEREZ, CO",2021-07-16,1964-09-17,7.069,128.0,-70.737,0.4311,METERS
CO,GHCND:COM00080110,"OLAYA HERRERA, CO",2021-07-09,1958-01-02,6.22,1505.7,-75.591,0.6423,METERS
CO,GHCND:COM00080144,"EL CARANO, CO",2021-07-17,1963-01-21,5.691,62.2,-76.641,0.4002,METERS
CO,GHCND:COM00080211,"EL EDEN, CO",2021-07-18,1964-09-17,4.453,1216.2,-75.766,0.4248,METERS
CO,GHCND:COM00080398,"ALFREDO VASQUEZ COBO, CO",2021-07-19,1967-08-23,-4.193,84.4,-69.943,0.8968,METERS
CO,GHCND:COM00080315,"BENITO SALAS, CO",2021-07-19,1964-09-17,2.95,446.2,-75.294,0.5942,METERS
CO,GHCND:VE000005484,"PUERTO CARRENO A.GU, CO",2021-07-16,1968-03-14,6.167,55.0,-67.5,0.5748,METERS
CO,GHCND:CO000080259,"CALI ALFONSO BONILL, CO",2021-07-19,1961-01-01,3.55,969.0,-76.383,0.939,METERS
MP,GHCND:CQC00914855,"SAIPAN INTERNATIONAL AIRPORT, US",2021-07-19,1988-11-01,15.11667,65.5,145.71667,0.9938,METERS
MP,GHCND:JA000047991,MINAMI TORI SHIMA MA,2021-07-19,1970-01-01,24.3,6.1,153.967,0.9237,METERS
CR,GHCND:CS000078774,"LIBERIA, CS",2021-07-19,1978-01-11,10.6,80.0,-85.533,0.8279,METERS
CR,GHCND:CS000081003,PUERTO LIMON,2021-07-19,1949-02-01,9.967,3.0,-83.017,0.6322,METERS
CR,GHCND:CSM00078762,"JUAN SANTAMARIA INTERNATIONAL, CS",2021-07-19,1955-07-04,9.994,920.8,-84.209,0.7536,METERS
CF,GHCND:CT000004600,"BERBERATI, CT",2021-07-19,1950-01-01,4.22,583.0,15.78,0.6719,METERS
CF,GHCND:CTM00064601,"BOUAR, CT",2021-07-19,1973-01-03,5.967,1020.0,15.633,0.4793,METERS
CF,GHCND:CTM00064650,"BANGUI M POKO, CT",2021-07-19,1973-02-06,4.398,368.2,18.519,0.7655,METERS
CU,GHCND:CUW00011706,"GUANTANAMO BAY NAS, CU",2021-07-20,1945-04-01,19.9,39.9,-75.15,0.9421,METERS
CV,GHCND:CVM00008583,MINDELO,2021-07-19,1973-01-01,16.883,63.0,-25.0,0.2477,METERS
CV,GHCND:CVM00008589,"PRAIA, CV",2021-07-19,1973-01-01,14.917,70.0,-23.6,0.3093,METERS
CV,GHCND:CVM00008594,"AMILCAR CABRAL INTERNATIONAL, CV",2021-07-19,1973-01-01,16.741,53.9,-22.949,0.9804,METERS
CK,GHCND:CWM00091843,"RAROTONGA INTERNATIONAL, CW",2021-07-19,1973-01-01,-21.203,5.8,-159.806,0.974,METERS
CY,GHCND:CY000176090,"LARNACA, CY",2021-07-19,1916-09-30,34.8831,1.0,33.6331,0.9896,METERS
DK,GHCND:DA000021100,"VESTERVIG, DA",2020-12-31,1873-12-31,56.7667,18.0,8.3167,1.0,METERS
DK,GHCND:DA000021430,"GRONBAEK ALLINGSKOVGARD, DA",2020-12-31,1874-08-31,56.2831,25.0,9.6167,0.9762,METERS
DK,GHCND:DA000030370,"KOEBENHAVN BOTANISK HAVE, DA",2020-12-31,1960-12-31,55.6831,6.0,12.5831,0.9972,METERS
DK,GHCND:DA000030380,"KOEBENHAVN LANDBOHOJSKOLEN 1, DA",2020-12-31,1873-12-31,55.6831,9.0,12.5331,0.9996,METERS
DK,GHCND:DA000032020,HAMMER ODDE FYR 1,2021-07-19,1960-12-31,55.3,11.0,14.7831,0.9996,METERS
DK,GHCND:DAM00006030,"FLYVESTATION AALBORG, DA",2021-07-19,1940-04-01,57.093,3.0,9.849,0.636,METERS
DK,GHCND:DAM00006190,"BORNHOLM RONNE, DA",2021-07-19,1976-03-02,55.063,15.8,14.76,0.991,METERS
DK,GHCND:DA000025140,"NORDBY FANO, DA",2020-12-31,1873-12-31,55.45,4.0,8.4,0.9983,METERS
DE,GHCND:GME00129166,"TANN RHON, GM",2021-05-31,1931-01-01,50.6394,395.0,10.0231,0.9549,METERS
FO,GHCND:DAM00006011,"TORSHAVN, FO",2021-05-31,1973-01-01,62.02,54.0,-6.77,0.9964,METERS
DO,GHCND:DRM00078482,"MARIA MONTEZ INTERNATIONAL, DR",2021-07-19,1973-01-04,18.251,3.0,-71.12,0.7126,METERS
DO,GHCND:DRM00078486,SANTO DOMINGO,2021-07-19,1943-11-02,18.433,14.0,-69.883,0.6125,METERS
EC,GHCND:EC000000006,"PICHILINGUE, EC",2021-02-04,1964-01-01,-1.1,73.0,-79.467,0.59,METERS
EC,GHCND:ECM00084008,"SAN CRISTOBAL, EC",2021-07-19,1985-04-18,-0.917,18.9,-89.617,0.2713,METERS
EC,GHCND:ECM00084226,"CANAR, EC",2021-07-15,1973-01-01,-2.55,3083.0,-78.933,0.1556,METERS
EG,GHCND:EG000062306,"MERSA MATRUH, EG",2021-07-19,1920-01-01,31.3331,25.0,27.2167,0.6857,METERS
EG,GHCND:EG000062414,"ASSWAN, EG",2021-07-19,1957-01-12,23.9667,200.0,32.7831,0.7849,METERS
EG,GHCND:EG000062432,"DAKHLA, EG",2020-11-05,1957-01-07,25.4831,107.0,29.0,0.5477,METERS
EG,GHCND:EG000062463,"HURGUADA, EG",2021-07-19,1990-02-15,27.15,16.0,33.7167,0.9919,METERS
EG,GHCND:EGM00062318,"ALEXANDRIA INTERNATIONAL, EG",2021-07-19,1957-01-01,31.184,-1.8,29.949,0.8674,METERS
EG,GHCND:EGM00062435,"KHARGA, EG",2021-07-19,1957-01-07,25.45,73.0,30.533,0.6655,METERS
EG,GHCND:EGM00062387,"MINYA, EG",2021-07-19,1957-01-08,28.083,40.0,30.733,0.6933,METERS
IE,GHCND:EI000003953,"VALENTIA OBSERVATORY, EI",2021-07-19,1929-10-01,51.9394,9.0,-10.2219,0.9387,METERS
IE,GHCND:EI000003969,"DUBLIN PHOENIX PARK, EI",2021-07-19,1867-01-01,53.3639,49.0,-6.3192,0.9871,METERS
IE,GHCND:EI000003980,"MALIN HEAD, EI",2021-07-19,1885-01-01,55.3717,21.0,-7.34,0.9742,METERS
IE,GHCND:EIM00003973,"CONNAUGHT, EI",2021-07-19,1929-10-01,53.91,202.7,-8.818,0.3688,METERS
IE,GHCND:EIM00003955,"CORK, EI",2021-07-19,1973-01-01,51.841,153.0,-8.491,0.9928,METERS
IE,GHCND:EIM00003962,"SHANNON, EI",2021-07-19,1973-01-01,52.702,14.0,-8.925,0.9928,METERS
IE,GHCND:EIE00107762,"WATERFORD TYCOR, EI",2021-02-28,1941-01-01,52.2531,49.0,-7.1308,0.8814,METERS
LV,GHCND:LG000026326,"SKULTE, LG",2021-07-12,1959-01-01,57.317,10.0,24.417,0.5328,METERS
SV,GHCND:ES000078650,"ACAJUTLA, ES",2021-07-19,1962-04-10,13.567,15.0,-89.833,0.6554,METERS
SV,GHCND:ES003800510,"SAN SALVADOR ILOPAN, ES",2021-07-19,1956-01-03,13.7,621.0,-89.117,0.7579,METERS
ET,GHCND:ET000063331,"GONDAR, ET",2021-07-19,1952-06-01,12.55,1967.0,37.417,0.5947,METERS
ET,GHCND:ET000063402,"JIMMA, ET",2021-07-19,1952-06-01,7.667,1725.0,36.833,0.6328,METERS
ET,GHCND:ET000063403,"GORE, ET",2021-07-19,1952-06-01,8.15,2002.0,35.533,0.6101,METERS
ET,GHCND:ET000063471,"DIREDAWA, ET",2021-07-19,1952-04-01,9.6,1260.0,41.85,0.6946,METERS
ET,GHCND:ET000063333,"COMBOLCHA, ET",2021-07-19,1952-06-11,11.117,1903.0,39.733,0.7338,METERS
ET,GHCND:ET000063450,"ADDIS ABABA BOLE, ET",2021-07-19,1957-02-13,9.033,2354.0,38.75,0.6644,METERS
MG,GHCND:EUM00061972,ILE EUROPA,2021-07-17,1973-01-01,-22.333,6.0,40.333,0.8246,METERS
MG,GHCND:MA000067083,"ANTANANARIVO IVATO, MA",2021-07-19,1973-01-02,-18.8,1276.0,47.483,0.8989,METERS
MG,GHCND:MA000067095,"TOAMASINA, MA",2021-07-19,1973-01-22,-18.117,6.0,49.4,0.8672,METERS
MG,GHCND:MA000067161,"TOLIARA, MA",2021-07-19,1973-01-03,-23.383,8.0,43.733,0.5908,METERS
MG,GHCND:MA000067197,"TAOLAGNARO, MA",2021-07-19,1973-01-02,-25.033,9.0,46.95,0.8585,METERS
MG,GHCND:MAM00067012,"FASCENE, MA",2021-07-19,1973-01-23,-13.312,11.0,48.315,0.7129,METERS
MG,GHCND:MAM00067025,"ANTSIRABATO, MA",2021-07-19,1973-01-03,-14.999,6.1,50.32,0.5363,METERS
MG,GHCND:MAM00067027,"PHILIBERT TSIRANANA, MA",2021-07-19,1973-01-02,-15.667,26.5,46.352,0.8958,METERS
MG,GHCND:MAM00067067,"AMBOHITSILAOZANA, MA",2021-07-16,1989-04-04,-17.633,780.0,48.5,0.2183,METERS
MG,GHCND:MAM00067107,"ANTSIRABE, MA",2021-07-15,1974-03-14,-19.817,1532.0,47.067,0.3667,METERS
MG,GHCND:MAM00067117,"MORONDAVA, MA",2020-12-29,1973-01-02,-20.285,9.1,44.318,0.7023,METERS
MG,GHCND:MAM00067131,"MOROMBE, MA",2021-07-19,1973-08-31,-21.754,4.9,43.376,0.3328,METERS
MG,GHCND:MAM00067137,"FIANARANTSOA, MA",2021-07-19,1973-02-19,-21.442,1115.0,47.112,0.7371,METERS
MG,GHCND:MAM00067152,"RANOHIRA, MA",2020-11-15,1973-01-23,-22.55,824.0,45.4,0.4518,METERS
MG,GHCND:TEM00061976,SERGE FROLOW ILE TROMELIN,2021-07-19,1973-01-02,-15.883,13.0,54.517,0.8811,METERS
MG,GHCND:MA000067009,"ANTSIRANANA, MA",2021-07-19,1973-01-02,-12.35,105.0,49.3,0.8521,METERS
MG,GHCND:FSM00061968,ILES GLORIEUSES,2021-07-19,1973-01-02,-11.583,4.0,47.283,0.792,METERS
MG,GHCND:MAM00067072,"SAINTE MARIE, MA",2021-07-19,1973-01-23,-17.094,2.1,49.816,0.3675,METERS
CZ,GHCND:EZM00011518,"RUZYNE, EZ",2021-07-19,1940-01-01,50.101,380.1,14.26,0.7727,METERS
CZ,GHCND:EZM00011659,"PRIBYSLAV, EZ",2021-07-19,1954-07-06,49.583,536.4,15.767,0.8078,METERS
CZ,GHCND:EZM00011782,"MOSNOV, EZ",2021-07-19,1953-01-03,49.696,257.3,18.111,0.8347,METERS
GF,GHCND:FG000081405,"ROCHAMBEAU, FR",2021-07-19,1943-06-01,4.833,9.0,-52.367,0.9,METERS
GF,GHCND:FGM00081401,"ST LAURENT DU MARON, FR",2021-04-15,1973-04-14,5.5,9.0,-54.033,0.5492,METERS
GF,GHCND:FGM00081408,SAINT GEORGES,2020-11-24,1973-04-14,3.883,7.0,-51.8,0.5092,METERS
FI,GHCND:FIE00144597,"VIITASAARI KOLIMA KARNA, FI",2020-12-31,1965-01-01,63.1669,115.0,25.9392,0.9986,METERS
FI,GHCND:FIE00146698,"UTSJOKI KEVO, FI",2021-07-19,1962-01-01,69.7556,107.0,27.0119,0.9997,METERS
AX,GHCND:FIE00141805,"JOMALA MAARIANHAMINAN LENTOASE, FI",2021-05-31,1959-01-01,60.1244,5.0,19.9067,0.9229,METERS
AX,GHCND:FIE00141815,LEMLAND NYHAMN,2021-05-31,1959-01-01,59.9592,8.0,19.9575,0.8861,METERS
AX,GHCND:FIE00141855,"JOMALA JOMALABY, FI",2021-05-31,1971-06-01,60.1781,11.0,19.9894,0.9968,METERS
MM,GHCND:BMM00048008,"MYITKYINA, BM",2021-07-19,1944-07-13,25.367,147.0,97.4,0.3715,METERS
MM,GHCND:BMM00048042,"MANDALAY, BM",2021-07-19,1950-02-16,21.983,76.0,96.1,0.438,METERS
MM,GHCND:BMM00048062,"SITTWE, BM",2021-07-19,1945-03-02,20.133,8.2,92.873,0.3662,METERS
MM,GHCND:BMM00048097,"YANGON INTERNATIONAL, BM",2021-07-19,1954-05-17,16.907,33.2,96.133,0.5098,METERS
IT,GHCND:ITM00016253,"GRAZZANISE, IT",2021-07-19,1944-04-01,41.061,8.8,14.082,0.6135,METERS
IT,GHCND:ITM00016098,"ISTRANA, IT",2021-07-19,1966-09-24,45.685,41.8,12.083,0.9124,METERS
IT,GHCND:IT000016134,"MONTE CIMONE, IT",2021-07-19,1951-01-01,44.2,2165.0,10.7,0.8671,METERS
IT,GHCND:ITM00016546,"DECIMOMANNU, IT",2021-07-19,1966-09-23,39.354,30.5,8.972,0.8995,METERS
IT,GHCND:ITM00016033,"DOBBIACO, IT",2021-07-19,1973-01-01,46.733,1226.0,12.217,0.964,METERS
IT,GHCND:ITM00016052,"PIAN ROSA MTN TOP, IT",2021-07-19,1965-04-28,45.933,3488.0,7.7,0.7039,METERS
IT,GHCND:ITM00016149,"RIMINI, IT",2021-07-19,1945-04-08,44.02,12.5,12.612,0.647,METERS
IT,GHCND:ITM00016153,CAPE MELE,2021-07-19,1965-05-01,43.95,221.0,8.167,0.9555,METERS
IT,GHCND:ITM00016206,"GROSSETO, IT",2021-07-19,1944-12-11,42.76,4.6,11.072,0.7209,METERS
IT,GHCND:ITM00016310,CAPE PALINURO,2021-07-19,1964-08-11,40.017,185.0,15.283,0.9559,METERS
IT,GHCND:IT000016320,"BRINDISI, IT",2021-07-19,1943-11-30,40.6331,10.0,17.9331,0.8755,METERS
IT,GHCND:ITM00016400,"USTICA ISLAND, IT",2021-07-19,1957-07-01,38.7,251.0,13.183,0.8364,METERS
IT,GHCND:ITM00016420,"MESSINA, IT",2021-07-19,1957-07-01,38.2,51.0,15.55,0.8795,METERS
IT,GHCND:ITM00016429,"TRAPANI BIRGI, IT",2021-07-19,1965-04-29,37.911,7.3,12.488,0.9545,METERS
IT,GHCND:ITW00033126,"SIGONELLA, IT",2021-07-19,1943-08-11,37.4,25.0,14.91667,0.6986,METERS
IT,GHCND:ITM00016522,CAPE CACCIA,2021-07-19,1975-09-01,40.567,205.0,8.167,0.7515,METERS
IT,GHCND:ITM00016344,"MONTE SCURO, IT",2021-07-19,1974-10-15,39.333,1677.0,16.4,0.6469,METERS
TH,GHCND:TH000048517,"CHUMPHON, TH",2021-07-19,1951-01-01,10.483,5.0,99.183,0.9358,METERS
TH,GHCND:LAM00048940,"WATTAY INTERNATIONAL, LA",2021-07-19,1950-06-22,17.988,171.9,102.563,0.9142,METERS
TH,GHCND:TH000048300,"MAE HONG SON, BM",2021-07-19,1951-01-01,19.3,269.0,97.833,0.8523,METERS
TH,GHCND:TH000048303,"CHIANG RAI, TH",2021-07-19,1951-01-01,19.883,416.0,99.833,0.9752,METERS
