id,name,maxdate,mindate,latitude,elevation,longitude,datacoverage,elevationUnit
GHCND:AEM00041217,"ABU DHABI INTERNATIONAL, AE",2021-03-10,1983-01-02,24.433,26.8,54.651,0.9976,METERS
GHCND:AG000060390,"ALGER DAR EL BEIDA, AG",2021-03-10,1940-01-01,36.7167,24.0,3.25,0.8953,METERS
GHCND:ASN00007160,"PAROO, AS",2020-12-31,1968-01-01,-26.2628,500.0,119.7639,0.7651,METERS
GHCND:AG000060611,"IN AMENAS, AG",2021-03-10,1958-10-01,28.05,561.0,9.6331,0.9259,METERS
GHCND:AEM00041194,"DUBAI INTERNATIONAL, AE",2021-03-10,1983-01-01,25.255,10.4,55.364,0.9992,METERS
GHCND:AGM00060351,"JIJEL, AG",2021-03-10,1981-11-01,36.795,11.0,5.874,0.9282,METERS
GHCND:AGM00060402,"SOUMMAM, AG",2021-03-10,1973-01-01,36.712,6.1,5.07,0.9638,METERS
GHCND:AGM00060468,"BATNA, AG",2021-03-10,1973-04-03,35.55,1052.0,6.183,0.8723,METERS
GHCND:AGM00060490,"ES SENIA, AG",2021-03-10,1957-01-01,35.624,89.9,-0.621,0.8657,METERS
GHCND:AGM00060511,"BOU CHEKIF, AG",2021-03-10,1983-05-21,35.341,989.1,1.463,0.9615,METERS
GHCND:AGM00060515,"BOU SAADA, AG",2021-03-10,1984-03-02,35.333,459.0,4.206,0.8297,METERS
GHCND:AGM00060531,"ZENATA, AG",2021-03-10,1981-01-01,35.017,248.1,-1.45,0.9898,METERS
GHCND:AGM00060444,"BORDJ BOU ARRERIDJ, AG",2021-03-10,1979-10-01,36.067,930.0,4.767,0.9217,METERS
GHCND:AGM00060559,"GUEMAR, AG",2021-03-10,1965-09-13,33.511,61.9,6.777,0.8522,METERS
GHCND:AGM00060560,"AIN SEFRA, AG",2021-03-10,1981-01-01,32.767,1059.0,-0.6,0.9114,METERS
GHCND:AGM00060566,"NOUMERAT, AG",2021-03-10,1965-10-01,32.384,460.9,3.794,0.8642,METERS
GHCND:AGM00060571,"BECHAR, AG",2021-03-10,1957-01-09,31.646,811.1,-2.27,0.8339,METERS
GHCND:AGM00060602,"BENI ABBES, AG",2021-03-10,1973-01-01,30.133,505.0,-2.167,0.8438,METERS
GHCND:AGM00060620,"TOUAT CHEIKH SIDI MOHAMED BEL, AG",2021-03-10,1965-09-13,27.838,280.1,-0.186,0.7746,METERS
GHCND:AGM00060670,"TISKA, AG",2021-03-10,1965-09-14,24.293,968.0,9.452,0.7787,METERS
GHCND:AGM00060549,"MECHERIA, AG",2021-03-10,1980-02-08,33.536,1175.0,-0.242,0.9593,METERS
GHCND:AGM00060550,"EL BAYADH, AG",2021-03-10,1973-01-05,33.667,1347.0,1.0,0.8963,METERS
GHCND:AJ000037735,"GANCA, AJ",2021-03-10,1882-01-01,40.7167,311.0,46.4167,0.8325,METERS
GHCND:AJ000037985,"LANKARAN, AJ",2021-03-10,1897-05-01,38.75,-12.0,48.817,0.7572,METERS
GHCND:AM000037801,"GAVAR, AM",2021-03-10,1891-01-01,40.35,1961.0,45.1331,0.8407,METERS
GHCND:AR000000011,"MONTE CASEROS AERO, AR",2021-03-10,1967-04-15,-30.267,53.0,-57.65,0.8385,METERS
GHCND:AR000087217,"LA RIOJA AERO., AR",2021-03-10,1956-02-01,-29.383,438.0,-66.817,0.9469,METERS
GHCND:AR000087344,"CORDOBA AERO, AR",2021-03-10,1956-02-02,-31.317,489.0,-64.217,0.9339,METERS
GHCND:AR000087374,"PARANA AERO, AR",2021-03-10,1956-02-01,-31.783,74.0,-60.483,0.9459,METERS
GHCND:AR000087418,"MENDOZA AERO, AR",2021-03-10,1957-06-30,-32.833,704.0,-68.783,0.9245,METERS
GHCND:AR000087534,"LABOULAYE AERO, AR",2021-03-10,1950-01-01,-34.133,137.0,-63.367,0.987,METERS
GHCND:AR000087623,"SANTA ROSA AERO, AR",2021-03-10,1951-01-01,-36.567,192.0,-64.266,0.9903,METERS
GHCND:AR000087692,"MAR DEL PLATA AERO, AR",2021-03-10,1956-02-01,-37.933,22.0,-57.583,0.9566,METERS
GHCND:AR000087715,"NEUQUEN AERO, AR",2021-03-10,1956-08-01,-38.95,273.0,-68.133,0.9453,METERS
GHCND:AR000087803,"ESQUEL AERO, AR",2021-03-10,1957-06-30,-42.933,799.0,-71.15,0.8973,METERS
GHCND:AR000087828,"TRELEW AERO, AR",2021-03-10,1956-02-02,-43.2,43.0,-65.266,0.9805,METERS
GHCND:AR000087860,"COMODORO RIVADAVIA, AR",2021-03-10,1956-02-01,-45.783,58.0,-67.5,0.9675,METERS
GHCND:AR000087925,"RIO GALLEGOS AERO, AR",2021-03-10,1956-02-01,-51.617,19.0,-69.283,0.9364,METERS
GHCND:AR000870470,"SALTA AERO, AR",2021-03-10,1956-02-01,-24.85,1246.0,-65.483,0.9283,METERS
GHCND:AR000875850,"BUENOS AIRES OBSERV, AR",2021-03-10,1908-09-02,-34.583,25.0,-58.483,0.922,METERS
GHCND:AR000877500,"BAHIA BLANCA AERO, AR",2021-03-10,1956-02-02,-38.733,75.0,-62.167,0.9533,METERS
GHCND:AR000087007,"LA QUIACA OBSERVATO, AR",2021-03-10,1956-04-01,-22.1,3479.0,-65.6,0.8931,METERS
GHCND:AR000087078,"LAS LOMITAS, AR",2021-03-10,1956-04-01,-24.7,130.0,-60.583,0.7794,METERS
GHCND:AR000087129,"SANTIAGO DEL ESTERO, AR",2021-03-10,1956-02-01,-27.767,200.0,-64.3,0.9732,METERS
GHCND:AR000087155,"RESISTENCIA AERO, AR",2021-03-10,1960-01-01,-27.45,53.0,-59.05,0.9034,METERS
GHCND:AR000087257,"CERES AERO, AR",2021-03-10,1956-04-01,-29.883,88.0,-61.95,0.9607,METERS
GHCND:AR000087270,"RECONQUISTA AERO, AR",2021-03-10,1961-01-01,-29.183,53.0,-59.7,0.9417,METERS
GHCND:ARM00087289,"PASO DE LOS LIBRES, AR",2021-03-10,1973-01-01,-29.689,70.1,-57.152,0.9909,METERS
GHCND:ARM00087311,"SAN JUAN, AR",2021-03-10,1973-01-01,-31.571,597.1,-68.418,0.9949,METERS
GHCND:ARM00087320,"CHAMICAL AERO, AR",2021-03-10,1973-06-18,-30.367,461.0,-66.283,0.8085,METERS
GHCND:ARM00087328,"VILLA DOLORES, AR",2021-03-10,1973-01-01,-31.945,583.7,-65.146,0.8703,METERS
GHCND:ARM00087395,"COMODORO PIERRESTEGUI, AR",2021-03-10,1973-01-01,-31.297,34.1,-57.997,0.9892,METERS
GHCND:ARM00087416,"SAN MARTIN, AR",2021-03-10,1973-01-03,-33.083,653.0,-68.417,0.7961,METERS
GHCND:ARM00087436,"SAN LUIS, AR",2021-03-10,1957-06-30,-33.273,709.9,-66.356,0.7843,METERS
GHCND:ARM00087448,"VILLA REYNOLDS, AR",2021-03-10,1973-01-01,-33.73,484.9,-65.387,0.9286,METERS
GHCND:ARM00087453,"RIO CUARTO AREA DE MATERIAL, AR",2021-03-10,1973-01-01,-33.085,420.9,-64.261,0.9884,METERS
GHCND:ARM00087467,"MARCOS JUAREZ, AR",2021-03-10,1973-01-01,-32.684,110.0,-62.158,0.9906,METERS
GHCND:ARM00087480,"ROSARIO, AR",2021-03-10,1965-03-08,-32.904,25.9,-60.785,0.8718,METERS
GHCND:ARM00087497,"GUALEGUAYCHU, AR",2021-03-10,1965-03-27,-33.01,22.9,-58.613,0.8759,METERS
GHCND:ARM00087046,"JUJUY, AR",2021-03-10,1973-01-01,-24.393,920.2,-65.098,0.9906,METERS
GHCND:ARM00087121,"TENIENTE BENJAMIN MATIENZO, AR",2021-03-10,1981-11-01,-26.841,455.7,-65.105,0.9938,METERS
GHCND:ARM00087162,"FORMOSA, AR",2021-03-10,1973-01-01,-26.213,59.1,-58.228,0.972,METERS
GHCND:ARM00087166,"CORRIENTES, AR",2021-03-10,1973-01-01,-27.446,61.9,-58.762,0.9618,METERS
GHCND:ARM00087178,"POSADAS, AR",2021-03-10,1960-01-02,-27.386,131.1,-55.971,0.8834,METERS
GHCND:ARM00087222,"CATAMARCA, AR",2021-03-10,1973-07-02,-28.596,463.9,-65.752,0.9704,METERS
GHCND:ARM00087582,"AEROPARQUE JORGE NEWBERY, AR",2021-03-10,1973-01-01,-34.559,5.5,-58.416,0.9616,METERS
GHCND:ARM00087645,"TANDIL, AR",2021-03-10,1973-01-01,-37.237,175.0,-59.228,0.9766,METERS
GHCND:ARM00087648,"DOLORES AIRPORT, AR",2021-03-10,1973-01-01,-36.35,9.0,-57.733,0.8403,METERS
GHCND:ARM00087765,"SAN CARLOS DE BARILOCHE, AR",2021-03-10,1957-06-30,-41.151,846.1,-71.158,0.7863,METERS
GHCND:ARM00087791,"GOBERNADOR CASTELLO, AR",2021-03-10,1973-01-01,-40.869,6.1,-63.0,0.9517,METERS
GHCND:ARM00087509,"SAN RAFAEL, AR",2021-03-10,1973-01-01,-34.588,752.9,-68.403,0.989,METERS
GHCND:ARM00087548,"JUNIN, AR",2021-03-10,1967-05-05,-34.546,79.9,-60.931,0.9147,METERS
GHCND:ARM00087576,"MINISTRO PISTARINI, AR",2021-03-10,1957-07-01,-34.822,20.4,-58.536,0.804,METERS
GHCND:ARM00087593,"LA PLATA, AR",2021-03-10,1973-01-01,-34.972,21.9,-57.895,0.7745,METERS
GHCND:ASM00094995,"LORD HOWE ISLAND AERO, AS",2021-03-10,1947-12-31,-31.542,7.0,159.079,0.7778,METERS
GHCND:ASM00094998,"MACQUARIE ISLAND, AS",2021-03-10,1973-01-01,-54.499,8.3,158.937,0.9198,METERS
GHCND:ASN00001009,"KURI BAY, AS",2012-03-16,1961-08-01,-15.4875,12.0,124.5222,0.8881,METERS
GHCND:ASN00001010,"THEDA, AS",2021-03-13,1965-10-28,-14.7883,210.0,126.4964,0.9387,METERS
GHCND:ARM00087909,"SAN JULIAN, AR",2021-03-10,1973-01-01,-49.307,57.9,-67.803,0.9454,METERS
GHCND:ARM00087934,"RIO GRANDE, AR",2021-03-10,1973-01-01,-53.778,19.8,-67.749,0.8733,METERS
GHCND:ASM00094299,"WILLIS ISLAND, AS",2021-03-10,1948-01-01,-16.288,9.0,149.965,0.7793,METERS
GHCND:ASN00001025,"DOONGAN, AS",2021-03-14,1988-01-01,-15.3797,385.0,126.3114,0.9844,METERS
GHCND:ASN00001026,"DRYSDALE RIVER STATION, AS",2021-03-14,1988-01-01,-15.7025,370.0,126.3786,0.8972,METERS
GHCND:ASN00002001,"ARGYLE DOWNS, AS",2016-06-06,1890-05-01,-16.5039,120.0,128.9172,0.7957,METERS
GHCND:ASN00002005,"CARLTON HILL, AS",2020-12-17,1898-07-01,-15.4864,20.0,128.5344,0.7626,METERS
GHCND:ASN00001013,"WYNDHAM, AS",2020-05-22,1968-04-01,-15.4872,11.0,128.1247,0.992,METERS
GHCND:ASN00001018,"MOUNT ELIZABETH, AS",2021-03-14,1973-02-21,-16.4181,546.0,126.1025,0.9639,METERS
GHCND:ASN00002019,"MARGARET RIVER STATION, AS",2018-12-18,1914-01-01,-18.6253,280.0,126.8617,0.9083,METERS
GHCND:ASN00002020,"MOOLA BULLA, AS",2021-01-31,1904-04-01,-18.1894,430.0,127.5011,0.841,METERS
GHCND:ASN00002023,"NICHOLSON, AS",2021-03-14,1923-10-01,-18.0308,380.0,128.8942,0.7928,METERS
GHCND:ASN00002029,"STURT CREEK, AS",2021-03-14,1899-05-01,-19.1625,400.0,128.1633,0.8336,METERS
GHCND:ASN00002032,"WARMUN, AS",2021-03-02,1898-04-01,-17.0156,203.0,128.2175,0.7999,METERS
GHCND:ASN00002012,"HALLS CREEK AIRPORT, AS",2021-03-10,1944-01-01,-18.2292,422.0,127.6636,0.9926,METERS
GHCND:ASN00002044,"LAKE ARGYLE RESORT, AS",2021-03-14,1969-01-01,-16.1119,163.0,128.7414,0.8977,METERS
GHCND:ASN00002049,"SOPHIE DOWNS, AS",2021-03-14,1980-10-01,-18.1947,400.0,127.8147,0.8865,METERS
GHCND:ASN00002056,"KUNUNURRA AERO, AS",2021-03-14,1971-12-01,-15.7814,44.0,128.71,0.9312,METERS
GHCND:ASN00002064,"ARGYLE AERODROME, AS",2021-03-14,1985-01-01,-16.6381,164.0,128.4517,0.9648,METERS
GHCND:ASN00003001,"COUNTRY DOWNS, AS",2021-02-28,1969-11-01,-17.2767,153.0,122.5711,0.8845,METERS
GHCND:ASN00003004,"CAPE LEVEQUE, AS",2018-10-19,1917-08-01,-16.3961,25.0,122.9278,0.8143,METERS
GHCND:ASN00003009,"JUBILEE DOWNS, AS",2021-03-13,1937-04-01,-18.355,100.0,125.3033,0.9472,METERS
GHCND:ASN00003014,"GOGO STATION, AS",2021-03-08,1908-12-01,-18.2914,150.0,125.5869,0.8608,METERS
GHCND:ASN00003015,"MEDA, AS",2021-03-09,1911-06-01,-17.3681,75.0,123.9956,0.8154,METERS
GHCND:ASN00003017,"MOUNT HOUSE STATION, AS",2020-07-31,1923-11-01,-17.0522,270.0,125.7047,0.8596,METERS
GHCND:ASN00003018,"MYROODAH, AS",2021-03-14,1907-09-01,-18.1219,60.0,124.2692,0.8767,METERS
GHCND:ASN00003019,"NAPIER DOWNS, AS",2021-03-14,1912-01-01,-17.3306,80.0,124.8167,0.8042,METERS
GHCND:ASN00003000,"BEAGLE BAY, AS",2015-03-27,1902-07-01,-16.9806,9.0,122.6667,0.8092,METERS
GHCND:ASN00003003,"BROOME AIRPORT, AS",2021-03-14,1939-08-11,-17.9475,7.4,122.2353,0.9991,METERS
GHCND:ASN00003028,"ANNA PLAINS, AS",2021-03-14,1908-01-01,-19.2536,10.0,121.4861,0.7995,METERS
GHCND:ASN00003032,"DERBY AERO, AS",2021-03-14,1951-03-01,-17.3706,6.2,123.6611,0.8665,METERS
GHCND:ASN00003040,"CAMBALLIN, AS",2020-05-29,1958-11-01,-17.9903,45.0,124.1922,0.7527,METERS
GHCND:ASN00003043,"CHRISTMAS CREEK, AS",2021-01-31,1960-03-01,-18.8789,160.0,125.9206,0.7717,METERS
GHCND:ASN00003023,"ROEBUCK PLAINS, AS",2019-12-31,1903-06-01,-17.9311,15.0,122.4725,0.7888,METERS
GHCND:ASN00003026,"YEEDA, AS",2020-02-27,1890-05-01,-17.6153,5.0,123.6483,0.7767,METERS
GHCND:ASN00003027,"FOSSIL DOWNS, AS",2021-03-13,1904-07-01,-18.1386,120.0,125.7764,0.9139,METERS
GHCND:ASN00003030,"BIDYADANGA, AS",2021-03-14,1891-03-01,-18.6844,11.0,121.7803,0.8926,METERS
GHCND:ASN00003057,"CYGNET BAY, AS",2021-03-14,1963-12-01,-16.4514,7.0,123.0086,0.9848,METERS
GHCND:ASN00003066,"PORT SMITH, AS",2021-03-12,1973-01-13,-18.5175,10.0,121.8072,0.9106,METERS
GHCND:ASN00003068,"DAMPIER DOWNS, AS",2021-01-31,1973-08-01,-18.5075,120.0,123.4561,0.9312,METERS
GHCND:ASN00003080,"CURTIN AERO, AS",2021-03-14,1990-03-01,-17.5736,77.5,123.8217,0.9506,METERS
GHCND:ASN00004016,"INDEE, AS",2021-03-13,1909-03-01,-20.7867,80.0,118.5972,0.8622,METERS
GHCND:ASN00004019,"MANDORA, AS",2021-02-16,1913-09-01,-19.7419,7.5,120.8436,0.9134,METERS
GHCND:ASN00004026,"NOREENA DOWNS, AS",2021-01-31,1911-03-01,-22.2914,495.0,120.1761,0.8687,METERS
GHCND:ASN00004028,"PARDOO STATION, AS",2021-03-14,1904-04-01,-20.1078,9.0,119.5811,0.9003,METERS
GHCND:ASN00004033,"PYRAMID STATION, AS",2020-07-19,1951-02-01,-21.0561,40.0,117.4436,0.8335,METERS
GHCND:ASN00004015,"HILLSIDE STATION, AS",2018-06-09,1917-01-01,-21.7219,271.0,119.3989,0.7516,METERS
GHCND:ASN00004046,"YARRIE, AS",2021-02-20,1898-07-01,-20.6739,100.0,120.2044,0.8411,METERS
GHCND:ASN00004039,"WARAMBIE, AS",2021-03-04,1937-01-01,-20.9469,30.0,117.3733,0.9266,METERS
GHCND:ASN00004041,"WARRAWAGINE, AS",2021-03-12,1898-07-01,-20.8503,159.0,120.695,0.8079,METERS
GHCND:ASN00004083,"KARRATHA AERO, AS",2021-03-14,1972-05-01,-20.7097,7.0,116.7742,0.9463,METERS
GHCND:ASN00004068,"WALLAL DOWNS, AS",2021-02-22,1897-05-01,-19.7789,9.0,120.6417,0.7804,METERS
GHCND:ASN00005003,"ETHEL CREEK, AS",2015-07-22,1907-01-01,-22.8975,425.0,120.1733,0.8422,METERS
GHCND:ASN00005004,"EXMOUTH GULF, AS",2021-03-02,1915-01-01,-22.3761,15.0,114.1108,0.9413,METERS
GHCND:ASN00005005,"HAMERSLEY, AS",2015-07-22,1912-01-01,-22.2792,590.0,117.6772,0.8343,METERS
GHCND:ASN00005007,"LEARMONTH AIRPORT, AS",2021-03-14,1945-04-01,-22.2406,5.0,114.0967,0.8548,METERS
GHCND:ASN00005008,"MARDIE, AS",2021-03-14,1885-04-01,-21.1906,11.0,115.9797,0.9164,METERS
GHCND:ASN00005009,"MARILLANA, AS",2020-03-31,1936-12-01,-22.6331,430.0,119.4081,0.7979,METERS
GHCND:ASN00005012,"MILLSTREAM, AS",2020-12-31,1897-04-01,-21.5906,300.0,117.0656,0.8898,METERS
GHCND:ASN00005013,"MINDEROO, AS",2020-12-10,1912-04-01,-21.9961,15.0,115.0456,0.847,METERS
GHCND:ASN00005014,"MOUNT FLORANCE, AS",2021-03-14,1886-09-01,-21.7869,450.0,117.8647,0.8662,METERS
GHCND:ASN00005015,"MULGA DOWNS, AS",2018-06-08,1898-03-01,-22.1039,400.0,118.4703,0.8579,METERS
GHCND:ASN00005016,"ONSLOW, AS",2012-07-19,1886-04-01,-21.6364,4.0,115.1117,0.8625,METERS
GHCND:ASN00005001,"COOLAWANYAH, AS",2021-02-22,1923-01-01,-21.8047,360.0,117.8056,0.8326,METERS
GHCND:ASN00005026,"WITTENOOM, AS",2019-08-31,1950-08-01,-22.2425,463.0,118.3358,0.9385,METERS
GHCND:ASN00005030,"YANREY, AS",2018-06-30,1897-03-01,-22.5064,25.0,114.7944,0.8418,METERS
GHCND:ASN00005032,"YARRALOOLA, AS",2021-03-03,1899-05-01,-21.5703,50.0,115.8786,0.9059,METERS
GHCND:ASN00005022,"RED HILL, AS",2021-03-14,1898-09-01,-21.975,150.0,116.0653,0.9005,METERS
GHCND:ASN00005028,"WYLOO, AS",2021-03-14,1904-08-01,-22.6906,150.0,116.2328,0.7819,METERS
GHCND:ASN00005061,"DAMPIER SALT, AS",2020-10-31,1969-11-01,-20.7278,6.0,116.7483,0.9697,METERS
GHCND:ASN00005068,"BULLARA, AS",2018-07-31,1957-01-01,-22.6811,20.0,114.0394,0.7819,METERS
GHCND:ASN00005069,"PANNAWONICA, AS",2021-01-01,1971-11-13,-21.6392,200.0,116.3308,0.9544,METERS
GHCND:ASN00005070,"ROBE, AS",2021-02-28,1972-11-01,-21.3567,10.0,115.8208,0.9576,METERS
GHCND:ASN00005071,"PINDRAL OUTCAMP, AS",2021-02-28,1972-11-01,-21.3444,11.0,115.9356,0.9799,METERS
GHCND:ASN00005078,"URALA, AS",2019-11-21,1977-03-01,-21.7672,5.0,114.8211,0.7762,METERS
GHCND:ASN00005052,"KARRATHA STATION, AS",2015-05-29,1900-01-01,-20.8831,30.0,116.6725,0.872,METERS
GHCND:ASN00006000,"BIDGEMIA, AS",2017-02-28,1889-11-01,-25.0417,180.0,115.3092,0.8099,METERS
GHCND:ASN00006001,"BILLABALONG, AS",2017-12-31,1901-01-01,-27.4231,254.0,115.8347,0.8792,METERS
GHCND:ASN00006003,"BOOLATHANA, AS",2016-12-31,1897-01-01,-24.6525,4.0,113.6936,0.8308,METERS
GHCND:ASN00006005,"BRICKHOUSE, AS",2021-02-02,1903-11-01,-24.8208,15.0,113.7853,0.8983,METERS
GHCND:ASN00006008,"CALLAGIDDY STATION, AS",2020-12-31,1910-01-01,-25.0481,25.0,114.0294,0.9748,METERS
GHCND:ASN00006009,"CARDABIA, AS",2019-01-10,1913-01-01,-23.105,6.0,113.8031,0.8559,METERS
GHCND:ASN00006011,"CARNARVON AIRPORT, AS",2021-03-14,1945-01-10,-24.8878,4.0,113.67,0.9939,METERS
GHCND:ASN00006020,"EDAGGEE, AS",2021-01-31,1915-02-01,-25.36,30.0,114.2292,0.8953,METERS
GHCND:ASN00006023,"GNARALOO, AS",2020-12-31,1912-01-01,-23.8222,20.0,113.5256,0.8366,METERS
GHCND:ASN00006029,"LYNDON, AS",2013-12-31,1898-07-01,-23.6361,210.0,115.2461,0.8641,METERS
GHCND:ASN00006030,"LYONS RIVER, AS",2018-05-31,1906-02-01,-24.6314,175.0,115.3383,0.9159,METERS
GHCND:ASN00006033,"MAROONAH, AS",2013-02-28,1896-04-01,-23.4789,250.0,115.5481,0.8704,METERS
GHCND:ASN00006034,"MARRON, AS",2021-03-02,1911-01-01,-25.3656,40.0,114.3594,0.9716,METERS
GHCND:ASN00006036,"MEEDO, AS",2014-05-31,1899-11-01,-25.6644,60.0,114.6267,0.7611,METERS
GHCND:ASN00006038,"MIA MIA, AS",2021-02-28,1904-02-01,-23.3817,75.0,114.4375,0.7859,METERS
GHCND:ASN00006017,"DAIRY CREEK, AS",2021-02-17,1900-09-01,-25.2786,300.0,115.8633,0.7759,METERS
GHCND:ASN00006019,"DOORAWARRAH, AS",2021-03-03,1897-11-01,-24.8061,70.0,114.4322,0.8585,METERS
GHCND:ASN00006022,"GASCOYNE JUNCTION, AS",2021-03-12,1907-04-01,-25.0544,144.0,115.21,0.9367,METERS
GHCND:ASN00006050,"WANDAGEE, AS",2015-01-31,1890-01-01,-23.7647,90.0,114.5539,0.833,METERS
GHCND:ASN00006052,"WILLIAMBURY, AS",2018-07-04,1888-08-01,-23.8608,190.0,115.1475,0.8124,METERS
GHCND:ASN00006053,"WINDERIE, AS",2017-08-31,1909-09-01,-25.3017,170.0,115.1161,0.8489,METERS
GHCND:ASN00006054,"WOODLEIGH, AS",2011-09-30,1917-01-31,-26.0511,180.0,114.7542,0.7943,METERS
GHCND:ASN00006055,"WOOLGORONG, AS",2021-03-04,1904-01-01,-27.7458,300.0,115.8286,0.9218,METERS
GHCND:ASN00006058,"YALLALONG, AS",2021-01-31,1904-01-01,-27.4278,240.0,115.5147,0.9432,METERS
GHCND:ASN00006059,"YARINGA STATION, AS",2021-03-03,1923-02-01,-25.9436,13.0,114.3222,0.8587,METERS
GHCND:ASN00006060,"CARBLA STATION, AS",2018-12-31,1913-03-01,-26.2011,30.0,114.2869,0.9114,METERS
GHCND:ASN00006044,"DENHAM, AS",2021-03-14,1893-10-01,-25.9261,9.0,113.5319,0.8673,METERS
GHCND:ASN00006045,"TAMALA, AS",2021-02-14,1900-12-01,-26.6969,50.0,113.7158,0.8157,METERS
GHCND:ASN00006084,"WARROORA, AS",2021-01-31,1909-05-01,-23.4853,20.0,113.7811,0.7857,METERS
GHCND:ASN00006095,"QUOBBA, AS",2020-12-31,1952-01-01,-24.3967,16.0,113.4056,0.8099,METERS
GHCND:ASN00006097,"USELESS LOOP, AS",2021-02-11,1982-07-01,-26.1203,3.0,113.3975,0.8942,METERS
GHCND:ASN00006069,"MOUNT NARRYER, AS",2020-03-20,1900-01-01,-26.5903,300.0,115.9267,0.7595,METERS
GHCND:ASN00006070,"HILL SPRINGS, AS",2021-03-03,1950-01-01,-24.3058,60.0,114.5003,0.7534,METERS
GHCND:ASN00006071,"MUGGON, AS",2015-07-31,1932-01-01,-26.6167,280.0,115.5467,0.8295,METERS
GHCND:ASN00007011,"BURNERBINMAH, AS",2016-04-27,1902-11-01,-28.7839,400.0,117.3625,0.9304,METERS
GHCND:ASN00007014,"COODARDY, AS",2021-03-11,1898-11-01,-27.2528,500.0,117.6525,0.9162,METERS
GHCND:ASN00007017,"CUE, AS",2021-03-04,1894-10-01,-27.4233,453.0,117.8994,0.8952,METERS
GHCND:ASN00006099,"MURCHISON, AS",2021-03-13,1987-07-24,-26.8936,287.0,115.9561,0.977,METERS
GHCND:ASN00007000,"BARNONG, AS",2012-05-16,1902-10-01,-28.6294,340.0,116.2814,0.9093,METERS
GHCND:ASN00007006,"BOOGARDIE, AS",2015-07-31,1910-03-01,-28.0411,450.0,117.6703,0.7912,METERS
GHCND:ASN00007007,"BOOLARDY, AS",2021-03-10,1891-01-01,-26.9844,300.0,116.5361,0.8875,METERS
GHCND:ASN00007034,"JINGEMARRA, AS",2018-11-11,1923-04-01,-27.7447,400.0,116.7442,0.8821,METERS
GHCND:ASN00007042,"MADOONGA, AS",2015-12-31,1926-03-01,-26.9367,600.0,117.5928,0.9178,METERS
GHCND:ASN00007045,"MEEKATHARRA AIRPORT, AS",2021-03-14,1944-06-01,-26.6136,517.0,118.5372,0.97,METERS
GHCND:ASN00007027,"GABYON, AS",2021-01-31,1888-03-01,-28.2494,340.0,116.34,0.8634,METERS
GHCND:ASN00007028,"WANNA, AS",2019-07-05,1946-01-01,-24.0469,320.0,116.2181,0.8727,METERS
GHCND:ASN00007031,"HILLVIEW, AS",2015-11-30,1918-09-01,-26.905,600.0,118.8361,0.7607,METERS
GHCND:ASN00007037,"KIRKALOCKA, AS",2020-08-11,1910-08-01,-28.5564,400.0,117.7803,0.9248,METERS
GHCND:ASN00007054,"MOUNT FARMER, AS",2016-10-31,1927-11-01,-27.8794,600.0,117.5506,0.7957,METERS
GHCND:ASN00007058,"MOUNT PHILLIP, AS",2020-12-31,1902-03-01,-24.4,300.0,116.3078,0.7867,METERS
GHCND:ASN00007059,"MOUNT VERNON, AS",2021-03-13,1939-08-01,-24.2297,350.0,118.2408,0.9521,METERS
GHCND:ASN00007063,"MURALGARRA, AS",2014-09-30,1905-01-01,-28.5253,350.0,117.0344,0.8369,METERS
GHCND:ASN00007064,"MURGOO, AS",2021-03-03,1889-01-01,-27.3636,303.0,116.4261,0.8501,METERS
GHCND:ASN00007065,"NALBARRA, AS",2020-01-31,1906-03-01,-28.6519,400.0,117.6083,0.7965,METERS
GHCND:ASN00007067,"NARNDEE, AS",2020-02-29,1921-12-01,-28.9464,442.2,118.1867,0.8249,METERS
GHCND:ASN00007068,"NINGHAN STATION, AS",2021-03-04,1905-10-01,-29.425,330.0,117.2906,0.8985,METERS
GHCND:ASN00007072,"PULLAGAROO, AS",2021-03-04,1922-01-01,-29.1886,350.0,117.9222,0.8779,METERS
GHCND:ASN00007048,"MEKA STATION, AS",2021-03-03,1901-01-01,-27.4222,350.0,116.825,0.7654,METERS
GHCND:ASN00007049,"MILEURA, AS",2019-12-12,1899-01-01,-26.3736,400.0,117.3339,0.8591,METERS
GHCND:ASN00007050,"MILGUN, AS",2019-12-31,1916-10-01,-25.0942,600.0,118.2983,0.8376,METERS
GHCND:ASN00007053,"MOUNT AUGUSTUS, AS",2020-12-31,1901-08-01,-24.3086,337.0,116.9111,0.8422,METERS
GHCND:ASN00007089,"WOOLEEN, AS",2021-02-14,1895-01-01,-27.0878,300.0,116.1606,0.7567,METERS
GHCND:ASN00007091,"YALGOO, AS",2015-07-31,1898-03-01,-28.3392,318.0,116.6828,0.8586,METERS
GHCND:ASN00007093,"YARLERWEELOR, AS",2014-03-31,1924-01-01,-25.5786,500.0,117.9931,0.8188,METERS
GHCND:ASN00007094,"YINNETHARRA, AS",2021-03-03,1961-01-01,-24.6514,299.0,116.1647,0.8553,METERS
GHCND:ASN00007095,"YOWERAGABBIE, AS",2020-12-31,1898-03-01,-28.2322,400.0,117.6556,0.7859,METERS
GHCND:ASN00007097,"WONDINONG, AS",2020-12-31,1909-05-01,-27.8608,300.0,118.4183,0.8714,METERS
GHCND:ASN00007099,"YARRABUBBA, AS",2021-03-04,1914-07-01,-27.1308,450.0,118.7803,0.9482,METERS
GHCND:ASN00007101,"MUNARRA, AS",2020-08-16,1921-01-01,-26.2822,500.0,118.6933,0.864,METERS
GHCND:ASN00007103,"NEDS CREEK, AS",2021-03-13,1947-01-01,-25.48,600.0,119.6492,0.9585,METERS
GHCND:ASN00007080,"THREE RIVERS, AS",2019-04-13,1907-09-01,-25.1256,520.0,119.1514,0.8155,METERS
GHCND:ASN00007081,"THUNDELARRA, AS",2021-03-04,1907-01-01,-28.8928,353.0,117.1333,0.9752,METERS
GHCND:ASN00007083,"TUREE CREEK, AS",2021-03-14,1920-01-01,-23.6239,530.0,118.6561,0.908,METERS
GHCND:ASN00007130,"MILLY MILLY, AS",2018-06-19,1899-01-01,-26.0747,500.0,116.6942,0.8516,METERS
GHCND:ASN00007134,"MURCHISON DOWNS, AS",2021-03-04,1914-11-01,-26.795,500.0,118.9842,0.9363,METERS
GHCND:ASN00007105,"WOODLANDS, AS",2019-12-31,1955-08-01,-24.8094,519.0,118.1111,0.826,METERS
GHCND:ASN00007154,"WYNYANGOO, AS",2019-12-31,1963-01-01,-27.9369,400.0,118.1889,0.8804,METERS
GHCND:ASN00007157,"DALGARANGA, AS",2015-04-30,1913-01-01,-27.7744,450.0,117.0156,0.7899,METERS
GHCND:AGM00060535,"DJELFA TLETSI, AG",2021-03-10,1973-01-01,34.683,1144.0,3.25,0.9196,METERS
GHCND:AGM00060581,"OUED IRARA, AG",2021-03-10,1965-03-10,31.673,141.1,6.14,0.8501,METERS
GHCND:ASN00006103,"MIDDALYA, AS",2018-07-31,1911-01-01,-23.9064,100.0,114.7681,0.8861,METERS
GHCND:ARM00087022,"GENERAL ENRIQUE MOSCONI TARTA, AR",2021-03-10,1973-01-01,-22.62,449.0,-63.794,0.8065,METERS
GHCND:ARM00087506,"MALARGUE, AR",2021-03-10,1967-06-05,-35.494,1430.1,-69.574,0.8758,METERS
GHCND:ASN00003022,"QUANBUN DOWNS, AS",2019-12-31,1898-09-01,-18.3817,100.0,125.2267,0.815,METERS
GHCND:ASN00005051,"EXMOUTH TOWN, AS",2021-03-14,1967-06-08,-21.9303,13.0,114.1256,0.8419,METERS
GHCND:ASN00005082,"ERAMURRA POOL, AS",2021-02-28,1987-06-05,-21.0544,50.0,116.2575,0.9657,METERS
GHCND:ASN00006040,"MINNIE CREEK, AS",2020-02-29,1900-10-01,-24.0306,300.0,115.6967,0.8834,METERS
GHCND:ASN00006068,"WAHROONGA, AS",2021-03-03,1953-01-01,-25.4906,40.0,114.3981,0.8557,METERS
GHCND:ASN00006098,"WEEDARRAH, AS",2018-01-03,1985-06-01,-25.0294,300.0,115.8628,0.7577,METERS
GHCND:ASN00007019,"BULLOO DOWNS, AS",2021-03-04,1917-11-01,-24.0019,600.0,119.5725,0.8999,METERS
GHCND:ASN00007047,"MEELINE STATION, AS",2020-12-31,1923-01-01,-28.4467,450.0,118.2675,0.7818,METERS
GHCND:ASN00007078,"SHERWOOD, AS",2020-12-31,1925-06-01,-26.5597,500.0,118.5397,0.8939,METERS
GHCND:ASN00004035,"ROEBOURNE, AS",2015-01-10,1887-03-01,-20.7767,12.0,117.1456,0.9096,METERS
GHCND:ASN00004006,"BONNEY DOWNS, AS",2021-03-13,1907-01-01,-22.1828,480.0,119.935,0.9394,METERS
GHCND:ASN00004032,"PORT HEDLAND AIRPORT, AS",2021-03-14,1942-08-01,-20.3725,6.4,118.6317,0.9868,METERS
GHCND:ASN00007023,"DOOLGUNNA, AS",2021-03-12,1929-07-01,-25.6864,600.0,119.2258,0.9269,METERS
GHCND:ASN00007153,"PRAIRIE DOWNS, AS",2019-12-31,1968-05-01,-23.5531,620.0,119.1478,0.7981,METERS
GHCND:ASN00007176,"NEWMAN AERO, AS",2021-03-14,1971-10-01,-23.4169,524.0,119.7989,0.8977,METERS
GHCND:ASN00007177,"MININER, AS",2021-03-14,1964-04-01,-23.6042,450.0,117.6892,0.9855,METERS
GHCND:ASN00005020,"NINGALOO, AS",2018-08-31,1898-10-01,-22.6975,10.0,113.6747,0.9304,METERS
GHCND:ASN00007185,"PARABURDOO AERO, AS",2021-03-14,1974-06-01,-23.1725,423.7,117.7494,0.9674,METERS
GHCND:ASN00007193,"GLEN STATION, AS",2021-01-31,1982-01-01,-27.0503,450.0,117.6503,0.9481,METERS
GHCND:ASN00007195,"BYRO, AS",2021-02-17,1898-11-01,-26.0783,300.0,116.1533,0.7528,METERS
GHCND:ASN00007197,"CHALLA, AS",2021-03-04,1896-04-01,-28.2817,400.0,118.3111,0.9376,METERS
GHCND:ASN00008000,"AJANA, AS",2013-05-08,1917-08-01,-27.9608,210.0,114.6339,0.8386,METERS
GHCND:ASN00007179,"TANGADEE, AS",2021-03-11,1960-01-01,-24.4114,550.0,118.9408,0.868,METERS
GHCND:ASN00007180,"MARYMIA, AS",2020-11-30,1972-10-01,-25.0386,600.0,120.0064,0.8365,METERS
GHCND:ASN00008005,"BARBERTON, AS",2021-03-03,1911-08-01,-30.7294,200.0,116.02,0.9622,METERS
GHCND:ASN00008008,"BERKSHIRE VALLEY, AS",2021-03-05,1907-01-01,-30.5831,230.0,116.135,0.9902,METERS
GHCND:ASN00008009,"BINDI BINDI EAST, AS",2018-02-25,1929-02-01,-30.6286,300.0,116.3861,0.7654,METERS
GHCND:ASN00008010,"BINNU, AS",2015-11-30,1929-10-01,-28.0403,260.0,114.675,0.9466,METERS
GHCND:ASN00008013,"BOWGADA, AS",2021-03-04,1907-01-01,-29.3303,300.0,116.1433,0.9277,METERS
GHCND:ASN00008014,"DALWALLINU NORTH, AS",2021-01-31,1930-02-01,-30.2192,300.0,116.7783,0.7905,METERS
GHCND:ASN00008016,"GLENFERRIE, AS",2021-02-03,1913-09-01,-30.445,330.0,117.0406,0.971,METERS
GHCND:ASN00008017,"BUNTINE, AS",2017-06-30,1915-06-01,-29.9869,320.0,116.5711,0.8048,METERS
GHCND:ASN00008021,"SUNNYDALE, AS",2012-12-31,1957-02-01,-30.0425,320.0,116.6981,0.8505,METERS
GHCND:ASN00008022,"BALGERBINE, AS",2020-12-31,1959-05-01,-30.2911,300.0,116.3306,0.9858,METERS
GHCND:ASN00008025,"CARNAMAH, AS",2021-03-12,1887-12-01,-29.6889,268.0,115.8869,0.8467,METERS
GHCND:ASN00008028,"NABAWA, AS",2021-03-03,1905-11-01,-28.5008,145.0,114.7897,0.9655,METERS
GHCND:ASN00008002,"BALLIDU, AS",2021-03-04,1911-01-01,-30.5967,300.0,116.7714,0.9048,METERS
GHCND:ASN00008004,"BALLINE, AS",2020-10-31,1930-06-01,-28.0058,100.0,114.2206,0.9545,METERS
GHCND:ASN00008037,"COOROW, AS",2021-02-08,1912-01-01,-29.8819,280.0,116.0233,0.9294,METERS
GHCND:ASN00008039,"DALWALLINU COMPARISON, AS",2012-08-31,1912-09-01,-30.2772,335.0,116.6619,0.9868,METERS
GHCND:ASN00008044,"DONGARA, AS",2021-02-15,1884-01-01,-29.2528,9.0,114.9306,0.8046,METERS
GHCND:ASN00008046,"DUNOLLY, AS",2016-09-30,1906-03-01,-30.9133,350.0,116.8092,0.8782,METERS
GHCND:ASN00008047,"FAIRFIELD, AS",2020-11-15,1919-11-01,-29.4714,260.0,115.8528,0.8024,METERS
GHCND:ASN00008051,"GERALDTON AIRPORT, AS",2021-03-10,1941-08-23,-28.7953,33.0,114.6975,0.9834,METERS
GHCND:ASN00008052,"GLENEVA, AS",2021-03-04,1919-05-01,-28.17,260.0,114.7614,0.8989,METERS
GHCND:ASN00008057,"GREEN GROVE, AS",2021-01-31,1951-04-01,-29.5486,30.0,115.0689,0.9623,METERS
GHCND:ASN00008064,"INDARRIE, AS",2020-11-30,1923-12-01,-30.6719,320.0,116.3078,0.9629,METERS
GHCND:ASN00008065,"ISSEKA, AS",2020-12-31,1915-07-01,-28.4292,180.0,114.6542,0.9685,METERS
GHCND:ASN00008066,"KOKARDINE, AS",2021-03-04,1907-09-01,-30.7008,310.0,117.0608,0.9872,METERS
GHCND:ASN00008067,"KOOBABBIE, AS",2021-01-31,1911-01-01,-29.9414,280.0,116.2003,0.9974,METERS
GHCND:ASN00008075,"LYNTON, AS",2021-02-06,1914-09-01,-28.2103,15.0,114.305,0.8605,METERS
GHCND:ASN00008077,"HIGHFIELDS, AS",2021-03-12,1956-12-01,-29.6006,270.0,115.9392,0.9485,METERS
GHCND:ASN00008078,"MALLEE VALE, AS",2020-11-02,1935-01-01,-29.2419,300.0,115.7794,0.8418,METERS
GHCND:ASN00008079,"MANARRA, AS",2021-02-08,1907-01-01,-29.0711,260.0,115.6261,0.7967,METERS
GHCND:ASN00008081,"MELLENBYE, AS",2013-07-31,1904-01-01,-28.8883,340.0,116.1947,0.7964,METERS
GHCND:ASN00008085,"MILING, AS",2020-07-17,1924-10-01,-30.4919,250.0,116.3628,0.9342,METERS
GHCND:ASN00008060,"SOUTH HOLMWOOD, AS",2021-03-04,1921-01-01,-29.0364,240.0,115.5536,0.9876,METERS
GHCND:ASN00008061,"HYDE PARK, AS",2020-12-31,1911-02-01,-30.2842,340.0,116.6328,0.9931,METERS
GHCND:ASN00008095,"MULLEWA, AS",2021-03-13,1896-02-01,-28.5367,268.0,115.5142,0.9004,METERS
GHCND:ASN00008096,"MUMBY, AS",2020-11-14,1903-01-01,-28.1525,200.0,114.5689,0.9438,METERS
GHCND:ASN00008100,"NORTHAMPTON, AS",2021-03-11,1882-01-01,-28.3456,180.0,114.6367,0.833,METERS
GHCND:ASN00008104,"OGILVIE, AS",2020-12-31,1910-08-01,-28.1544,280.0,114.6692,0.9912,METERS
GHCND:ASN00008106,"PERANGERY, AS",2016-06-04,1910-09-01,-29.3692,280.0,116.4061,0.9208,METERS
GHCND:ASN00008107,"PERENJORI, AS",2021-03-04,1918-01-01,-29.4417,290.0,116.2875,0.8812,METERS
GHCND:ASN00008113,"RIVERSIDE, AS",2021-03-11,1929-07-01,-27.8325,200.0,114.7364,0.9578,METERS
GHCND:ASN00008087,"MINDALLA, AS",2021-03-04,1913-01-01,-30.4228,300.0,116.4583,0.877,METERS
GHCND:ASN00008088,"MINGENEW, AS",2021-03-04,1896-01-01,-29.1906,153.0,115.4414,0.865,METERS
GHCND:ASN00008121,"THREE SPRINGS, AS",2021-03-04,1907-01-01,-29.5339,249.0,115.7628,0.9527,METERS
GHCND:ASN00008126,"MINARU, AS",2017-06-30,1932-01-01,-29.8497,280.0,116.2289,0.8722,METERS
GHCND:ASN00008128,"TENINDEWA BINDU, AS",2020-09-19,1915-07-01,-28.5536,180.0,115.2456,0.9181,METERS
GHCND:ASN00008130,"WATHEROO, AS",2021-03-04,1899-12-01,-30.2992,259.0,116.0589,0.8617,METERS
GHCND:ASN00008137,"WONGAN HILLS, AS",2021-03-14,1907-01-01,-30.8917,283.0,116.7186,0.9934,METERS
GHCND:ASN00008139,"WUBIN, AS",2021-03-04,1922-01-01,-30.1069,330.0,116.6328,0.8706,METERS
GHCND:ASN00008141,"WILLIGULLI NORTH, AS",2016-07-31,1907-01-01,-28.3811,100.0,114.4531,0.7505,METERS
GHCND:ASN00008116,"SANDSPRINGS, AS",2021-02-08,1901-01-01,-28.7894,220.0,114.9417,0.7717,METERS
GHCND:ASN00008147,"YUNA, AS",2021-03-04,1909-08-01,-28.325,270.0,114.9589,0.9648,METERS
GHCND:ASN00008151,"WALEBING, AS",2021-02-07,1885-01-01,-30.665,300.0,116.1386,0.7521,METERS
GHCND:ASN00008157,"CANNA, AS",2021-03-04,1915-10-01,-28.8978,340.0,115.8628,0.959,METERS
GHCND:ASN00008168,"HOWATHARRA, AS",2021-02-08,1911-08-01,-28.5467,70.0,114.6244,0.7884,METERS
GHCND:ASN00008144,"YARRAGADEE, AS",2014-05-06,1906-02-01,-29.0767,160.0,115.4092,0.9286,METERS
GHCND:ASN00008146,"YTINICHE, AS",2021-01-31,1913-01-01,-30.0706,300.0,116.2092,0.9722,METERS
GHCND:ASN00008178,"YONGARLOO, AS",2020-01-31,1946-01-01,-29.1858,300.0,115.7406,0.8313,METERS
GHCND:ASN00008179,"EAST KONDUT, AS",2020-12-31,1947-01-01,-30.6583,300.0,116.9344,0.9273,METERS
GHCND:ASN00008225,"ENEABBA, AS",2017-03-23,1964-05-01,-29.8183,100.0,115.2722,0.9304,METERS
GHCND:ASN00008230,"ELENA, AS",2020-12-31,1943-01-01,-30.3817,290.0,116.7217,0.8593,METERS
GHCND:ASN00008233,"FIVE GUMS, AS",2018-12-31,1945-01-01,-29.4847,330.0,116.0703,0.9417,METERS
GHCND:ASN00008234,"BYRON, AS",2020-09-19,1968-08-01,-28.5675,180.0,115.2814,0.814,METERS
GHCND:ASN00008238,"HAKEA, AS",2021-01-31,1908-08-15,-30.0989,350.0,116.2339,0.8892,METERS
GHCND:ASN00008251,"KALBARRI, AS",2021-03-14,1970-11-01,-27.7119,6.0,114.165,0.9953,METERS
GHCND:ASN00008254,"KONDUT, AS",2021-03-04,1931-04-01,-30.7092,280.0,116.7744,0.9568,METERS
GHCND:ASN00008261,"MINDARA, AS",2014-11-26,1972-04-01,-29.0636,240.0,115.1753,0.8238,METERS
GHCND:ASN00008264,"WANARRA, AS",2021-01-31,1973-06-01,-29.5147,290.0,116.8011,0.8367,METERS
GHCND:ASN00008271,"NINDETHANA FARM, AS",2021-02-28,1977-10-01,-28.8114,340.0,115.9675,0.9919,METERS
GHCND:ASN00008273,"ARENA, AS",2021-03-03,1980-07-01,-29.3586,280.0,115.4503,0.9878,METERS
GHCND:ASN00008274,"NARALING, AS",2021-02-28,1982-01-01,-28.4194,200.0,114.8186,0.9911,METERS
GHCND:ASN00008276,"IRWIN HOUSE, AS",2020-11-02,1982-06-01,-29.2236,60.0,115.1075,0.9166,METERS
GHCND:ASN00008283,"KARAWA, AS",2021-01-31,1986-05-01,-30.1453,320.0,116.3844,0.9968,METERS
GHCND:ASN00008285,"MATARANKA, AS",2021-02-28,1987-10-02,-28.3181,300.0,114.7614,0.9698,METERS
GHCND:ASN00008288,"GHURKA, AS",2020-10-31,1972-01-01,-28.2575,200.0,114.6033,0.9532,METERS
GHCND:ASN00008292,"TAWARRI WEST, AS",2020-11-30,1975-01-01,-28.5164,240.0,115.37,0.977,METERS
GHCND:ASN00008294,"WANDANA, AS",2021-03-04,1960-01-01,-28.2094,260.0,115.285,0.9643,METERS
GHCND:ASN00008278,"WARRADARGE, AS",2020-08-31,1980-04-01,-30.0722,210.0,115.3136,0.8105,METERS
GHCND:ASN00008280,"EURARDY, AS",2021-03-04,1983-08-01,-27.5658,220.0,114.6733,0.895,METERS
GHCND:ASN00009001,"ARMADALE, AS",2019-01-31,1903-02-01,-32.1303,55.0,116.0053,0.892,METERS
GHCND:ASN00009006,"CHELSEA, AS",2020-12-31,1930-10-01,-30.6256,200.0,115.7803,0.7737,METERS
GHCND:ASN00009007,"CHIDLOW, AS",2021-03-12,1891-01-01,-31.8622,300.0,116.2658,0.8231,METERS
GHCND:ASN00009009,"LOWER CHITTERING, AS",2021-02-28,1915-06-01,-31.605,100.0,116.1114,0.9623,METERS
GHCND:ASN00009010,"CHURCHMAN BROOK, AS",2019-02-28,1911-01-01,-32.1486,300.0,116.0761,0.8991,METERS
GHCND:ASN00009015,"KARRAGULLEN NORTH, AS",2021-03-12,1962-01-01,-32.0892,330.0,116.125,0.7802,METERS
GHCND:ASN00009018,"GINGIN, AS",2021-03-10,1891-02-01,-31.3461,92.0,115.9031,0.8266,METERS
GHCND:ASN00009026,"MIMIGARRA, AS",2014-09-30,1952-01-01,-30.8533,130.0,115.4456,0.8681,METERS
GHCND:ASN00009030,"MUNDARING, AS",2021-03-12,1888-01-01,-31.8972,300.0,116.1575,0.7834,METERS
GHCND:ASN00009031,"MUNDARING WEIR, AS",2019-02-28,1900-02-01,-31.9564,190.0,116.1642,0.9145,METERS
GHCND:ASN00009033,"NEW NORCIA, AS",2021-03-05,1883-11-01,-30.9719,220.0,116.2089,0.8251,METERS
GHCND:ASN00009037,"BADGINGARRA RESEARCH STATION, AS",2021-03-14,1962-04-01,-30.3381,275.0,115.5394,0.9155,METERS
GHCND:ASN00009039,"SERPENTINE, AS",2021-03-14,1907-01-01,-32.3536,120.0,116.005,0.8313,METERS
GHCND:ASN00009040,"WANNAMAL, AS",2021-02-18,1906-02-01,-31.1428,170.0,116.0539,0.9076,METERS
GHCND:ASN00009044,"WUNGONG DAM, AS",2019-02-28,1913-10-01,-32.1969,200.0,116.0617,0.8933,METERS
GHCND:ASN00009023,"JARRAHDALE, AS",2021-03-14,1882-02-01,-32.3342,240.0,116.0755,0.7591,METERS
GHCND:ASN00009024,"MARBLING, AS",2021-01-31,1943-01-01,-31.5608,150.0,116.0842,0.9955,METERS
GHCND:ASN00009054,"TAMBREY, AS",2015-07-31,1938-02-01,-30.6033,300.0,115.6428,0.7519,METERS
GHCND:ASN00009064,"KWINANA BP REFINERY, AS",2012-10-31,1955-03-01,-32.2258,4.0,115.7611,0.971,METERS
GHCND:ASN00009066,"GIDGEGANNUP, AS",2021-03-14,1957-01-01,-31.7908,290.0,116.1975,0.9223,METERS
GHCND:ASN00009106,"GOSNELLS CITY, AS",2021-03-13,1961-04-01,-32.0486,10.0,115.9839,0.9188,METERS
GHCND:ASN00009111,"KARNET, AS",2021-03-13,1963-12-05,-32.44,286.0,116.0744,0.9808,METERS
GHCND:ASN00009131,"JURIEN BAY, AS",2021-03-14,1968-12-01,-30.3081,1.6,115.0311,0.9764,METERS
GHCND:ASN00009133,"LAKE LESCHENAULTIA, AS",2018-12-31,1969-04-01,-31.8511,260.0,116.2539,0.8526,METERS
GHCND:ASN00009137,"CARDUP, AS",2012-07-31,1970-06-01,-32.2475,50.0,116.0172,0.9857,METERS
GHCND:ASN00009144,"BARAMBA, AS",2020-12-31,1970-04-01,-31.0769,60.0,115.5083,0.845,METERS
GHCND:ASN00009114,"LANCELIN, AS",2021-03-14,1965-10-07,-31.0164,4.0,115.33,0.9969,METERS
GHCND:ASN00009115,"SERPENTINE MAIN DAM, AS",2016-05-31,1963-01-01,-32.4022,220.0,116.1039,0.973,METERS
GHCND:ASN00009151,"SUBIACO TREATMENT PLANT, AS",2021-02-08,1967-07-03,-31.9556,20.0,115.7928,0.9658,METERS
GHCND:ASN00009168,"KARRAGULLEN, AS",2019-12-31,1972-09-14,-32.1189,300.0,116.1206,0.9787,METERS
GHCND:ASN00009172,"JANDAKOT AERO, AS",2021-03-14,1972-10-01,-32.1011,30.0,115.8794,0.9516,METERS
GHCND:ASN00009193,"ROTTNEST ISLAND, AS",2021-03-14,1983-07-01,-32.0069,43.1,115.5022,0.835,METERS
GHCND:ASN00009194,"MEDINA RESEARCH CENTRE, AS",2018-01-12,1983-04-01,-32.2208,14.0,115.8075,0.9937,METERS
GHCND:ASN00009199,"LEEMAN, AS",2021-02-28,1983-02-01,-29.9486,2.0,114.9781,0.8312,METERS
GHCND:ASN00009202,"MOUNT HELENA, AS",2020-01-31,1986-10-17,-31.8344,300.0,116.2197,0.9932,METERS
GHCND:ASN00009206,"PICKERING BROOK, AS",2018-12-31,1974-05-01,-32.0381,280.0,116.1264,0.9214,METERS
GHCND:ASN00009207,"PICKERING BROOK NORTH, AS",2021-01-31,1988-01-01,-32.0208,220.0,116.1167,0.9641,METERS
GHCND:ASN00009181,"SWAN VIEW, AS",2014-08-30,1973-10-01,-31.8817,80.0,116.0592,0.9422,METERS
GHCND:ASN00009182,"MAIDA VALE, AS",2021-03-12,1975-05-01,-31.9544,25.0,116.0014,0.809,METERS
GHCND:ASN00009183,"TWO ROCKS, AS",2012-09-30,1975-12-01,-31.4978,20.0,115.5914,0.8603,METERS
GHCND:ASN00009216,"VICTORIA DAM, AS",2018-08-31,1968-11-22,-32.0394,160.0,116.0656,0.9732,METERS
GHCND:ASN00009219,"LUPIN VALLEY, AS",2014-12-31,1980-04-01,-30.6919,210.0,115.8119,0.7728,METERS
GHCND:ASN00009240,"BICKLEY, AS",2021-03-14,1969-01-01,-32.0056,384.0,116.1364,0.976,METERS
GHCND:ASN00009209,"SPRINGDALE, AS",2013-05-31,1970-12-01,-32.4331,280.0,116.0289,0.9261,METERS
GHCND:ASN00009210,"LAKE NAMMEN, AS",2021-03-07,1971-01-01,-30.8928,70.0,115.5789,0.8262,METERS
GHCND:ASN00009211,"PINDARITA, AS",2019-10-31,1971-01-01,-30.2892,150.0,115.3203,0.8181,METERS
GHCND:ASN00009257,"FORRESTDALE, AS",2021-02-28,1986-02-01,-32.1569,20.0,115.9275,0.9886,METERS
GHCND:ASN00009500,"ALBANY, AS",2021-03-14,1877-02-01,-35.0289,3.0,117.8808,0.7898,METERS
GHCND:ASN00009501,"ARUNDEL, AS",2019-08-06,1912-06-20,-34.4769,260.0,117.4811,0.9163,METERS
GHCND:ASN00009507,"BANNISTER, AS",2021-01-31,1885-01-01,-32.6836,350.0,116.5194,0.8243,METERS
GHCND:ASN00009509,"BODDINGTON SHIRE, AS",2021-01-31,1915-09-11,-32.8053,213.0,116.4711,0.8918,METERS
GHCND:ASN00009513,"BRUNSWICK JUNCTION, AS",2021-03-06,1909-01-01,-33.2136,30.0,115.85,0.9561,METERS
GHCND:ASN00009518,"CAPE LEEUWIN, AS",2021-03-14,1903-02-01,-34.3728,13.0,115.1358,0.9666,METERS
GHCND:ASN00009519,"CAPE NATURALISTE, AS",2021-03-14,1907-01-01,-33.5372,109.0,115.0189,0.9897,METERS
GHCND:ASN00009520,"CAPE RICHE, AS",2021-02-28,1897-01-01,-34.6086,40.0,118.7511,0.8636,METERS
GHCND:ASN00009523,"ILLALANGI, AS",2020-12-31,1912-01-01,-34.9728,200.0,117.2669,0.8544,METERS
GHCND:ASN00009527,"DARDANUP EAST, AS",2021-01-31,1935-06-01,-33.3969,40.0,115.7833,0.9988,METERS
GHCND:ASN00009530,"DEESIDE, AS",2020-12-31,1903-02-01,-34.3772,140.0,116.4144,0.9516,METERS
GHCND:ASN00009504,"BOYUP BROOK, AS",2020-12-31,1913-08-13,-33.8325,200.0,116.3894,0.9243,METERS
GHCND:ASN00009505,"BALINGUP, AS",2017-03-27,1924-10-15,-33.7864,120.0,115.9814,0.9211,METERS
GHCND:ASN00009506,"BANGALUP, AS",2021-01-31,1920-01-01,-34.4678,180.0,116.9169,0.9917,METERS
GHCND:ASN00009538,"DWELLINGUP, AS",2021-03-14,1934-02-01,-32.7103,267.0,116.0594,0.9965,METERS
GHCND:ASN00009547,"FOREST GROVE, AS",2021-02-28,1925-12-01,-34.0717,60.0,115.0986,0.9851,METERS
GHCND:ASN00009551,"GRASSMERE, AS",2016-10-21,1907-01-01,-35.0151,10.0,117.7577,0.9807,METERS
GHCND:ASN00009552,"GREENBUSHES, AS",2021-03-10,1896-02-01,-33.8564,310.0,116.0553,0.8323,METERS
GHCND:ASN00009556,"ALDERVALE, AS",2020-12-10,1907-02-01,-33.9781,200.0,116.3336,0.8923,METERS
GHCND:ASN00009557,"HOPETOUN, AS",2021-03-13,1907-01-01,-33.9497,15.0,120.1258,0.8894,METERS
GHCND:ASN00009559,"KALGAN RIVER, AS",2020-12-31,1911-01-23,-34.9097,50.0,117.9942,0.9014,METERS
GHCND:ASN00009534,"DONNYBROOK, AS",2021-03-13,1907-01-01,-33.5719,63.0,115.8247,0.9976,METERS
GHCND:ASN00009572,"MANDURAH PARK, AS",2017-10-27,1907-02-01,-32.5031,15.0,115.7664,0.8657,METERS
GHCND:ASN00009573,"MANJIMUP, AS",2021-03-14,1916-01-01,-34.2508,286.7,116.145,0.9847,METERS
GHCND:ASN00009574,"MARGARET RIVER, AS",2021-03-12,1928-12-01,-33.9592,80.0,115.0642,0.8955,METERS
GHCND:ASN00009575,"MARRADONG, AS",2021-03-06,1898-03-01,-32.8556,250.0,116.45,0.9101,METERS
GHCND:ASN00009579,"OAKE MARSH FARM, AS",2021-03-13,1951-09-01,-33.7633,60.0,122.0675,0.9364,METERS
GHCND:ASN00009581,"MOUNT BARKER, AS",2021-03-10,1907-01-01,-34.625,300.0,117.6361,0.9223,METERS
GHCND:ASN00009584,"MYRUP, AS",2021-01-31,1907-01-01,-33.7422,60.0,121.995,0.7616,METERS
GHCND:ASN00009585,"NANNUP, AS",2021-03-12,1900-02-01,-33.9797,100.0,115.7656,0.8657,METERS
GHCND:ASN00009587,"NEWBICUP, AS",2021-03-12,1918-02-01,-33.9967,240.0,116.4253,0.9386,METERS
GHCND:ASN00009592,"PEMBERTON, AS",2021-03-12,1941-02-01,-34.4478,174.0,116.0433,0.9644,METERS
GHCND:ASN00009594,"PEPPERMINT GROVE, AS",2020-12-31,1907-01-01,-34.435,60.0,119.3628,0.9708,METERS
GHCND:ASN00009596,"PINJARRA, AS",2012-11-30,1877-01-01,-32.6272,12.0,115.8747,0.7568,METERS
GHCND:ASN00009599,"BARRETT MEADOWS, AS",2020-08-17,1914-11-01,-34.98,30.0,117.6322,0.9529,METERS
GHCND:ASN00009607,"WHITE GUMS, AS",2021-03-11,1919-11-01,-34.5475,150.0,117.9308,0.9936,METERS
GHCND:ASN00009609,"YOUNGS SIDING, AS",2021-01-31,1907-01-01,-35.0183,100.0,117.5289,0.8486,METERS
GHCND:ASN00009611,"WALPOLE, AS",2021-02-28,1951-09-01,-34.9761,20.0,116.7328,0.8046,METERS
GHCND:ASN00009613,"WARNER GLEN, AS",2021-03-12,1942-01-01,-34.1436,30.0,115.2261,0.8896,METERS
GHCND:ASN00009614,"WAROONA, AS",2015-11-02,1935-10-18,-32.8356,40.0,115.9225,0.8824,METERS
GHCND:ASN00009615,"WARRIUP, AS",2021-02-28,1919-04-01,-34.715,20.0,118.4692,0.9893,METERS
GHCND:ASN00009589,"NORNALUP, AS",2021-02-28,1913-08-01,-34.9919,60.0,116.8206,0.8043,METERS
GHCND:ASN00009590,"NORTHCLIFFE, AS",2021-03-12,1925-03-01,-34.6339,120.0,116.1236,0.9426,METERS
GHCND:ASN00009591,"PARDELUP, AS",2021-01-31,1907-01-01,-34.6361,230.0,117.3822,0.8608,METERS
GHCND:ASN00009623,"WOOGENELLUP, AS",2012-12-31,1907-01-01,-34.5303,150.0,117.8247,0.7914,METERS
GHCND:ASN00009624,"YARLOOP, AS",2015-11-30,1947-06-11,-32.9592,30.0,115.9008,0.8935,METERS
GHCND:ASN00009625,"YELLANUP, AS",2020-11-30,1928-09-01,-34.7275,175.0,117.9222,0.9003,METERS
GHCND:ASN00009626,"PLEASANT VALLEY, AS",2021-02-18,1948-08-01,-33.7106,60.0,121.5619,0.9743,METERS
GHCND:ASN00009627,"YORNUP, AS",2011-12-31,1946-01-01,-34.0772,280.0,116.2033,0.9328,METERS
GHCND:ASN00009628,"COLLIE, AS",2021-03-12,1899-01-01,-33.36,204.0,116.1467,0.8702,METERS
GHCND:ASN00009629,"MARRIWOOD, AS",2021-03-05,1957-02-01,-33.4464,30.0,115.7308,0.9598,METERS
GHCND:ASN00009633,"TAMAR, AS",2021-03-12,1947-01-01,-34.8644,90.0,118.1122,0.7896,METERS
GHCND:ASN00009636,"COWARAMUP, AS",2021-03-12,1926-03-01,-33.8358,120.0,115.0747,0.8496,METERS
GHCND:ASN00009642,"WOKALUP, AS",2021-03-04,1951-11-01,-33.1336,30.0,115.8808,0.9435,METERS
GHCND:ASN00009619,"WILGARRUP, AS",2021-03-04,1903-02-01,-34.1519,240.0,116.2042,0.9467,METERS
GHCND:ASN00009657,"ROELANDS, AS",2019-03-31,1942-02-01,-33.2964,15.0,115.7789,0.9911,METERS
GHCND:ASN00009661,"ROCKY GULLY TOWN, AS",2020-12-15,1954-01-01,-34.5097,200.0,117.0117,0.9818,METERS
GHCND:ASN00009666,"MCALINDEN, AS",2020-09-30,1945-01-01,-33.5964,220.0,116.3347,0.9721,METERS
GHCND:ASN00009668,"KURANDA, AS",2021-01-31,1956-11-01,-33.6739,240.0,116.6475,0.9957,METERS
GHCND:ASN00009671,"WILGA, AS",2016-08-31,1959-01-01,-33.6878,270.0,116.2147,0.8151,METERS
GHCND:ASN00009673,"BOKERUP, AS",2020-12-31,1959-11-01,-34.2511,280.0,116.8767,0.9607,METERS
GHCND:ASN00009647,"WEREROA, AS",2021-02-28,1959-01-01,-34.9506,140.0,117.2769,0.9803,METERS
GHCND:ASN00009648,"THIRLMERE, AS",2017-06-30,1954-06-01,-33.5064,20.0,115.6403,0.8569,METERS
GHCND:ASN00009678,"REDMOND, AS",2021-02-28,1955-01-01,-34.8772,93.0,117.6725,0.96,METERS
GHCND:ASN00009730,"COOMALBIDGUP, AS",2017-01-31,1980-01-01,-33.6961,80.0,121.3656,0.9552,METERS
GHCND:ASN00009738,"MUJA POWER STATION, AS",2021-02-24,1962-11-01,-33.4531,260.0,116.3025,0.8923,METERS
GHCND:ASN00009739,"TELINA DOWNS, AS",2021-03-14,1961-12-01,-33.6789,170.0,122.3311,0.9368,METERS
GHCND:ASN00009752,"DENBARKER, AS",2021-03-12,1966-08-01,-34.7233,205.0,117.3494,0.8186,METERS
GHCND:ASN00009754,"METTLER, AS",2021-03-13,1966-11-23,-34.5961,120.0,118.5519,0.9595,METERS
GHCND:ASN00009766,"LITTLE GROVE, AS",2021-01-31,1969-09-01,-35.0597,2.0,117.8658,0.8371,METERS
GHCND:ASN00009769,"CULFORD, AS",2021-03-14,1967-04-16,-32.5698,335.0,116.4385,0.9209,METERS
GHCND:ASN00009771,"YOONGARILLUP, AS",2021-02-28,1957-01-01,-33.7411,60.0,115.4697,0.9957,METERS
GHCND:ASN00009772,"ERINAIR, AS",2021-03-13,1968-01-01,-33.7608,60.0,121.2156,0.9957,METERS
GHCND:ASN00009741,"ALBANY AIRPORT, AS",2021-03-10,1963-09-16,-34.9414,68.0,117.8022,0.9857,METERS
GHCND:ASN00009784,"KIMBERLEY, AS",2021-03-12,1969-06-01,-34.9319,80.0,117.1606,0.922,METERS
GHCND:ASN00009789,"ESPERANCE, AS",2021-03-14,1969-06-29,-33.83,25.0,121.8925,0.9986,METERS
GHCND:ASN00009801,"ALEXANDRA BRIDGE, AS",2020-12-31,1971-01-01,-34.1597,20.0,115.1892,0.9744,METERS
GHCND:ASN00009802,"THE OAKS, AS",2018-12-31,1967-01-01,-33.6633,90.0,121.6306,0.9088,METERS
GHCND:ASN00009803,"CHAPMAN HILL, AS",2021-03-12,1951-01-01,-33.7831,60.0,115.3447,0.8517,METERS
GHCND:ASN00009804,"ADINA, AS",2021-02-28,1969-01-01,-33.8811,60.0,122.2167,0.9986,METERS
GHCND:ASN00009805,"WALPOLE FORESTRY, AS",2021-03-14,1970-06-01,-34.9769,15.0,116.7286,0.8629,METERS
GHCND:ASN00009825,"ORLEANS FARM NORTH, AS",2016-08-31,1972-01-01,-33.7517,90.0,122.9128,0.8197,METERS
GHCND:ASN00009827,"SECOND BEACH, AS",2019-12-31,1972-05-01,-33.8819,46.0,121.8597,0.9147,METERS
GHCND:ASN00009832,"LOWER KALGAN, AS",2013-10-31,1972-08-01,-34.9469,50.0,118.0039,0.9213,METERS
GHCND:ASN00009835,"WAYJO PARK, AS",2020-11-01,1963-01-01,-34.4033,80.0,118.9689,0.9377,METERS
GHCND:ASN00009837,"WELLSTEAD, AS",2014-12-31,1973-11-01,-34.4889,110.0,118.6211,0.9619,METERS
GHCND:ASN00009842,"JARRAHWOOD, AS",2021-03-14,1975-08-01,-33.7964,130.0,115.6658,0.9971,METERS
GHCND:ASN00009815,"THE DUKE, AS",2021-03-13,1971-03-01,-33.8819,61.0,122.5661,0.8652,METERS
GHCND:ASN00009816,"LORT RIVER STATION, AS",2018-12-31,1967-12-01,-33.7256,60.0,121.3014,0.7619,METERS
GHCND:ASN00009848,"WINDRUSH, AS",2021-03-12,1971-01-01,-34.7719,120.0,118.1317,0.9659,METERS
GHCND:ASN00009850,"CARBARUP, AS",2021-01-31,1989-01-01,-34.5378,245.0,117.7197,0.9857,METERS
GHCND:ASN00009862,"CAPERCUP, AS",2016-12-31,1965-05-01,-33.5083,250.0,116.7386,0.9965,METERS
GHCND:ASN00009865,"WARRA JARRA, AS",2021-03-12,1979-01-01,-34.3997,90.0,118.8867,0.8623,METERS
GHCND:ASN00009867,"LORINNA, AS",2017-08-06,1972-03-01,-33.6511,100.0,122.0161,0.9981,METERS
GHCND:ASN00009870,"CAPE LE GRAND NAT PARK, AS",2021-01-31,1980-01-01,-33.9161,60.0,122.2083,0.9545,METERS
GHCND:ASN00009893,"WILLOWDALE, AS",2020-01-31,1982-01-01,-32.9233,320.0,116.0081,0.948,METERS
GHCND:ASN00009894,"WAGERUP REFINERY, AS",2021-02-28,1981-01-01,-32.9183,65.0,115.9217,0.91,METERS
GHCND:ASN00009897,"CAPE ARID NATIONAL PARK, AS",2021-01-31,1988-01-01,-33.8536,70.0,123.0069,0.827,METERS
GHCND:ASN00009899,"KARRALEA, AS",2020-12-31,1972-01-01,-34.8883,80.0,118.0789,0.7818,METERS
GHCND:ASN00009904,"WALTERS FARM, AS",2021-01-31,1970-11-01,-34.5967,90.0,116.1072,0.9154,METERS
GHCND:ASN00009912,"FERGUSON VALLEY, AS",2021-03-05,1972-06-01,-33.445,120.0,115.8508,0.9953,METERS
GHCND:ASN00009913,"EKAMURRA, AS",2020-12-14,1972-03-01,-33.6906,240.0,115.8439,0.8365,METERS
GHCND:ASN00009914,"VALERN, AS",2021-03-12,1972-04-01,-33.3197,300.0,116.6464,0.9719,METERS
GHCND:ASN00009915,"HILLVIEW FARM, AS",2012-04-30,1971-01-01,-32.9981,60.0,115.9211,0.9716,METERS
GHCND:ASN00009916,"CRENDON, AS",2014-11-30,1973-01-01,-33.6422,110.0,115.8119,0.9565,METERS
GHCND:ASN00009917,"PERIVALE ORCHARD, AS",2021-03-05,1973-01-01,-33.7058,100.0,115.7878,0.9009,METERS
GHCND:ASN00009921,"OLDFIELD, AS",2019-05-08,1974-01-01,-33.6539,110.0,121.3683,0.8784,METERS
GHCND:ASN00009924,"WYNDARRA, AS",2020-06-30,1974-02-01,-34.2489,200.0,116.4969,0.9772,METERS
GHCND:ASN00009928,"VERMEULEN, AS",2021-01-31,1974-06-01,-34.8389,180.0,116.7211,0.9998,METERS
GHCND:ASN00009930,"TAMARU, AS",2020-11-02,1966-04-01,-34.8794,60.0,118.0467,0.8982,METERS
GHCND:ASN00009907,"YANMAH, AS",2016-12-31,1970-08-01,-34.2131,260.0,116.0231,0.9332,METERS
GHCND:ASN00009908,"ONE TREE BRIDGE HAZELMERE, AS",2021-01-31,1970-08-01,-34.2292,200.0,115.9294,0.9664,METERS
GHCND:ASN00009909,"ASTON DOWNS, AS",2021-01-31,1972-05-01,-33.7914,80.0,115.3189,0.8663,METERS
GHCND:ASN00008007,"PINDAWA, AS",2020-12-31,1958-01-01,-28.8956,350.0,115.8106,0.9894,METERS
GHCND:ASN00008072,"LATHAM, AS",2021-03-04,1934-01-01,-29.7586,290.0,116.4444,0.9405,METERS
GHCND:ASN00008138,"WONGAN HILLS RES.STATION, AS",2014-07-14,1937-01-01,-30.8408,305.0,116.7267,0.9672,METERS
GHCND:ASN00008143,"YANDANOOKA, AS",2021-03-04,1903-03-01,-29.2872,210.0,115.6331,0.9277,METERS
GHCND:ASN00008159,"MAYSBORO, AS",2011-12-31,1951-01-01,-30.9903,270.0,116.3553,0.9785,METERS
GHCND:ASN00009936,"HUNTLY, AS",2021-03-14,1990-01-01,-32.6239,320.0,116.0603,0.9939,METERS
GHCND:ASN00008286,"WUNDI, AS",2021-03-04,1972-04-01,-28.275,200.0,114.6761,0.8661,METERS
GHCND:ASN00009021,"PERTH AIRPORT, AS",2021-03-14,1944-05-01,-31.9275,15.4,115.9764,1.0,METERS
GHCND:ASN00009113,"ROLEYSTONE, AS",2021-03-12,1964-07-01,-32.1108,250.0,116.0953,0.92,METERS
GHCND:ASN00009503,"BOYANUP, AS",2014-09-02,1903-02-01,-33.4825,37.0,115.7286,0.8498,METERS
GHCND:ASN00009531,"DENMARK, AS",2021-03-12,1911-01-01,-34.9617,20.0,117.3567,0.8869,METERS
GHCND:ASN00009561,"KENDENUP, AS",2021-01-31,1907-01-01,-34.4878,262.0,117.6278,0.9322,METERS
GHCND:ASN00009616,"WESTBOURNE, AS",2021-02-28,1903-02-01,-34.0911,280.0,116.6628,0.9649,METERS
GHCND:ASN00009510,"BRIDGETOWN COMPARISON, AS",2012-08-31,1891-02-01,-33.9575,149.9,116.1375,0.8626,METERS
GHCND:ASN00009740,"GORDON RIVER, AS",2011-06-30,1961-02-01,-34.2358,220.0,117.1869,0.9419,METERS
GHCND:ASN00009843,"FRANKLAND VINEYARDS, AS",2020-11-30,1975-12-02,-34.4417,230.0,116.9944,0.8427,METERS
GHCND:ASN00009871,"WINDY HARBOUR, AS",2021-03-14,1984-01-01,-34.8361,4.5,116.0308,0.9053,METERS
GHCND:ASN00009875,"MOUNT BARKER NORTH, AS",2019-05-31,1985-04-01,-34.5692,255.0,117.6217,0.9575,METERS
GHCND:ASN00009906,"GLENGARREN, AS",2020-11-30,1973-01-01,-34.1378,270.0,116.2333,0.7644,METERS
GHCND:ASN00009927,"THE WOLD LOWDEN, AS",2021-02-28,1974-04-01,-33.6028,220.0,116.0128,0.9922,METERS
GHCND:ASN00009954,"MERIVALE FARM, AS",2017-12-19,1983-04-01,-33.8097,60.0,122.0844,0.9084,METERS
GHCND:ASN00010002,"BAANDEE NORTH, AS",2020-12-31,1911-01-01,-31.3667,270.0,117.9031,0.9815,METERS
GHCND:ASN00010004,"BEACON, AS",2018-12-31,1927-12-01,-30.4494,370.0,117.8636,0.7893,METERS
GHCND:ASN00010006,"BELKA, AS",2021-03-04,1912-01-01,-31.7278,280.0,118.1108,0.9901,METERS
GHCND:ASN00010007,"BENCUBBIN, AS",2021-03-14,1915-11-01,-30.8081,359.0,117.8603,0.9005,METERS
GHCND:ASN00010009,"BOLGART, AS",2021-03-05,1906-12-01,-31.2744,240.0,116.5092,0.8638,METERS
GHCND:ASN00010010,"BONNIE DOON, AS",2020-03-15,1923-01-01,-30.9386,310.0,117.9642,0.9254,METERS
GHCND:ASN00010011,"BONNIE ROCK, AS",2021-03-04,1935-11-01,-30.4731,430.0,118.3819,0.8995,METERS
GHCND:ASN00010012,"BOODJERAKINE, AS",2020-12-31,1913-08-01,-31.5278,260.0,117.4361,0.9978,METERS
GHCND:ASN00010016,"BRUCE ROCK, AS",2020-12-10,1914-10-01,-31.8775,280.0,118.15,0.8985,METERS
GHCND:ASN00010017,"BUNGULLA NORTH, AS",2013-08-31,1913-12-01,-31.5547,320.0,117.5858,0.8333,METERS
GHCND:ASN00010018,"BURAKIN, AS",2014-12-31,1926-04-01,-30.5325,360.0,117.1739,0.8564,METERS
GHCND:ASN00010019,"BURRACOPPIN, AS",2021-03-11,1901-01-01,-31.3958,346.0,118.4808,0.937,METERS
GHCND:ASN00010026,"GOODLANDS, AS",2021-03-04,1951-09-01,-30.0606,310.0,117.1417,0.9929,METERS
GHCND:ASN00010030,"WATTONING, AS",2021-02-28,1896-01-01,-30.7767,330.0,118.1992,0.8271,METERS
GHCND:ASN00010032,"COWCOWING, AS",2021-03-04,1907-08-01,-30.9964,300.0,117.3953,0.9859,METERS
GHCND:ASN00010034,"FORT HILL, AS",2021-01-10,1913-01-01,-31.7272,300.0,118.2931,0.9548,METERS
GHCND:ASN00010035,"CUNDERDIN, AS",2012-06-30,1914-01-01,-31.6494,220.0,117.2331,0.9504,METERS
GHCND:ASN00010036,"YOUNDEGIN, AS",2021-01-31,1947-11-01,-31.7903,320.0,117.3283,0.946,METERS
GHCND:ASN00010037,"CUTTENING, AS",2012-08-31,1889-02-01,-31.7264,300.0,117.7644,0.8469,METERS
GHCND:ASN00010040,"DOODLAKINE, AS",2021-03-13,1910-09-01,-31.6089,251.0,117.8775,0.9245,METERS
GHCND:ASN00010041,"DOONGIN PEAK, AS",2021-03-12,1897-01-01,-31.6192,250.0,117.4372,0.921,METERS
GHCND:ASN00010042,"DOWERIN, AS",2021-01-31,1904-01-01,-31.1936,273.0,117.0311,0.9143,METERS
GHCND:ASN00010044,"BUNGULLA, AS",2021-03-04,1928-01-01,-31.6231,260.0,117.5431,0.992,METERS
GHCND:ASN00010045,"EJANDING, AS",2019-12-31,1907-07-01,-31.0097,290.0,117.1344,0.9974,METERS
GHCND:ASN00010047,"GUM PARK, AS",2020-09-30,1912-08-01,-31.0467,290.0,118.1514,0.7906,METERS
GHCND:ASN00010058,"GOOMALLING, AS",2021-03-12,1889-01-01,-31.2994,239.0,116.8269,0.8138,METERS
GHCND:ASN00010060,"GRABALL, AS",2021-03-14,1912-03-01,-31.9886,330.0,118.5106,0.8979,METERS
GHCND:ASN00010061,"HAPPY VALLEY, AS",2021-03-14,1937-01-01,-31.1417,300.0,116.9558,0.9998,METERS
GHCND:ASN00010070,"KALANNIE, AS",2021-01-31,1928-08-01,-30.3686,340.0,117.1133,0.9111,METERS
GHCND:ASN00010073,"KELLERBERRIN, AS",2021-03-09,1894-01-01,-31.6183,250.0,117.7217,0.8934,METERS
GHCND:ASN00010077,"KOORDA, AS",2021-03-04,1911-11-01,-30.825,310.0,117.4825,0.8384,METERS
GHCND:ASN00010053,"FRIARS WELL, AS",2021-01-31,1913-11-01,-31.7233,300.0,118.4372,0.8237,METERS
GHCND:ASN00010082,"KUNUNOPPIN, AS",2021-01-31,1913-01-01,-31.1125,290.0,117.9186,0.8841,METERS
GHCND:ASN00010083,"THE PINES, AS",2020-12-31,1913-01-01,-31.3725,350.0,118.1961,0.9188,METERS
GHCND:ASN00010084,"GLAMOFF, AS",2021-01-31,1959-08-01,-30.1056,357.0,117.3597,0.9928,METERS
GHCND:ASN00010091,"MECKERING, AS",2021-01-31,1897-01-01,-31.6322,195.0,117.0081,0.8251,METERS
GHCND:ASN00010092,"MERREDIN, AS",2021-03-14,1904-01-01,-31.4756,315.0,118.2789,0.966,METERS
GHCND:ASN00010093,"MERREDIN RESEARCH STATION, AS",2013-03-31,1912-01-01,-31.4994,318.0,118.2242,0.9173,METERS
GHCND:ASN00010095,"MILLSTON, AS",2021-01-31,1913-01-01,-31.5936,300.0,118.2347,0.9869,METERS
GHCND:ASN00010097,"MONINGARIN, AS",2021-03-04,1910-09-01,-30.6569,375.0,117.2625,0.9893,METERS
GHCND:ASN00010102,"MUKINBUDIN, AS",2021-03-05,1928-08-01,-30.9153,309.0,118.2028,0.891,METERS
GHCND:ASN00010104,"NANYANINE, AS",2020-12-15,1939-07-01,-31.4025,360.0,117.7239,0.9307,METERS
GHCND:ASN00010108,"NOKANING, AS",2019-06-30,1914-04-01,-31.3261,300.0,118.2464,0.9494,METERS
GHCND:ASN00010115,"QUELLINGTON, AS",2021-01-31,1909-06-01,-31.7714,220.0,116.8647,0.8096,METERS
GHCND:ASN00010116,"QUONDONG, AS",2019-12-31,1920-07-01,-31.5397,250.0,117.4781,0.8768,METERS
GHCND:ASN00010118,"BREAKELL, AS",2021-01-31,1914-05-01,-31.9917,260.0,118.0264,0.9245,METERS
GHCND:ASN00010119,"KITLANE, AS",2021-01-31,1913-09-01,-31.795,350.0,118.3947,0.9971,METERS
GHCND:ASN00010120,"DOODENANNING, AS",2020-12-31,1900-02-01,-31.9091,290.0,117.0986,0.7634,METERS
GHCND:ASN00010121,"TAMMIN, AS",2021-03-12,1911-05-01,-31.6431,250.0,117.4872,0.9878,METERS
GHCND:ASN00010122,"TELENNING HILL, AS",2021-03-13,1915-10-01,-31.8308,240.0,117.4875,0.8926,METERS
GHCND:ASN00010123,"THE GRANITES, AS",2020-12-31,1910-08-01,-31.9925,250.0,117.9325,0.9739,METERS
GHCND:ASN00010124,"NANGEENAN, AS",2021-03-13,1904-01-01,-31.5136,280.0,118.1753,0.9628,METERS
GHCND:ASN00010125,"TOODYAY, AS",2019-11-01,1877-01-01,-31.5453,140.0,116.4594,0.7772,METERS
GHCND:ASN00010126,"TRAYNING, AS",2021-03-10,1910-03-01,-31.1153,290.0,117.7942,0.9472,METERS
GHCND:ASN00010134,"WATTENING, AS",2021-03-12,1913-01-01,-31.3119,240.0,116.515,0.9771,METERS
GHCND:ASN00010135,"WIALKI, AS",2021-03-06,1931-08-01,-30.4869,390.0,118.1258,0.8965,METERS
GHCND:ASN00010136,"WIALKI SOUTH, AS",2021-03-04,1927-05-16,-30.5892,400.0,118.1489,0.8296,METERS
GHCND:ASN00010137,"WIALKI NORTH, AS",2019-12-31,1929-10-01,-30.3294,410.0,118.0872,0.9059,METERS
GHCND:ASN00010140,"WYALKATCHEM, AS",2020-11-14,1909-10-01,-31.1806,320.0,117.3797,0.9402,METERS
GHCND:ASN00010112,"NUNGARIN, AS",2021-03-12,1904-11-01,-31.1842,292.0,118.1006,0.922,METERS
GHCND:ASN00010143,"YGNATTERING, AS",2021-03-05,1928-06-01,-31.415,295.0,117.2664,0.9856,METERS
GHCND:ASN00010145,"YORKRAKINE, AS",2021-03-13,1911-01-01,-31.3756,300.0,117.5853,0.8794,METERS
GHCND:ASN00010149,"CODG CODGEN, AS",2021-03-05,1902-11-01,-31.3361,320.0,117.8164,0.9621,METERS
GHCND:ASN00010150,"GRASS VALLEY, AS",2021-02-28,1891-02-01,-31.6358,200.0,116.7961,0.8527,METERS
GHCND:ASN00010151,"HINES HILL, AS",2021-03-13,1915-08-01,-31.5317,270.0,118.0986,0.8389,METERS
GHCND:ASN00010155,"CADOUX, AS",2021-03-04,1929-10-01,-30.7686,370.0,117.1361,0.9101,METERS
GHCND:ASN00010156,"CALINGIRI, AS",2020-08-31,1929-01-01,-31.0908,250.0,116.4483,0.8725,METERS
GHCND:ASN00010158,"BERIA, AS",2020-11-10,1935-11-01,-30.4072,470.0,118.2797,0.8617,METERS
GHCND:ASN00010163,"JAROMA, AS",2021-03-03,1922-12-01,-31.7711,265.0,117.1433,0.8301,METERS
GHCND:ASN00010165,"GREEN HILLS, AS",2019-07-31,1956-04-01,-31.9408,244.0,116.9839,0.8617,METERS
GHCND:ASN00010243,"FAIRFIELDS, AS",2020-07-26,1946-01-01,-31.4972,280.0,117.5894,0.8282,METERS
GHCND:ASN00010244,"BAKERS HILL CSIRO, AS",2019-06-07,1964-05-01,-31.7603,330.0,116.4781,0.8213,METERS
GHCND:ASN00010250,"REDWING, AS",2018-01-31,1930-01-01,-31.135,305.0,116.9242,0.9991,METERS
GHCND:ASN00010251,"DANBERRIN, AS",2017-07-31,1971-01-01,-31.2867,310.0,118.0592,0.7624,METERS
GHCND:ASN00010264,"KENANDRA, AS",2021-01-31,1969-11-01,-30.1547,390.0,117.8214,0.9663,METERS
GHCND:ASN00010294,"COODERNUPPIN, AS",2021-03-05,1968-07-01,-31.5736,244.0,117.5097,0.9769,METERS
GHCND:ASN00010295,"BALKULING NORTH, AS",2019-12-07,1968-10-01,-31.9067,295.0,117.2336,0.8706,METERS
GHCND:ASN00010298,"KOONADGIN, AS",2020-11-30,1926-02-01,-31.5594,350.0,118.5819,0.9167,METERS
GHCND:ASN00010304,"NUNILE, AS",2021-03-12,1991-01-01,-31.485,280.0,116.5383,0.9643,METERS
GHCND:ASN00010502,"AMELUP, AS",2021-03-12,1907-01-01,-34.2553,210.0,118.2214,0.9772,METERS
GHCND:ASN00010503,"ARDATH, AS",2021-03-13,1913-08-10,-32.0311,280.0,118.0947,0.9369,METERS
GHCND:ASN00010504,"OAK PARK, AS",2020-10-02,1911-06-15,-34.0811,320.0,117.5181,0.8558,METERS
GHCND:ASN00010508,"BADGEBUP, AS",2021-03-12,1915-01-01,-33.6361,300.0,117.9278,0.963,METERS
GHCND:ASN00010510,"BAROOGA, AS",2020-12-31,1911-01-01,-33.1642,280.0,116.7992,0.9942,METERS
GHCND:ASN00010513,"BENDERING, AS",2021-01-31,1929-06-13,-32.3869,300.0,118.2622,0.9987,METERS
GHCND:ASN00010515,"BEVERLEY, AS",2021-03-14,1886-01-01,-32.1083,199.0,116.9247,0.8595,METERS
GHCND:ASN00010518,"BOORALEE, AS",2021-03-12,1922-09-01,-32.4006,300.0,118.6058,0.974,METERS
GHCND:ASN00010519,"BORDEN, AS",2021-02-28,1923-08-01,-34.0717,220.0,118.2628,0.9698,METERS
GHCND:ASN00010520,"BOSCABEL, AS",2021-03-12,1916-01-01,-33.6614,260.0,117.0539,0.8701,METERS
GHCND:ASN00010525,"BROOMEHILL, AS",2020-12-01,1891-01-01,-33.8461,328.0,117.6386,0.8504,METERS
GHCND:ASN00010526,"BROOMEHILL EAST, AS",2014-06-30,1921-09-01,-33.8269,300.0,117.8594,0.8349,METERS
GHCND:ASN00010527,"BULYEE, AS",2021-03-14,1933-07-01,-32.3756,250.0,117.5128,0.9199,METERS
GHCND:ASN00010528,"BUNKIN, AS",2020-12-31,1903-01-01,-33.2472,310.0,117.6614,0.9078,METERS
GHCND:ASN00010530,"CHAMINGUP, AS",2021-03-12,1913-05-17,-33.9144,320.0,117.0994,0.9034,METERS
GHCND:ASN00010531,"CHERRY TREE, AS",2021-03-12,1926-06-01,-33.7069,295.0,117.2411,0.9785,METERS
GHCND:ASN00010534,"COLORADO, AS",2021-03-04,1913-05-12,-32.4825,270.0,117.5647,0.9965,METERS
GHCND:ASN00010536,"CORRIGIN, AS",2021-03-12,1910-01-01,-32.3292,295.0,117.8733,0.9926,METERS
GHCND:ASN00010537,"CRANBROOK, AS",2021-03-05,1891-02-01,-34.2961,255.0,117.5533,0.8196,METERS
GHCND:ASN00010538,"CUBALLING, AS",2017-02-09,1912-01-01,-32.8183,342.0,117.18,0.9224,METERS
GHCND:ASN00010539,"MILYUNUP, AS",2018-12-31,1948-08-01,-34.1792,250.0,117.6428,0.8415,METERS
GHCND:ASN00010541,"NYERILUP, AS",2021-03-12,1907-10-01,-33.8594,280.0,118.8158,0.9424,METERS
GHCND:ASN00010542,"DARKAN, AS",2021-03-12,1899-01-01,-33.3347,280.0,116.7425,0.8361,METERS
GHCND:ASN00010543,"DARTNALL, AS",2019-02-28,1921-09-01,-34.0414,300.0,117.7428,0.7647,METERS
GHCND:ASN00010544,"DELLYANINE, AS",2019-03-31,1910-11-28,-33.3956,300.0,117.0944,0.8287,METERS
GHCND:ASN00010546,"DUMBLEYUNG, AS",2021-03-13,1910-01-01,-33.3142,270.0,117.74,0.9529,METERS
GHCND:ASN00010547,"DURANILLIN, AS",2018-06-07,1910-12-01,-33.5167,230.0,116.8028,0.9239,METERS
GHCND:ASN00010550,"EDENHOLME, AS",2020-12-31,1923-08-01,-33.2658,285.0,118.4861,0.8039,METERS
GHCND:ASN00010524,"BROOKTON, AS",2021-03-14,1907-02-01,-32.3725,250.0,117.0072,0.9812,METERS
GHCND:ASN00010558,"GNOWANGERUP, AS",2021-02-28,1913-01-01,-33.9372,260.0,118.0075,0.9371,METERS
GHCND:ASN00010560,"GRAHAM ROCK, AS",2021-01-31,1934-01-01,-32.5403,320.0,119.1122,0.982,METERS
GHCND:ASN00010561,"RUSHY POOL, AS",2015-04-10,1911-04-01,-33.0272,315.0,117.3878,0.9891,METERS
GHCND:ASN00010564,"HILLCROFT, AS",2021-02-07,1915-01-01,-32.3472,265.0,116.8553,0.941,METERS
GHCND:ASN00010565,"HOLT ROCK, AS",2021-03-12,1929-01-01,-32.6744,320.0,119.4144,0.9672,METERS
GHCND:ASN00010566,"HORSESHOE, AS",2019-07-31,1923-03-01,-33.5714,270.0,117.2111,0.8737,METERS
GHCND:ASN00010568,"HYDEN, AS",2021-03-14,1928-10-01,-32.4419,299.0,118.8983,0.9843,METERS
GHCND:ASN00010571,"JALNA, AS",2021-01-31,1947-10-01,-32.3789,235.0,116.8258,0.9966,METERS
GHCND:ASN00010576,"KARLGARIN, AS",2015-01-22,1933-08-01,-32.4994,300.0,118.7106,0.8705,METERS
GHCND:ASN00010579,"KATANNING COMPARISON, AS",2012-08-31,1891-01-01,-33.6886,310.0,117.5553,0.8725,METERS
GHCND:ASN00010582,"KOJONUP, AS",2021-03-14,1885-01-01,-33.83,305.0,117.159,0.8212,METERS
GHCND:ASN00010584,"KULIN, AS",2021-02-07,1918-01-01,-32.6719,310.0,118.1547,0.9232,METERS
GHCND:ASN00010586,"KUMMININ, AS",2014-11-30,1910-01-01,-32.0083,270.0,118.2322,0.9247,METERS
GHCND:ASN00010589,"KWOBRUP, AS",2019-12-31,1915-09-12,-33.61,295.0,117.9878,0.8799,METERS
GHCND:ASN00010592,"LAKE GRACE COMPARISON, AS",2012-08-31,1912-07-20,-33.1006,286.0,118.4625,0.9967,METERS
GHCND:ASN00010593,"LAKE KING, AS",2015-12-07,1929-04-10,-33.0872,330.0,119.6761,0.7876,METERS
GHCND:ASN00010595,"PINGRUP SOUTH, AS",2020-03-18,1935-10-18,-33.6514,290.0,118.5517,0.9894,METERS
GHCND:ASN00010596,"LAKE PINGRUP, AS",2019-12-31,1912-07-19,-33.4117,290.0,118.5111,0.8986,METERS
GHCND:ASN00010598,"LILYDALE, AS",2021-01-31,1917-04-01,-33.1975,290.0,116.9106,0.7917,METERS
GHCND:ASN00010600,"NANDA DOWNS, AS",2020-07-31,1913-09-17,-33.6067,300.0,118.4292,0.9499,METERS
GHCND:ASN00010603,"HARTWOOD, AS",2021-01-31,1913-05-01,-32.4231,260.0,118.2003,0.9875,METERS
GHCND:ASN00010606,"LAKE CAMM, AS",2019-08-31,1929-01-15,-32.9267,320.0,119.5775,0.9527,METERS
GHCND:ASN00010581,"KING ROCKS, AS",2020-03-06,1930-01-01,-32.2894,330.0,119.1358,0.8711,METERS
GHCND:ASN00010611,"MOUNT MADDEN, AS",2020-12-31,1931-02-06,-33.2761,310.0,119.7753,0.9595,METERS
GHCND:ASN00010612,"NAREMBEEN, AS",2021-03-14,1927-03-01,-32.0656,276.0,118.3956,0.9921,METERS
GHCND:ASN00010614,"NARROGIN, AS",2021-03-14,1891-01-01,-32.9342,338.0,117.1797,0.8806,METERS
GHCND:ASN00010617,"NEWDEGATE, AS",2020-12-31,1925-04-01,-33.0939,300.0,119.0236,0.9228,METERS
GHCND:ASN00010619,"NYABING, AS",2021-03-10,1913-01-20,-33.5417,330.0,118.1489,0.904,METERS
GHCND:ASN00010620,"OAKLAND, AS",2017-02-28,1912-05-01,-32.3044,240.0,116.6358,0.9078,METERS
GHCND:ASN00010622,"ONGERUP, AS",2021-03-13,1914-06-24,-33.9644,286.0,118.4889,0.9885,METERS
GHCND:ASN00010625,"PINGARING, AS",2021-03-12,1929-02-01,-32.7533,280.0,118.6261,0.8373,METERS
GHCND:ASN00010626,"PINGELLY, AS",2021-03-14,1891-01-01,-32.5336,297.0,117.0831,0.8866,METERS
GHCND:ASN00010628,"QUAIRADING, AS",2021-03-12,1911-04-01,-32.0094,250.0,117.4014,0.9787,METERS
GHCND:ASN00010633,"RAVENSTHORPE, AS",2021-03-14,1907-01-01,-33.5803,232.0,120.0458,0.9953,METERS
GHCND:ASN00010634,"REDLANDS, AS",2021-03-12,1911-09-01,-32.3108,260.0,116.7675,0.9135,METERS
GHCND:ASN00010635,"RIVERDALE, AS",2021-03-04,1909-02-01,-33.7853,260.0,116.9064,0.9585,METERS
GHCND:ASN00010636,"THE OAKS, AS",2020-12-31,1907-01-01,-33.1542,340.0,117.6708,0.8652,METERS
GHCND:ASN00010641,"MAYBROOK, AS",2020-12-31,1914-08-19,-33.375,260.0,116.9053,0.9182,METERS
GHCND:ASN00010643,"TAMBELLUP, AS",2021-03-12,1907-01-01,-34.0444,260.0,117.6419,0.8739,METERS
GHCND:ASN00010644,"BATHURST, AS",2020-08-31,1913-11-07,-33.1256,350.0,118.1961,0.9844,METERS
GHCND:ASN00010647,"WAGIN, AS",2021-03-10,1891-01-01,-33.3075,256.0,117.3403,0.8782,METERS
GHCND:ASN00010654,"WICKEPIN, AS",2020-11-17,1911-11-01,-32.7822,350.0,117.4992,0.9804,METERS
GHCND:ASN00010655,"WILLIAMS, AS",2019-01-24,1885-01-01,-33.0269,260.0,116.8792,0.7501,METERS
GHCND:ASN00010657,"NAIRIBIN, AS",2016-06-15,1915-09-01,-33.3556,320.0,117.9161,0.8825,METERS
GHCND:ASN00010658,"WONNAMINTA, AS",2019-12-31,1905-01-01,-32.8331,300.0,116.9911,0.92,METERS
GHCND:ASN00010659,"WOODANILLING, AS",2020-12-31,1916-04-01,-33.5636,284.0,117.4336,0.7649,METERS
GHCND:ASN00010665,"KUKERIN, AS",2021-03-05,1912-06-23,-33.1886,315.0,118.0836,0.9271,METERS
GHCND:ASN00010666,"LOCHNAGAR, AS",2018-12-31,1943-05-01,-32.0394,340.0,118.9022,0.988,METERS
GHCND:ASN00010638,"ST ALBANS, AS",2020-08-11,1912-01-01,-32.5228,300.0,118.3047,0.9398,METERS
GHCND:ASN00010670,"LAKE CARMODY, AS",2021-02-08,1907-01-01,-32.4436,310.0,119.3442,0.8829,METERS
GHCND:ASN00010671,"AVOCA, AS",2020-12-31,1930-10-02,-33.1361,290.0,117.8814,0.9332,METERS
GHCND:ASN00010691,"KURRARA PARK, AS",2018-12-31,1952-12-01,-33.0964,320.0,117.4047,0.9766,METERS
GHCND:ASN00010692,"NEWDEGATE RESEARCH STATION, AS",2021-03-14,1954-11-01,-33.1131,320.0,118.84,0.9709,METERS
GHCND:ASN00010694,"TWOLGANUP, AS",2019-01-31,1955-01-01,-33.9956,249.0,117.9164,0.997,METERS
GHCND:ASN00010696,"AMRISTA PARK, AS",2020-08-13,1956-01-01,-32.6597,340.0,118.6319,0.9974,METERS
GHCND:ASN00010700,"KOJONOLOKAN HILLS, AS",2021-03-10,1957-05-01,-33.4972,300.0,117.3131,0.7898,METERS
GHCND:ASN00010702,"MOUNT WALKER, AS",2021-03-04,1956-12-01,-32.1003,340.0,118.8058,0.9326,METERS
GHCND:ASN00010704,"BALLAYING, AS",2021-01-31,1959-11-01,-33.3281,260.0,117.5628,0.9871,METERS
GHCND:ASN00010705,"HYDEN NORTH, AS",2020-12-30,1948-01-01,-32.3344,340.0,118.8492,0.9714,METERS
GHCND:ASN00010707,"JERRAMUNGUP, AS",2021-03-13,1962-11-01,-33.9411,320.0,118.92,0.8731,METERS
GHCND:ASN00010708,"NORTH STIRLINGS, AS",2016-06-30,1959-02-01,-34.2208,240.0,117.9811,0.9188,METERS
GHCND:ASN00010699,"MINDARABIN, AS",2021-02-07,1956-02-01,-33.7136,320.0,118.1894,0.985,METERS
GHCND:ASN00010792,"GAIRDNER, AS",2021-03-09,1963-02-01,-34.1692,180.0,118.9444,0.9871,METERS
GHCND:ASN00010793,"TARWONGA, AS",2020-12-31,1961-07-01,-33.2114,300.0,116.9919,0.9108,METERS
GHCND:ASN00010795,"AVONDALE FARM, AS",2016-06-01,1965-01-01,-32.1178,200.0,116.8678,0.9702,METERS
GHCND:ASN00010797,"ELAROO, AS",2019-07-31,1964-01-01,-34.2514,245.0,117.9119,0.8415,METERS
GHCND:ASN00010803,"MARIA, AS",2021-03-02,1968-05-01,-33.0114,340.0,118.2389,0.8218,METERS
GHCND:ASN00010807,"BILBARIN, AS",2020-12-31,1967-10-01,-32.1842,280.0,117.9675,0.9054,METERS
GHCND:ASN00010811,"NTH RAVENSTHORPE, AS",2021-01-31,1968-09-01,-33.1806,340.0,120.0883,0.9987,METERS
GHCND:ASN00010851,"MINNI DOWNS, AS",2017-12-17,1970-10-01,-32.8192,400.0,119.2936,0.8375,METERS
GHCND:ASN00010866,"CRANHAM, AS",2021-03-12,1954-01-01,-33.9317,340.0,117.3258,0.9657,METERS
GHCND:ASN00010869,"CARLINGUP, AS",2020-12-31,1972-05-01,-33.5942,150.0,120.1833,0.8858,METERS
GHCND:ASN00010870,"MAINNERUP, AS",2020-11-30,1972-04-01,-33.6914,290.0,119.6608,0.776,METERS
GHCND:ASN00010876,"CAERNARVON PARK, AS",2021-01-31,1976-03-01,-32.7353,260.0,116.8381,0.9876,METERS
GHCND:ASN00010878,"CHESALON, AS",2021-03-13,1966-05-01,-33.5381,350.0,119.6564,0.9925,METERS
GHCND:ASN00010881,"GIBB ROCK, AS",2021-03-14,1978-10-01,-32.1336,380.0,119.0261,0.8924,METERS
GHCND:ASN00010884,"SHERAWANYAH, AS",2012-12-31,1982-01-01,-33.8592,320.0,118.125,0.805,METERS
GHCND:ASN00010889,"MORDETTA, AS",2021-03-12,1972-01-01,-32.885,320.0,118.6347,0.7787,METERS
GHCND:ASN00010894,"ALLAN ROCKS, AS",2021-03-12,1967-07-01,-32.6322,300.0,119.0958,0.8996,METERS
GHCND:ASN00010895,"MONTE VISTA, AS",2020-12-31,1968-01-01,-33.3994,310.0,119.9344,0.9738,METERS
GHCND:ASN00010896,"YOOROOGA, AS",2020-11-30,1984-05-15,-33.4331,320.0,120.1178,0.9308,METERS
GHCND:ASN00010897,"NALYERLUP, AS",2021-03-02,1983-11-01,-34.2206,240.0,118.5042,0.9427,METERS
GHCND:ASN00010901,"KARINGAL, AS",2016-12-31,1975-02-01,-33.8731,320.0,118.2003,0.882,METERS
GHCND:ASN00010904,"SWANARA, AS",2021-01-31,1957-01-01,-32.1717,305.0,118.6136,0.9227,METERS
GHCND:ASN00011008,"MUNDRABILLA STATION, AS",2021-03-08,1903-01-01,-31.8433,20.0,127.8572,0.85,METERS
GHCND:ASN00011009,"NANAMBINIA, AS",2015-05-31,1907-01-01,-32.6681,160.0,123.5831,0.8624,METERS
GHCND:ASN00011010,"NOONDOONIA, AS",2015-05-31,1911-03-01,-32.3114,170.0,123.7261,0.8256,METERS
GHCND:ASN00011025,"MOONERA, AS",2018-11-05,1964-01-01,-31.7219,101.0,126.5889,0.7598,METERS
GHCND:ASN00011029,"ARUBIDDY, AS",2016-10-09,1964-06-01,-31.8097,120.0,125.9267,0.9815,METERS
GHCND:ASN00011031,"NEVERTIRE, AS",2018-03-31,1970-01-01,-31.3497,180.0,125.2231,0.9497,METERS
GHCND:ASN00011032,"RAWLINNA DEPOT, AS",2018-02-22,1970-01-01,-31.5803,180.0,125.2019,0.9672,METERS
GHCND:ASN00011033,"MCTAGGARTS, AS",2018-01-31,1970-01-01,-31.9178,180.0,125.3008,0.9457,METERS
GHCND:ASN00011034,"BARVESK, AS",2018-01-31,1970-01-01,-31.6436,180.0,124.935,0.9468,METERS
GHCND:ASN00011035,"BULL CAMEL, AS",2018-01-31,1970-01-01,-31.1956,180.0,124.8481,0.9428,METERS
GHCND:ASN00011048,"NIGHTSHADE, AS",2018-02-28,1984-10-02,-32.1761,300.0,125.3953,0.795,METERS
GHCND:ASN00011050,"KYBO, AS",2018-01-31,1980-01-01,-31.0239,160.0,126.5842,0.9237,METERS
GHCND:ASN00012001,"ALBION DOWNS, AS",2017-01-30,1936-05-01,-27.2878,500.0,120.3919,0.7989,METERS
GHCND:ASN00012008,"BOOYLGOO SPRING, AS",2013-07-31,1922-07-01,-27.7556,610.0,119.9078,0.9058,METERS
GHCND:ASN00012011,"BULLFINCH, AS",2021-03-05,1911-10-01,-30.9869,362.0,119.1142,0.989,METERS
GHCND:ASN00012013,"BULONG, AS",2021-03-11,1898-01-01,-30.7503,380.0,121.7519,0.9259,METERS
GHCND:ASN00012018,"COOLGARDIE POST OFFICE, AS",2020-03-02,1893-01-01,-30.9542,427.0,121.1656,0.8414,METERS
GHCND:ASN00012025,"DEPOT SPRINGS, AS",2021-02-28,1926-07-01,-27.9331,441.0,120.0575,0.9152,METERS
GHCND:ASN00012026,"BODALLIN SOUTH, AS",2021-03-05,1930-05-01,-31.6419,410.0,118.9019,0.8687,METERS
GHCND:ASN00012027,"EDJUDINA, AS",2021-03-05,1900-01-01,-29.8119,460.0,122.3547,0.8415,METERS
GHCND:ASN00012028,"GORYA VALLEY, AS",2021-03-04,1931-07-01,-33.0372,240.0,121.6644,0.8472,METERS
GHCND:ASN00012029,"FRASER RANGE, AS",2021-03-12,1901-03-01,-32.0339,460.0,122.8017,0.7881,METERS
GHCND:ASN00012038,"KALGOORLIE BOULDER AIRPORT, AS",2021-03-14,1939-03-01,-30.7847,365.3,121.4533,0.9876,METERS
GHCND:ASN00012043,"KOOKYNIE, AS",2019-05-31,1902-03-01,-29.3361,423.0,121.4944,0.8352,METERS
GHCND:ASN00012045,"LAVERTON, AS",2021-01-31,1899-12-01,-28.6306,461.0,122.4072,0.8809,METERS
GHCND:ASN00012046,"LEONORA, AS",2020-08-05,1898-01-01,-28.8836,376.0,121.3303,0.9053,METERS
GHCND:ASN00012052,"MENZIES, AS",2019-04-12,1898-01-01,-29.6939,425.9,121.0297,0.8861,METERS
GHCND:ASN00012054,"DOBRA SCRITIA, AS",2016-04-30,1903-01-01,-31.4161,370.0,119.0467,0.8844,METERS
GHCND:ASN00012056,"MOREE, AS",2021-01-31,1929-06-08,-31.5939,410.0,119.1419,0.9835,METERS
GHCND:ASN00012064,"NOONGAAR, AS",2021-03-11,1926-05-23,-31.3356,440.0,118.98,0.9612,METERS
GHCND:ASN00012065,"NORSEMAN, AS",2012-08-31,1898-03-01,-32.1981,277.0,121.7794,0.9184,METERS
GHCND:ASN00012067,"PINNACLES, AS",2015-03-31,1926-01-01,-28.1969,400.0,120.4378,0.8345,METERS
GHCND:ASN00012070,"SALMON GUMS, AS",2015-11-07,1922-01-01,-32.9803,250.0,121.6433,0.8127,METERS
GHCND:ASN00012071,"SALMON GUMS RES.STN., AS",2021-03-14,1932-06-01,-32.9869,249.0,121.6239,0.9841,METERS
GHCND:ASN00012072,"SANDSTONE, AS",2021-01-31,1904-11-01,-27.9875,533.0,119.2961,0.926,METERS
GHCND:ASN00012077,"I DUNNO, AS",2021-01-31,1926-01-01,-32.8606,270.0,121.7081,0.9758,METERS
GHCND:ASN00012079,"TURKEY HILL NORTH, AS",2021-01-31,1929-10-01,-31.0381,380.0,119.3064,0.9739,METERS
GHCND:ASN00012082,"WEEBO, AS",2021-03-04,1930-05-01,-28.0067,450.0,121.0789,0.8914,METERS
GHCND:ASN00012083,"WESTONIA, AS",2021-03-03,1915-05-21,-31.3011,350.0,118.6922,0.9584,METERS
GHCND:ASN00012090,"YEELIRRIE, AS",2017-11-30,1928-03-01,-27.2842,487.0,120.0931,0.9978,METERS
GHCND:ASN00012092,"YUINMERY, AS",2021-01-31,1921-09-01,-28.5606,500.0,119.0161,0.9991,METERS
GHCND:ASN00012093,"YUNDAMINDRA, AS",2016-05-06,1901-03-01,-29.2472,450.0,122.1022,0.9052,METERS
GHCND:ASN00012101,"SEVEN OAKS, AS",2020-02-29,1922-09-01,-31.3211,323.0,118.5475,0.7765,METERS
GHCND:ASN00012108,"WONGANOO, AS",2015-12-31,1928-07-01,-27.1397,500.0,121.3397,0.9578,METERS
GHCND:ASN00012114,"RICHFIELDS, AS",2020-12-27,1955-01-01,-33.6839,120.0,120.6958,0.7836,METERS
GHCND:ASN00012176,"STURT MEADOWS, AS",2020-12-31,1900-12-01,-28.6781,400.0,120.9706,0.9004,METERS
GHCND:ASN00012198,"SCADDAN WEST, AS",2020-12-31,1964-05-01,-33.3844,180.0,121.4494,0.9571,METERS
GHCND:ASN00012201,"YOUANMI VALLEY, AS",2021-01-31,1965-10-16,-31.7036,420.0,119.2378,0.985,METERS
GHCND:ASN00012204,"DEDARI, AS",2012-11-30,1963-11-01,-31.0931,451.0,120.6908,0.7543,METERS
GHCND:ASN00012221,"BODALLIN, AS",2014-12-31,1968-09-01,-31.3692,366.0,118.8361,0.8796,METERS
GHCND:ASN00012223,"LORT RIVER, AS",2021-02-26,1969-01-01,-33.2242,200.0,121.3544,0.9868,METERS
GHCND:ASN00012265,"CIRCLE VALLEY, AS",2017-12-31,1954-01-01,-33.0603,240.0,121.7842,0.8234,METERS
GHCND:ASN00012280,"BANJAWARN, AS",2021-01-31,1975-04-01,-27.7036,550.0,121.6131,0.7832,METERS
GHCND:ASN00012281,"MUNGLINUP MELALEUCA, AS",2013-08-29,1975-04-29,-33.5969,210.0,120.7578,0.9368,METERS
GHCND:ASN00012283,"TARMOOLA, AS",2016-03-31,1980-05-01,-28.7175,390.0,121.1506,0.7818,METERS
GHCND:ASN00012291,"RIVER PLAINS, AS",2021-02-18,1983-02-23,-33.4578,200.0,120.915,0.995,METERS
GHCND:ASN00012295,"COPPIN ROCK, AS",2017-01-31,1957-11-01,-31.1003,335.0,118.6019,0.7989,METERS
GHCND:ASN00012297,"BEAUMONT WEST, AS",2021-03-05,1982-01-01,-33.4853,180.0,122.5867,0.7794,METERS
GHCND:ASN00012298,"MULGARA, AS",2020-12-31,1984-01-01,-31.7575,400.0,119.4522,0.9071,METERS
GHCND:ASN00012312,"KATTA BAREGA, AS",2021-01-31,1963-03-01,-33.5906,150.0,122.4519,0.9746,METERS
GHCND:ASN00013000,"OLD CUNYU, AS",2015-12-31,1930-07-01,-26.0242,500.0,120.1033,0.8694,METERS
GHCND:ASN00013002,"GLEN AYLE, AS",2020-12-31,1950-03-01,-25.2661,480.0,122.0433,0.9915,METERS
GHCND:ASN00013005,"LORNA GLEN, AS",2021-03-14,1939-05-01,-26.2225,550.0,121.5561,0.904,METERS
GHCND:ASN00013006,"MILLROSE, AS",2019-04-30,1929-03-01,-26.4006,550.0,120.9539,0.9543,METERS
GHCND:ASN00013007,"BALGO HILLS, AS",2016-02-19,1940-01-01,-20.1417,420.0,127.9867,0.8947,METERS
GHCND:ASN00013012,"WILUNA, AS",2019-12-04,1899-05-01,-26.5914,521.0,120.225,0.9438,METERS
GHCND:ASN00013014,"CUNYU SHEARING SHED, AS",2021-03-11,1910-05-01,-25.8181,600.0,120.1706,0.843,METERS
GHCND:ASN00013015,"CARNEGIE, AS",2021-03-13,1942-11-01,-25.7964,448.0,122.9753,0.8272,METERS
GHCND:ASN00013017,"GILES METEOROLOGICAL OFFICE, AS",2021-03-14,1956-08-01,-25.0341,598.0,128.301,0.9998,METERS
GHCND:ASN00013018,"WONGAWOL, AS",2021-03-12,1966-04-01,-26.1208,500.0,121.9403,0.883,METERS
GHCND:ASN00013030,"TELFER AERO, AS",2021-03-14,1974-01-01,-21.7125,291.9,122.2281,0.9781,METERS
GHCND:ASN00013032,"GRANITE PEAK, AS",2021-02-18,1980-11-01,-25.6361,500.0,121.3533,0.7654,METERS
GHCND:ASN00014015,"DARWIN AIRPORT, AS",2021-03-14,1941-01-01,-12.4239,30.4,130.8925,1.0,METERS
GHCND:ASN00014040,"DARWIN AIRPORT COMPARISON, AS",2021-03-10,1941-02-02,-12.4227,30.0,130.8844,0.9693,METERS
GHCND:ASN00014042,"OENPELLI, AS",2013-04-22,1910-09-01,-12.3263,6.7,133.0581,0.9717,METERS
GHCND:ASN00014090,"MIDDLE POINT, AS",2021-01-31,1957-07-01,-12.5781,10.0,131.3145,0.7507,METERS
GHCND:ASN00014142,"PIRLANGIMPI, AS",2021-03-14,1963-11-01,-11.4022,18.3,130.4217,0.8604,METERS
GHCND:ASN00014149,"HOWARD SPRINGS, AS",2021-03-14,1964-10-01,-12.4558,34.0,131.0505,0.8364,METERS
GHCND:ASN00014153,"BLACK POINT, AS",2021-03-10,1965-01-01,-11.1538,5.0,132.143,0.9566,METERS
GHCND:ASN00014183,"DARWIN RIVER DAM, AS",2021-03-08,1968-10-01,-12.8324,100.0,130.9713,0.9581,METERS
GHCND:ASN00014198,"JABIRU AIRPORT, AS",2021-03-14,1971-06-03,-12.6594,26.5,132.8939,0.867,METERS
GHCND:ASN00014204,"THE PINES, AS",2018-04-30,1971-01-01,-13.7578,100.0,131.574,0.8904,METERS
GHCND:ASN00014219,"MCMINNS LAGOON, AS",2021-03-14,1976-01-01,-12.5491,35.0,131.0794,0.9035,METERS
GHCND:ASN00014222,"ELIZABETH VALLEY, AS",2021-03-14,1986-03-01,-12.6374,36.0,131.0763,0.9173,METERS
GHCND:ASN00014226,"HUMPTY DOO COLLARD ROAD, AS",2021-03-14,1981-01-01,-12.5764,30.0,131.0829,0.9736,METERS
GHCND:ASN00014227,"KARAMA, AS",2021-03-11,1987-04-11,-12.3887,16.0,130.9248,0.789,METERS
GHCND:ASN00014238,"WAGAIT BEACH, AS",2021-03-12,1988-09-01,-12.4346,30.0,130.7491,0.8544,METERS
GHCND:ASN00014246,"LEANYER, AS",2021-03-14,1989-11-07,-12.3784,10.0,130.9057,0.9896,METERS
GHCND:ASN00014253,"CHANNEL POINT, AS",2021-03-14,1990-11-01,-13.1672,3.0,130.1225,0.98,METERS
GHCND:ASN00014401,"WARRUWI, AS",2021-03-14,1916-12-01,-11.6502,19.2,133.3796,0.9323,METERS
GHCND:ASN00014507,"ALYANGULA POLICE, AS",2012-06-30,1970-02-01,-13.8483,20.0,136.4198,0.831,METERS
GHCND:ASN00014509,"ALCAN MINESITE, AS",2021-03-11,1971-01-26,-12.2609,20.0,136.8391,0.835,METERS
GHCND:ASN00014512,"NHULUNBUY DTW, AS",2018-10-31,1974-11-01,-12.1939,20.0,136.7637,0.7764,METERS
GHCND:ASN00014609,"NGUKURR, AS",2012-07-19,1910-06-01,-14.7295,34.0,134.7274,0.7547,METERS
GHCND:ASN00014612,"LARRIMAH, AS",2021-03-14,1952-11-01,-15.5748,180.0,133.2138,0.9678,METERS
GHCND:ASN00014618,"DALY WATERS, AS",2013-03-31,1873-07-01,-16.253,211.8,133.37,0.8059,METERS
GHCND:ASN00014621,"NUTWOOD DOWNS, AS",2021-03-11,1935-09-01,-15.8087,183.0,134.1477,0.9151,METERS
GHCND:ASN00014628,"TANUMBIRINI, AS",2021-03-11,1970-06-01,-16.455,165.0,134.6504,0.7769,METERS
GHCND:ASN00014638,"GORRIE, AS",2021-02-24,1985-09-01,-15.527,175.0,132.6533,0.8445,METERS
GHCND:ASN00014702,"MALLAPUNYAH, AS",2020-10-31,1963-10-01,-16.9756,195.0,135.8132,0.9777,METERS
GHCND:ASN00014703,"CENTRE ISLAND, AS",2021-03-14,1968-03-01,-15.7426,12.2,136.8192,0.9619,METERS
GHCND:ASN00014704,"MCARTHUR RIVER MINE, AS",2021-03-14,1968-03-01,-16.4423,40.0,136.076,0.9138,METERS
GHCND:ASN00014705,"CALVERT HILLS, AS",2016-01-13,1968-03-01,-17.2314,183.0,137.3308,0.8263,METERS
GHCND:ASN00014707,"WOLLOGORANG, AS",2020-03-31,1967-01-01,-17.2122,60.0,137.9462,0.7633,METERS
GHCND:ASN00014712,"HODGSON RIVER, AS",2020-03-26,1974-08-01,-15.5756,110.0,134.0952,0.7661,METERS
GHCND:ASN00014718,"REDBANK MINE, AS",2015-05-31,1973-07-01,-17.1916,195.0,137.7429,0.8005,METERS
GHCND:ASN00014720,"BENMARA, AS",2015-09-30,1968-12-19,-17.9178,229.0,136.9051,0.8917,METERS
GHCND:ASN00014802,"CAMFIELD, AS",2020-04-11,1967-05-01,-17.0365,186.0,131.2941,0.9453,METERS
GHCND:ASN00014803,"LEGUNE, AS",2021-03-12,1957-01-01,-15.2085,26.0,129.4502,0.832,METERS
GHCND:ASN00014807,"MONTEJINNI, AS",2020-10-05,1968-01-01,-16.6652,174.0,131.7642,0.778,METERS
GHCND:ASN00014815,"WATERLOO, AS",2021-03-12,1916-01-01,-16.6346,140.0,129.3282,0.9512,METERS
GHCND:ASN00014820,"NEWRY, AS",2017-01-17,1901-04-01,-16.0498,101.0,129.2649,0.832,METERS
GHCND:ASN00018046,"LOCK, AS",2021-03-13,1915-01-01,-33.5679,145.0,135.7571,0.8945,METERS
GHCND:ASN00014823,"LIMBUNYA, AS",2014-12-31,1920-09-01,-17.2297,380.0,129.8874,0.8371,METERS
GHCND:ASN00014825,"VICTORIA RIVER DOWNS, AS",2021-03-14,1885-10-01,-16.403,88.5,131.0145,0.9624,METERS
GHCND:ASN00014829,"LAJAMANU, AS",2021-03-14,1952-01-01,-18.3325,315.6,130.6358,0.822,METERS
GHCND:ASN00014831,"RIVEREN, AS",2021-03-13,1969-01-01,-17.9041,323.0,130.2268,0.9038,METERS
GHCND:ASN00014836,"INVERWAY, AS",2021-03-12,1955-05-01,-17.8484,403.0,129.6361,0.825,METERS
GHCND:ASN00014840,"WAVE HILL, AS",2021-03-14,1973-11-01,-17.3871,196.0,131.1166,0.9905,METERS
GHCND:ASN00014847,"KIDMAN SPRINGS, AS",2021-03-12,1969-09-01,-16.1176,100.0,130.9558,0.9747,METERS
GHCND:ASN00014850,"TIMBER CREEK, AS",2021-03-13,1981-01-22,-15.6614,20.1,130.4808,0.9982,METERS
GHCND:ASN00014853,"KEEP RIVER RANGERS, AS",2021-03-09,1982-04-01,-15.97,100.0,129.0407,0.8819,METERS
GHCND:ASN00014857,"SUPLEJACK, AS",2021-03-14,1982-01-01,-19.2798,452.0,129.9422,0.8962,METERS
GHCND:ASN00014864,"MOOLOOLOO, AS",2021-03-09,1989-01-01,-16.3541,120.0,131.5147,0.7943,METERS
GHCND:ASN00014901,"DOUGLAS RIVER, AS",2021-03-14,1968-01-01,-13.8345,42.8,131.1872,0.8813,METERS
GHCND:ASN00014902,"KATHERINE COUNCIL, AS",2021-03-12,1873-07-01,-14.4589,106.9,132.2572,0.8422,METERS
GHCND:ASN00014910,"KATHERINE RESEARCH FARM, AS",2020-10-31,1969-01-01,-14.4741,109.7,132.3053,0.8604,METERS
GHCND:ASN00014921,"WILLEROO, AS",2017-12-31,1909-08-01,-15.2869,213.0,131.5816,0.7745,METERS
GHCND:ASN00014927,"CDU KATHERINE RURAL CAMPUS, AS",2021-01-31,1958-10-01,-14.3731,142.3,132.1566,0.7832,METERS
GHCND:ASN00014932,"TINDAL RAAF, AS",2021-03-14,1969-09-01,-14.5229,133.6,132.3826,0.762,METERS
GHCND:ASN00014933,"PINE CREEK, AS",2019-04-30,1874-05-01,-13.8241,189.0,131.8372,0.7782,METERS
GHCND:ASN00014938,"MANGO FARM, AS",2015-12-31,1980-05-19,-13.7379,15.2,130.6834,0.995,METERS
GHCND:ASN00014941,"OOLLOO, AS",2013-05-31,1962-01-01,-13.9156,35.0,131.2118,0.9443,METERS
GHCND:ASN00015005,"AVON DOWNS, AS",2020-11-12,1909-01-01,-20.0298,205.0,137.4906,0.882,METERS
GHCND:ASN00015015,"HELEN SPRINGS, AS",2020-12-31,1945-01-01,-18.4336,288.0,133.8774,0.8197,METERS
GHCND:ASN00015019,"LAKE NASH, AS",2013-12-31,1891-01-31,-20.9645,194.0,137.9214,0.8588,METERS
GHCND:ASN00015027,"ROCKHAMPTON DOWNS, AS",2020-05-02,1948-01-01,-18.9485,224.6,135.1934,0.779,METERS
GHCND:ASN00015081,"ANTHONY LAGOON, AS",2021-02-15,1899-10-01,-17.9776,213.0,135.532,0.7629,METERS
GHCND:ASN00015085,"BRUNETTE DOWNS, AS",2021-02-08,1891-01-01,-18.637,218.0,135.945,0.9218,METERS
GHCND:ASN00015086,"NEWCASTLE WATERS, AS",2020-02-29,1889-01-01,-17.3789,209.0,133.4099,0.8615,METERS
GHCND:ASN00015088,"ALEXANDRIA, AS",2021-03-12,1886-01-01,-19.0579,274.0,136.7066,0.833,METERS
GHCND:ASN00015125,"MITTIEBAH, AS",2016-01-31,1968-01-01,-18.8055,268.0,137.0872,0.8436,METERS
GHCND:ASN00015131,"ELLIOTT, AS",2021-03-14,1949-10-01,-17.5521,220.0,133.5407,0.8,METERS
GHCND:ASN00015135,"TENNANT CREEK AIRPORT, AS",2021-03-13,1969-07-17,-19.6423,375.7,134.1833,0.9965,METERS
GHCND:ASN00015139,"WARRAMUNGA, AS",2021-03-11,1971-02-01,-19.933,381.0,134.3548,0.9375,METERS
GHCND:ASN00015501,"YAMBAH, AS",2021-01-28,1968-01-01,-23.1273,700.0,133.836,0.9495,METERS
GHCND:ASN00018074,"ROOPENA, AS",2013-08-31,1891-06-01,-32.7255,92.0,137.4028,0.9579,METERS
GHCND:ASN00018077,"SMOKY BAY, AS",2021-01-31,1912-07-01,-32.3752,4.0,133.9353,0.9752,METERS
GHCND:ASN00018079,"STREAKY BAY, AS",2021-03-14,1878-01-01,-32.7963,13.0,134.2116,0.9767,METERS
GHCND:ASN00018084,"LOCK NINAMANIMA, AS",2015-08-31,1929-12-01,-33.7857,140.0,135.8435,0.8337,METERS
GHCND:ASN00018086,"TUMBY BAY, AS",2021-03-10,1906-10-01,-34.3756,6.0,136.1026,0.9079,METERS
GHCND:ASN00018088,"UNGARRA, AS",2019-12-31,1909-09-15,-34.1806,98.0,136.049,0.8911,METERS
GHCND:ASN00018089,"WADDIKEE, AS",2021-01-04,1927-07-01,-33.3173,175.0,136.2515,0.8955,METERS
GHCND:ASN00018090,"WARRAMBOO, AS",2020-08-31,1924-11-01,-33.2421,89.0,135.5978,0.946,METERS
GHCND:ASN00018091,"TUMBY BAY WARRATTA VALE, AS",2021-02-28,1876-12-01,-34.2617,45.0,136.2092,0.935,METERS
GHCND:ASN00018094,"WIRRULLA, AS",2021-03-13,1922-06-01,-32.4035,79.0,134.5323,0.9514,METERS
GHCND:ASN00018095,"WUDINNA, AS",2013-06-30,1927-01-01,-33.046,85.0,135.4601,0.8952,METERS
GHCND:ASN00018096,"CLEVE PINEVIEW, AS",2021-01-31,1938-06-02,-33.6824,176.0,136.6831,0.9655,METERS
GHCND:ASN00018098,"YANINEE, AS",2020-12-31,1919-04-01,-32.9475,87.0,135.2754,0.8489,METERS
GHCND:ASN00018101,"KOONGAWA RETAWON, AS",2020-12-31,1951-08-18,-33.1567,170.0,135.8668,0.882,METERS
GHCND:ASN00018104,"YALLUNDA FLAT MEETIGILLY, AS",2020-12-31,1911-01-01,-34.3494,197.0,135.8979,0.9018,METERS
GHCND:ASN00018107,"PORT LINCOLN WOOLGA, AS",2021-01-31,1891-06-06,-34.5911,228.0,135.7572,0.9706,METERS
GHCND:ASN00018110,"COOK, AS",2021-03-08,1918-02-01,-30.6143,120.0,130.4136,0.919,METERS
GHCND:ASN00018114,"MARALINGA, AS",2021-03-13,1955-05-23,-30.1591,290.0,131.579,0.7781,METERS
GHCND:ASN00018116,"CLEVE AERODROME, AS",2021-03-14,1963-01-01,-33.7081,175.0,136.5026,0.9068,METERS
GHCND:ASN00018117,"WHYALLA MOOLA, AS",2016-05-20,1958-01-01,-33.1087,170.0,137.1737,0.9513,METERS
GHCND:ASN00018120,"WHYALLA AERO, AS",2021-03-14,1979-01-01,-33.0539,6.5,137.5205,0.9239,METERS
GHCND:ASN00018137,"PORT LINCOLN WESTMERE, AS",2020-12-01,1906-11-01,-34.8344,90.0,135.6975,0.906,METERS
GHCND:ASN00018150,"PORT KENNY, AS",2020-12-31,1966-09-01,-33.1697,2.0,134.6917,0.9318,METERS
GHCND:ASN00018162,"COURELA LINDARNOE, AS",2013-05-31,1967-01-01,-32.5423,42.0,134.3852,0.9461,METERS
GHCND:ASN00018164,"MURDINGA MUNGALA, AS",2021-01-31,1969-03-01,-33.6993,98.0,135.9238,0.9843,METERS
GHCND:ASN00018165,"LOCK TERRAH WINDS, AS",2021-01-31,1969-03-01,-33.5733,81.0,135.602,0.9879,METERS
GHCND:ASN00018166,"WIRRULLA PIMBENA, AS",2021-01-31,1969-01-01,-32.2811,95.0,134.4714,0.9931,METERS
GHCND:ASN00018170,"KYANCUTTA KYANBRAE, AS",2020-04-30,1969-04-01,-33.1394,97.0,135.7271,0.7926,METERS
GHCND:ASN00018171,"MOUNT HOPE FAIRVIEW, AS",2021-03-13,1913-02-01,-34.1361,60.0,135.3319,0.9844,METERS
GHCND:ASN00018172,"BUCKLEBOO HI VIEW, AS",2020-12-31,1969-04-01,-32.921,250.0,135.9996,0.9961,METERS
GHCND:ASN00018174,"RUDALL SWAFFPRO, AS",2021-01-31,1969-04-01,-33.7234,98.0,136.1511,0.9854,METERS
GHCND:ASN00018175,"BUTLER MOODY VALE, AS",2016-01-31,1969-03-01,-34.0386,112.0,136.0107,0.9947,METERS
GHCND:ASN00018176,"COWELL WINTER SPRINGS, AS",2021-03-14,1969-11-28,-33.3416,281.0,136.7518,0.9964,METERS
GHCND:ASN00018177,"KIMBA MELALEUCA, AS",2018-12-31,1969-04-01,-33.075,153.0,136.0918,0.7841,METERS
GHCND:ASN00018184,"CLEVE NINGANA, AS",2021-01-31,1973-08-01,-33.6125,281.0,136.3722,0.9843,METERS
GHCND:ASN00018186,"SIAM, AS",2020-09-30,1907-05-01,-32.5534,177.0,136.7123,0.8876,METERS
GHCND:ASN00018188,"COFFIN BAY, AS",2021-03-13,1984-05-01,-34.6252,12.0,135.4725,0.8297,METERS
GHCND:ASN00018189,"ELLISTON LAMBING STATION, AS",2021-01-31,1987-01-01,-33.7516,39.0,135.1863,0.9904,METERS
GHCND:ASN00018190,"BUCKLEBOO KARINYA, AS",2021-03-14,1987-08-01,-32.9004,235.0,136.1858,0.9594,METERS
GHCND:ASN00018203,"TUMBY BAY YADNARIE, AS",2021-01-31,1964-01-01,-34.344,55.0,136.0471,0.8745,METERS
GHCND:ASN00019001,"APPILA, AS",2021-03-11,1882-02-01,-33.0524,369.0,138.4277,0.9319,METERS
GHCND:ASN00019002,"QUORN DEPOT FLAT, AS",2021-01-31,1886-09-01,-32.2507,470.0,137.9776,0.9587,METERS
GHCND:ASN00019004,"BELTON SHADOW VALE, AS",2014-06-30,1884-01-01,-32.2425,485.0,138.7105,0.9102,METERS
GHCND:ASN00019005,"ORROROO BLACK ROCK, AS",2020-10-27,1878-01-01,-32.8247,428.0,138.6907,0.9151,METERS
GHCND:ASN00019006,"BOOLEROO CENTRE, AS",2021-03-07,1884-01-01,-32.881,403.0,138.3519,0.9561,METERS
GHCND:ASN00019008,"BRUCE, AS",2021-03-13,1896-09-01,-32.4618,242.0,138.2004,0.9395,METERS
GHCND:ASN00019009,"CARRIETON, AS",2021-03-11,1883-01-01,-32.4244,435.0,138.5304,0.8699,METERS
GHCND:ASN00019010,"CRADOCK, AS",2021-01-31,1888-02-01,-32.0695,405.0,138.4948,0.9188,METERS
GHCND:ASN00019011,"MURRAY TOWN DOUGHBOY CREEK, AS",2011-09-30,1884-01-01,-32.9211,400.0,138.2202,0.9454,METERS
GHCND:ASN00019012,"ORROROO KYLMORN, AS",2020-12-31,1901-11-01,-32.7053,428.0,138.7796,0.9352,METERS
GHCND:ASN00019013,"CARRIETON EURELIA, AS",2021-01-31,1882-01-01,-32.5373,528.2,138.5626,0.9169,METERS
GHCND:ASN00019014,"DAWSON ANDA VALE, AS",2020-12-31,1902-03-01,-32.8037,460.0,138.9218,0.9636,METERS
GHCND:ASN00019017,"HAWKER, AS",2021-03-14,1882-01-01,-31.8846,315.0,138.435,0.9671,METERS
GHCND:ASN00019018,"HAWKER HOLOWILENA, AS",2020-12-31,1868-02-01,-31.8777,495.0,138.8372,0.8694,METERS
GHCND:ASN00019024,"MELROSE, AS",2021-03-11,1862-12-01,-32.8294,386.0,138.1907,0.762,METERS
GHCND:ASN00019030,"QUORN OLIVE GROVE, AS",2016-12-31,1881-02-01,-32.4683,420.0,138.0159,0.8809,METERS
GHCND:ASN00019031,"OODLA WIRRA, AS",2021-03-14,1919-06-01,-32.8776,521.0,139.0578,0.9046,METERS
GHCND:ASN00019032,"ORROROO, AS",2021-03-09,1868-02-01,-32.7335,428.0,138.6135,0.8327,METERS
GHCND:ASN00019034,"PETERBOROUGH, AS",2020-12-31,1881-02-01,-32.9737,534.0,138.8375,0.8726,METERS
GHCND:ASN00019037,"PORT GERMEIN, AS",2021-03-14,1882-01-01,-33.0216,4.0,138.0002,0.95,METERS
GHCND:ASN00019038,"QUORN, AS",2021-03-14,1881-02-01,-32.3538,295.0,138.0371,0.9005,METERS
GHCND:ASN00019042,"MELROSE PARA GUMS, AS",2021-01-31,1889-12-02,-32.8454,343.0,138.2116,0.8271,METERS
GHCND:ASN00019043,"TARCOWIE, AS",2021-01-31,1934-11-01,-32.9495,504.0,138.5174,0.9731,METERS
GHCND:ASN00019046,"HAWKER WARCOWIE, AS",2021-01-31,1872-02-01,-31.775,490.0,138.6529,0.8829,METERS
GHCND:ASN00019047,"BOOLEROO CENTRE WILLOWIE, AS",2021-03-14,1898-02-01,-32.6923,316.0,138.3247,0.9613,METERS
GHCND:ASN00019048,"WILMINGTON, AS",2021-03-11,1879-01-01,-32.6521,330.0,138.1003,0.9292,METERS
GHCND:ASN00019050,"HAWKER WILSON, AS",2021-03-14,1885-09-01,-31.9883,345.0,138.3424,0.9612,METERS
GHCND:ASN00019052,"WIRRABARA, AS",2021-03-14,1878-01-01,-33.0338,330.0,138.2686,0.915,METERS
GHCND:ASN00019053,"WIRRABARA FOREST, AS",2021-03-11,1879-01-01,-33.0856,380.0,138.2211,0.9045,METERS
GHCND:ASN00019057,"ORROROO YALPARA, AS",2021-01-31,1907-07-25,-32.552,302.0,138.8688,0.9699,METERS
GHCND:ASN00019061,"CRADOCK YEDNALUE, AS",2021-01-31,1917-01-01,-32.0545,540.0,138.6427,0.984,METERS
GHCND:ASN00019062,"YONGALA, AS",2021-03-14,1881-02-01,-33.0287,512.0,138.7489,0.867,METERS
GHCND:ASN00015525,"BARROW CREEK, AS",2016-09-30,1874-08-01,-21.5317,510.5,133.8901,0.8205,METERS
GHCND:ASN00015528,"YUENDUMU, AS",2019-11-08,1952-02-01,-22.2562,667.0,131.8017,0.9532,METERS
GHCND:ASN00015530,"ELKEDRA, AS",2018-04-10,1944-01-01,-21.1661,356.0,135.446,0.7641,METERS
GHCND:ASN00015535,"CONISTON, AS",2021-03-01,1948-07-01,-22.0496,680.0,132.4948,0.7532,METERS
GHCND:ASN00015548,"RABBIT FLAT, AS",2021-03-10,1969-08-12,-20.1883,340.0,130.0161,0.9007,METERS
GHCND:ASN00015552,"HENBURY, AS",2014-02-28,1897-01-01,-24.5521,432.0,133.2521,0.8275,METERS
GHCND:ASN00015553,"HAMILTON DOWNS, AS",2015-12-31,1958-01-01,-23.5102,594.0,133.2685,0.8483,METERS
GHCND:ASN00015554,"VAUGHAN SPRINGS, AS",2020-12-23,1960-01-01,-22.2984,610.0,130.8499,0.9287,METERS
GHCND:ASN00015555,"TANAMI DOWNS, AS",2012-03-31,1966-11-01,-20.5649,305.0,129.7252,0.7847,METERS
GHCND:ASN00015572,"STIRLING, AS",2015-12-26,1966-01-01,-21.7322,485.0,133.7624,0.8235,METERS
GHCND:ASN00015574,"ERLDUNDA, AS",2020-12-31,1933-03-01,-25.2219,406.0,133.1955,0.8256,METERS
GHCND:ASN00015575,"CLARAVILLE, AS",2015-12-31,1973-06-01,-23.3732,592.0,134.7503,0.8395,METERS
GHCND:ASN00015584,"ARGADARGADA, AS",2016-06-30,1968-11-01,-21.6743,289.0,136.6654,0.8226,METERS
GHCND:ASN00015585,"AMMAROO, AS",2021-01-31,1956-01-01,-21.7498,396.0,135.2382,0.9521,METERS
GHCND:ASN00015588,"AMBALINDUM, AS",2021-02-28,1966-01-01,-23.3845,656.0,134.6841,0.7567,METERS
GHCND:ASN00015590,"ALICE SPRINGS AIRPORT, AS",2021-03-14,1941-11-01,-23.7951,546.0,133.889,0.9995,METERS
GHCND:ASN00015600,"NEW CROWN, AS",2015-07-25,1950-01-01,-25.6766,216.0,134.8333,0.8518,METERS
GHCND:ASN00015601,"THE DERWENT, AS",2017-03-31,1966-09-01,-23.1725,604.0,132.1498,0.8174,METERS
GHCND:ASN00015602,"JERVOIS, AS",2021-03-14,1966-01-01,-22.9494,328.0,136.1442,0.9988,METERS
GHCND:ASN00015603,"KULGERA, AS",2020-05-12,1968-11-01,-25.8428,508.6,133.3027,0.928,METERS
GHCND:ASN00015607,"MOUNT DENISON, AS",2021-03-14,1966-01-01,-22.1305,617.0,132.0812,0.8139,METERS
GHCND:ASN00015608,"MURRAY DOWNS, AS",2017-11-30,1966-01-01,-21.0434,400.0,134.6752,0.7748,METERS
GHCND:ASN00015610,"INDIANA, AS",2021-03-10,1966-01-01,-23.3292,442.0,135.44,0.7512,METERS
GHCND:ASN00015611,"NEWHAVEN, AS",2021-03-14,1962-01-01,-22.7228,609.0,131.1685,0.9196,METERS
GHCND:ASN00015612,"PAPUNYA, AS",2014-10-10,1958-01-01,-23.2044,608.0,131.9156,0.8001,METERS
GHCND:ASN00015617,"SANTA TERESA, AS",2021-01-31,1966-09-01,-24.1313,427.0,134.3737,0.7567,METERS
GHCND:ASN00015619,"TODD RIVER, AS",2020-12-31,1954-10-01,-23.8398,427.0,134.5089,0.7839,METERS
GHCND:ASN00015620,"TARLTON DOWNS, AS",2015-12-31,1953-01-01,-22.6577,283.5,136.7998,0.8962,METERS
GHCND:ASN00015624,"VICTORY DOWNS, AS",2020-11-30,1945-01-01,-25.9891,549.3,132.9748,0.7657,METERS
GHCND:ASN00015626,"WOODGREEN, AS",2021-02-28,1946-07-01,-22.3961,564.0,134.2335,0.9944,METERS
GHCND:ASN00015627,"HORSESHOE BEND, AS",2013-12-31,1974-01-01,-25.2141,285.6,134.2431,0.7786,METERS
GHCND:ASN00015633,"PALM VALLEY, AS",2021-02-28,1981-05-14,-24.0636,520.0,132.7444,0.9501,METERS
GHCND:ASN00015635,"YULARA AERO, AS",2021-03-14,1983-06-22,-25.1896,492.0,130.9737,0.873,METERS
GHCND:ASN00015641,"THE GRANITES, AS",2021-03-14,1986-09-12,-20.5476,430.0,130.3466,0.8298,METERS
GHCND:ASN00015642,"WALLACE ROCK HOLE, AS",2018-01-31,1986-01-01,-24.1267,640.0,133.0848,0.9862,METERS
GHCND:ASN00015643,"TERRITORY GRAPE FARM, AS",2021-03-14,1987-01-01,-22.4518,565.6,133.6377,0.9469,METERS
GHCND:ASN00015647,"ATULA, AS",2014-07-31,1979-01-01,-23.2531,305.0,136.3816,0.9914,METERS
GHCND:ASN00015652,"WATARRKA, AS",2021-03-14,1990-05-01,-24.2914,614.0,131.5488,0.9312,METERS
GHCND:ASN00015653,"GEMTREE PARK, AS",2021-03-14,1990-01-01,-22.9689,635.0,134.2415,0.875,METERS
GHCND:ASN00015657,"EPENARRA, AS",2019-05-20,1963-01-01,-20.4442,310.0,135.2631,0.8866,METERS
GHCND:ASN00015661,"MOUNT SKINNER, AS",2021-01-31,1963-01-01,-22.2109,530.0,134.1182,0.963,METERS
GHCND:ASN00015667,"ORMISTON GORGE, AS",2021-03-13,1971-05-01,-23.6338,700.0,132.7311,0.8021,METERS
GHCND:ASN00015673,"TREPHINA GORGE, AS",2021-01-28,1988-01-01,-23.5312,530.0,134.3743,0.8597,METERS
GHCND:ASN00016000,"WOOMERA ARCOONA, AS",2014-12-31,1882-01-01,-31.0228,125.0,137.0494,0.8893,METERS
GHCND:ASN00016001,"WOOMERA AERODROME, AS",2021-03-14,1949-04-01,-31.1558,166.6,136.8054,0.9987,METERS
GHCND:ASN00016003,"BULGUNNIA, AS",2020-12-31,1930-08-01,-30.1658,165.0,134.8928,0.9062,METERS
GHCND:ASN00016005,"PORT AUGUSTA CARRIEWERLOO STATION, AS",2021-01-31,1882-01-01,-32.3997,175.0,137.225,0.965,METERS
GHCND:ASN00016006,"TARCOOLA COMMONWEALTH HILL, AS",2021-02-12,1941-08-01,-29.9434,181.0,134.1506,0.9467,METERS
GHCND:ASN00016007,"COOBER PEDY, AS",2018-12-10,1921-01-01,-29.004,215.0,134.7564,0.8698,METERS
GHCND:ASN00016009,"COONDAMBO, AS",2020-06-30,1885-09-01,-31.0623,155.0,135.8659,0.9202,METERS
GHCND:ASN00016021,"KOKATHA, AS",2021-01-31,1931-02-01,-31.2609,190.0,135.2374,0.9695,METERS
GHCND:ASN00016022,"KONDOOLKA, AS",2019-12-31,1905-07-01,-31.9956,200.0,134.8829,0.9311,METERS
GHCND:ASN00016024,"TARCOOLA LAKE EVERARD, AS",2020-03-04,1933-01-01,-31.7397,200.0,135.1722,0.9119,METERS
GHCND:ASN00016025,"WOOMERA MAHANEWO, AS",2018-12-31,1910-05-01,-31.7293,150.0,136.4448,0.8846,METERS
GHCND:ASN00016027,"COOBER PEDY MCDOUALL PEAK, AS",2020-08-05,1909-05-01,-29.8409,150.0,134.9035,0.881,METERS
GHCND:ASN00016028,"GLENDAMBO MILLERS CREEK, AS",2021-01-31,1929-08-01,-30.0047,120.0,136.0445,0.9585,METERS
GHCND:ASN00016030,"MOUNT EBA, AS",2021-01-26,1914-01-01,-30.1809,158.0,135.6629,0.95,METERS
GHCND:ASN00016031,"TARCOOLA MULGATHING, AS",2021-02-01,1934-01-01,-30.2406,198.0,133.9885,0.9754,METERS
GHCND:ASN00016032,"NONNING, AS",2021-01-26,1903-10-01,-32.5226,200.0,136.4926,0.8732,METERS
GHCND:ASN00016033,"WOOMERA OAKDEN HILLS, AS",2020-08-07,1879-12-01,-31.6611,134.0,137.0382,0.8961,METERS
GHCND:ASN00016034,"HILTABA, AS",2021-02-28,1918-01-01,-32.1572,230.0,135.0722,0.7798,METERS
GHCND:ASN00016035,"ROXBY DOWNS PARAKYLIA STATION, AS",2021-01-31,1936-12-01,-30.4027,84.0,136.392,0.8688,METERS
GHCND:ASN00016036,"WOOMERA PERNATTY STATION, AS",2017-12-01,1928-01-01,-31.4831,100.0,137.4805,0.9321,METERS
GHCND:ASN00016040,"ROXBY DOWNS STATION, AS",2014-11-30,1931-02-01,-30.7037,110.0,136.7533,0.8772,METERS
GHCND:ASN00016043,"WOOMERA SOUTH GAP STATION, AS",2021-01-31,1882-01-01,-31.6338,43.0,137.6218,0.9687,METERS
GHCND:ASN00016046,"THURLGA, AS",2013-02-28,1898-08-27,-32.4395,300.0,135.773,0.8055,METERS
GHCND:ASN00016047,"TODMORDEN, AS",2021-03-13,1949-05-01,-27.1391,200.0,134.7575,0.8839,METERS
GHCND:ASN00016055,"YARDEA, AS",2021-03-14,1877-11-01,-32.3792,260.0,135.5247,0.936,METERS
GHCND:ASN00016056,"YUDNAPINNA, AS",2021-03-13,1884-08-01,-32.1232,128.0,137.1505,0.9231,METERS
GHCND:ASN00016059,"TARCOOLA MOBELLA, AS",2021-02-12,1953-08-01,-29.8113,179.0,133.3603,0.8593,METERS
GHCND:ASN00016082,"MOUNT BARRY, AS",2021-03-13,1980-12-01,-28.2415,130.0,134.9899,0.8026,METERS
GHCND:ASN00016083,"HAMILTON STATION, AS",2019-05-31,1931-02-01,-26.7134,170.0,135.0782,0.8361,METERS
GHCND:ASN00016084,"GLENDAMBO, AS",2018-02-13,1982-09-01,-30.9693,150.0,135.7508,0.7583,METERS
GHCND:ASN00016086,"MOONAREE KANGAROO WELL, AS",2019-10-31,1986-03-01,-31.7646,275.0,135.6494,0.9358,METERS
GHCND:ASN00016098,"TARCOOLA AERO, AS",2021-03-14,1990-02-01,-30.7051,123.0,134.5786,0.9481,METERS
GHCND:ASN00017004,"ANNA CREEK, AS",2020-12-20,1883-01-01,-28.8921,105.0,136.1688,0.8215,METERS
GHCND:ASN00017014,"BLINMAN, AS",2021-03-11,1874-02-01,-31.0939,615.7,138.6786,0.8936,METERS
GHCND:ASN00017019,"CORDILLO DOWNS, AS",2014-12-31,1883-01-01,-26.7061,71.0,140.6261,0.7976,METERS
GHCND:ASN00017024,"MARREE FARINA, AS",2021-03-14,1879-12-01,-30.066,91.0,138.2739,0.8385,METERS
GHCND:ASN00017028,"INNAMINCKA STATION, AS",2020-12-31,1882-11-01,-27.724,53.0,140.7633,0.8827,METERS
GHCND:ASN00017031,"MARREE COMPARISON, AS",2015-01-09,1885-08-01,-29.6481,50.0,138.0637,0.9967,METERS
GHCND:ASN00017032,"BLINMAN MOOLOOLOO, AS",2021-02-13,1947-01-01,-30.9904,460.0,138.5787,0.9777,METERS
GHCND:ASN00017041,"BLINMAN NARRINA, AS",2021-01-31,1937-03-01,-30.9372,438.0,138.8919,0.9126,METERS
GHCND:ASN00017043,"OODNADATTA AIRPORT, AS",2021-03-14,1939-03-05,-27.5553,116.5,135.4456,0.8649,METERS
GHCND:ASN00017052,"GAMMON RANGES WERTALOONA, AS",2013-11-30,1906-06-01,-30.6383,100.0,139.3445,0.8999,METERS
GHCND:ASN00017054,"BLINMAN WIRREALPA, AS",2021-01-31,1875-11-01,-31.1278,255.0,138.9618,0.9258,METERS
GHCND:ASN00017056,"GAMMON RANGES WOOLTANA, AS",2020-09-30,1877-11-01,-30.4132,135.0,139.4198,0.8254,METERS
GHCND:ASN00017070,"MOUNT DARE, AS",2021-02-13,1950-01-01,-26.0702,150.0,135.2471,0.9284,METERS
GHCND:ASN00017097,"BLINMAN ANGORICHINA, AS",2020-12-31,1969-01-01,-31.0885,570.0,138.7412,0.9112,METERS
GHCND:ASN00017098,"PARACHILNA MOTPENA, AS",2021-03-14,1969-03-01,-31.1881,85.0,138.2785,0.9871,METERS
GHCND:ASN00017099,"ARKAROOLA, AS",2021-03-13,1938-01-01,-30.311,318.0,139.3357,0.9716,METERS
GHCND:ASN00017106,"BROUGHAMS GATE HOUSE NEW QUIN, AS",2020-12-31,1973-01-01,-30.8718,61.0,140.971,0.7542,METERS
GHCND:ASN00017110,"LEIGH CREEK AIRPORT, AS",2021-03-14,1982-05-01,-30.5963,258.8,138.4219,0.9764,METERS
GHCND:ASN00017111,"INNAMINCKA DULLINGARI, AS",2015-01-31,1984-01-01,-28.1484,88.0,140.8672,0.9088,METERS
GHCND:ASN00017112,"MOOMBA TIRRAWARRA, AS",2017-01-31,1984-01-01,-27.6908,40.0,140.1066,0.8344,METERS
GHCND:ASN00017113,"PARACHILNA NILPENA, AS",2021-01-31,1973-01-01,-31.0086,90.0,138.2294,0.7803,METERS
GHCND:ASN00017115,"CAMERON CORNER LINDON, AS",2020-10-24,1987-10-01,-29.1266,110.0,140.9018,0.9356,METERS
GHCND:ASN00017119,"BELTANA ROADHOUSE, AS",2021-03-11,1986-01-01,-30.8406,180.0,138.3224,0.9873,METERS
GHCND:ASN00018001,"ARNO BAY, AS",2021-02-05,1907-08-01,-33.9118,9.0,136.5697,0.9355,METERS
GHCND:ASN00018002,"PENONG PENALUMBA, AS",2019-12-31,1898-09-01,-31.831,44.0,132.6262,0.9595,METERS
GHCND:ASN00018005,"YEELANA BRIMPTON LAKE, AS",2021-01-31,1907-10-15,-34.0586,62.0,135.5036,0.9498,METERS
GHCND:ASN00018006,"WHYALLA BROADVIEW, AS",2016-06-19,1932-11-01,-33.1217,118.0,137.2273,0.832,METERS
GHCND:ASN00018007,"YEELANA BROOKER, AS",2021-02-12,1913-10-01,-34.1003,115.0,135.8415,0.9707,METERS
GHCND:ASN00018011,"CEDUNA POST OFFICE, AS",2021-02-10,1906-05-01,-32.1267,10.0,133.6725,0.9465,METERS
GHCND:ASN00018012,"CEDUNA AMO, AS",2021-03-14,1939-03-01,-32.1297,15.3,133.6976,0.9965,METERS
GHCND:ASN00018014,"CLEVE, AS",2021-03-14,1896-02-18,-33.7011,193.0,136.4937,0.9811,METERS
GHCND:ASN00018017,"PORT LINCOLN BIG SWAMP, AS",2019-12-31,1897-05-01,-34.6266,110.0,135.6992,0.9324,METERS
GHCND:ASN00018022,"COWELL, AS",2021-03-10,1885-12-01,-33.6772,12.0,136.9116,0.9348,METERS
GHCND:ASN00018023,"CUMMINS, AS",2021-03-11,1914-07-01,-34.2644,65.0,135.7266,0.8957,METERS
GHCND:ASN00018024,"DARKE PEAK, AS",2021-03-14,1914-07-06,-33.4678,165.0,136.2113,0.985,METERS
GHCND:ASN00018031,"IRON KNOB GILLES DOWNS, AS",2020-12-31,1928-04-01,-32.868,185.0,137.0029,0.7907,METERS
GHCND:ASN00018033,"CEDUNA GOODE, AS",2021-01-31,1908-10-01,-31.9674,132.0,133.7658,0.973,METERS
GHCND:ASN00018034,"IRON KNOB, AS",2021-01-31,1911-01-01,-32.7324,158.0,137.1505,0.9486,METERS
GHCND:ASN00018036,"KARCULTABY, AS",2020-12-31,1922-01-01,-32.7357,134.0,134.9709,0.972,METERS
GHCND:ASN00018037,"KIMBA CURTINYE, AS",2020-12-31,1918-07-01,-33.1861,308.0,136.559,0.9262,METERS
GHCND:ASN00018040,"KIMBA, AS",2021-03-14,1920-11-01,-33.1414,280.0,136.4125,0.9727,METERS
GHCND:ASN00018043,"KOPPIO, AS",2021-02-28,1897-12-01,-34.4139,173.0,135.8224,0.8055,METERS
